name,vehicle,t,north,east,down,u,v,w,p_rad,p_deg,p_hat_div_b,q_deg,q_rad,q_hat_div_c,r_rad,r_deg,r_hat_div_b,phi_rad,phi_deg,theta_rad,theta_deg,psi_rad,psi_deg,speed,altitude,mach,alpha_rad,alpha_deg,beta_rad,beta_deg,gamma_rad,gamma_deg,u_dot,v_dot,w_dot,north_dot,east_dot,down_dot,p_rad_dot,q_rad_dot,r_rad_dot,phi_rad_dot,theta_rad_dot,psi_rad_dot,del_tail_alt_rad,del_tail_splay_rad,DIM_b,DIM_c_bar,DIM_S,DIM_wing_position,DIM_wing_incidence_rad,DIM_wing_incidence_deg,DIM_empennage_length,DIM_nose_length,DIM_tail_length,CDp,CDq,CDr,CYp,CYq,CYr,CLp,CLq,CLr,Clp,Clq,Clr,Cmp,Cmq,Cmr,Cnp,Cnq,Cnr,CL_0,Cm_0,CD_0,Cl_0,CY_0,Cn_0,CL,CD,CY,Cl,Cm,Cn,p_hat,q_hat,r_hat,drag_force_wind,side_force_wind,lift_force_wind,roll_moment_wind,pitch_moment_wind,yaw_moment_wind,qbar,X_total,Y_total,Z_total,L_total,M_total,N_total
sim_raptor_glider_3dof,raptor_glider_3dof,0.0,-15.0,0.0,0.0,12.0,0.0,0.0,0.0,0.0,0.0,0.0,0.0,0.0,0.0,0.0,0.0,0.0,0.0,0.0,0.0,0.0,0.0,12.0,-0.0,0.035264039495724236,0.0,0.0,0.0,0.0,0.0,0.0,-6.510882726429512,0.0,-21.71811981678014,12.0,0.0,0.0,0.0,-52.65064545735818,0.0,0.0,0.0,0.0,0.25335956536708204,0.3490658503988659,1.0,0.14,0.14,0.75,0.08726646259971647,5.0,0.184,0.175,0.174,0.0,0.0,0.0,-0.001988687744888966,0.0,0.018294939077127637,0.0,6.069123946037049,0.0,-0.5148370810943329,0.0,0.19460261257099576,0.0,-3.6837192279879405,0.0,-0.04598781258916826,0.0,-0.016930066657475026,0.7020821272447089,-0.22936735741313144,0.1450026255982144,0.0,0.0,0.0,0.7020821272447089,0.1450026255982144,0.0,0.0,-0.22936735741313144,0.0,0.0,0.0,0.0,1.7904927497681158,0.0,8.66931169961454,0.0,-0.3965120109393645,0.0,88.20001620075907,-1.7904927497681158,0.0,-8.66931169961454,0.0,-0.3965120109393645,0.0
sim_raptor_glider_3dof,raptor_glider_3dof,0.001,-14.988003259198283,0.0,-0.000010783045859652315,11.993477285880445,0.0,-0.02180368520650612,0.0,0.0,0.0,-3.0037359086208912,-0.05242508146581808,-0.00218556276817572,0.0,0.0,0.0,0.0,0.0,-0.00002625050286882793,-0.0015040430244799,0.0,0.0,11.993497104998973,0.000010783045859652315,0.035244929633544836,-0.001817959934933461,-0.10416143159556507,0.0,0.0,0.001791709432064633,0.10265738857108517,-6.53467350626526,0.0,-21.88776694782455,11.993477854105858,0.0,-0.02148885038912971,0.0,-52.19981421410456,0.0,0.0,-0.05242508146581808,0.0,0.25335956536708204,0.3490658503988659,1.0,0.14,0.14,0.75,0.08726646259971647,5.0,0.184,0.175,0.174,0.0,0.0,0.0,-0.002042765293205219,0.0,0.018261184266116927,0.0,6.070333359343128,0.0,-0.515103277003458,0.0,0.192522550001687,0.0,-3.6851057581758258,0.0,-0.04543968051980405,0.0,-0.01669999781722648,0.694728861638835,-0.22877758348715724,0.14441120586855846,0.0,0.0,0.0,0.6928714683975516,0.14441120586855846,0.0,0.0,-0.22765001929529696,0.0,0.0,-0.0003059787875446008,0.0,1.781257771818769,0.0,8.546308304342817,0.0,-0.3931168008464215,0.0,88.10444952787165,-1.7967916658411454,0.0,-8.543055928185625,0.0,-0.3931168008464215,0.0
sim_raptor_glider_3dof,raptor_glider_3dof,0.002,-14.976013051147952,0.0,-0.00004282467561428752,11.986930408199589,0.0,-0.043772640000236646,0.0,0.0,0.0,-5.981691935290842,-0.10440021911081679,-0.00435472299745416,0.0,0.0,0.0,0.0,0.0,-0.00010470059997946163,-0.005998902491310665,0.0,0.0,11.987010330146235,0.00004282467561428752,0.035225867143160935,-0.0036516809511163515,-0.2092259066272852,0.0,0.0,0.00354698035113689,0.20322700413597455,-6.559202870813303,0.0,-22.048699590841487,11.986934925519593,0.0,-0.04251760095695654,0.0,-51.75075810951327,0.0,0.0,-0.10440021911081679,0.0,0.25335956536708204,0.3490658503988659,1.0,0.14,0.14,0.75,0.08726646259971647,5.0,0.184,0.175,0.174,0.0,0.0,0.0,-0.0020975607205769623,0.0,0.018228770954225412,0.0,6.071537309185226,0.0,-0.5153680293120172,0.0,0.19042383824815115,0.0,-3.6864916755607835,0.0,-0.044887713822706496,0.0,-0.016470381542549567,0.6872831605218064,-0.22818347190367505,0.14382118457973742,0.0,0.0,0.0,0.683581579680777,0.14382118457973742,0.0,0.0,-0.22593596089254675,0.0,0.0,-0.0006096612196435825,0.0,1.7720616591818499,0.0,8.422602774514564,0.0,-0.38973495932274443,0.0,88.00917136691174,-1.8028064339293615,0.0,-8.41607562840221,0.0,-0.38973495932274443,0.0
sim_raptor_glider_3dof,raptor_glider_3dof,0.003,-14.964029395375375,0.0,-0.00009566410704128883,11.980358647240278,0.0,-0.06589823933944072,0.0,0.0,0.0,-8.933970267502183,-0.15592719644319164,-0.006507519609405319,0.0,0.0,0.0,0.0,0.0,-0.0002349015809235571,-0.013458869187870592,0.0,0.0,11.980539883262898,0.00009566410704128883,0.035206852635290185,-0.005500467614663071,-0.31515357966858515,0.0,0.0,0.005265566033739514,0.3016947104807146,-6.584432650070106,0.0,-22.20108934662774,11.980373796310115,0.0,-0.06308403236096218,0.0,-51.30349733562602,0.0,0.0,-0.15592719644319164,0.0,0.25335956536708204,0.3490658503988659,1.0,0.14,0.14,0.75,0.08726646259971647,5.0,0.184,0.175,0.174,0.0,0.0,0.0,-0.0021530352634104495,0.0,0.018197630367304627,0.0,6.0727349790898675,0.0,-0.5156311292401313,0.0,0.18830719745900823,0.0,-3.687876181610467,0.0,-0.04433207741807732,0.0,-0.016241358246836864,0.6797479371332953,-0.2275851409148298,0.14323298029985268,0.0,0.0,0.0,0.6742153552590144,0.14323298029985268,0.0,0.0,-0.22422529119518533,0.0,0.0,-0.0009110527453167447,0.0,1.7629094895853183,0.0,8.298233027910232,0.0,-0.38636663843459956,0.0,87.91418438360932,-1.8085267529798545,0.0,-8.288410718450573,0.0,-0.38636663843459956,0.0
sim_raptor_glider_3dof,raptor_glider_3dof,0.004,-14.952052308790243,0.0,-0.00016883795586500861,11.973761322040579,0.0,-0.08817202769279026,0.0,0.0,0.0,-11.860674291435968,-0.20700781789220313,-0.008643992478298676,0.0,0.0,0.0,0.0,0.0,-0.0004164062003318436,-0.023858317842093697,0.0,0.0,11.974085956918065,0.00016883795586500861,0.03518788667582963,-0.007363637178037745,-0.4219053321671864,0.0,0.0,0.006947230977705902,0.3980470143250927,-6.610324523744557,0.0,-22.345108279026526,11.973796999328634,0.0,-0.08318607173683235,0.0,-50.858049345059236,0.0,0.0,-0.20700781789220313,0.0,0.25335956536708204,0.3490658503988659,1.0,0.14,0.14,0.75,0.08726646259971647,5.0,0.184,0.175,0.174,0.0,0.0,0.0,-0.00220914905010215,0.0,0.018167685514543647,0.0,6.073925583887839,0.0,-0.5158923741095961,0.0,0.1861733311916324,0.0,-3.6892585061608054,0.0,-0.043772927972816775,0.0,-0.016013063139342455,0.6721261272032039,-0.22698269759051126,0.14264700057179824,0.0,0.0,0.0,0.6647757118146818,0.14264700057179824,0.0,0.0,-0.22251810840162578,0.0,0.0,-0.0012101589469618148,0.0,1.7538061778915952,0.0,8.17323705103808,0.0,-0.3830119696176411,0.0,87.81949101435666,-1.8139428379707845,0.0,-8.160101187034808,0.0,-0.3830119696176411,0.0
sim_raptor_glider_3dof,raptor_glider_3dof,0.005,-14.940081805800327,0.0,-0.00026188083829464034,11.967137789902244,0.0,-0.110585721340637,0.0,0.0,0.0,-14.761908317632995,-0.2576439040202327,-0.010764182249547439,0.0,0.0,0.0,0.0,0.0,-0.0006487690208432616,-0.03717172677315383,0.0,0.0,11.967648728312124,0.00026188083829464034,0.03516896978551272,-0.009240519807565035,-0.5294427854805162,0.0,0.0,0.008591750786721773,0.4922710587073623,-6.636840119315466,0.0,-22.480928709720708,11.967207015995871,0.0,-0.10282179034619256,0.0,-50.41442894137162,0.0,0.0,-0.2576439040202327,0.0,0.25335956536708204,0.3490658503988659,1.0,0.14,0.14,0.75,0.08726646259971647,5.0,0.184,0.175,0.174,0.0,0.0,0.0,-0.00226586117635041,0.0,0.018138851531895896,0.0,6.075108369655384,0.0,-0.516151567393355,0.0,0.18402292631485034,0.0,-3.690637907389446,0.0,-0.04321041402406504,0.0,-0.015785626233859845,0.664420685466811,-0.22637623809918725,0.14206364182791004,0.0,0.0,0.0,0.65526558515207,0.14206364182791004,0.0,0.0,-0.22081450023187527,0.0,0.0,-0.0015069855149366415,0.0,1.7447564760292242,0.0,8.047652858273713,0.0,-0.37967106435746967,0.0,87.72509346514015,-1.8190454239683855,0.0,-8.03118705008585,0.0,-0.37967106435746967,0.0
sim_raptor_glider_3dof,raptor_glider_3dof,0.006,-14.92811789835962,0.0,-0.0003743255182087284,11.960487446475307,0.0,-0.13313120888371913,0.0,0.0,0.0,-17.637777427824062,-0.3078372888494664,-0.012868130245017971,0.0,0.0,0.0,0.0,0.0,-0.0009315464326039871,-0.05337367900867645,0.0,0.0,11.961228359832958,0.0003743255182087284,0.03515010244154385,-0.011130458661251006,-0.6377283053345151,0.0,0.0,0.010198912228647019,0.5843546263258387,-6.663941106568437,0.0,-22.608723062952564,11.96060627483199,0.0,-0.12198940331796587,0.0,-49.97264837770076,0.0,0.0,-0.3078372888494664,0.0,0.25335956536708204,0.3490658503988659,1.0,0.14,0.14,0.75,0.08726646259971647,5.0,0.184,0.175,0.174,0.0,0.0,0.0,-0.002323129777965867,0.0,0.018111036039069016,0.0,6.0762826135135635,0.0,-0.5164085187344162,0.0,0.18185665308466709,0.0,-3.6920136716409195,0.0,-0.04264467615387077,0.0,-0.015559172382929117,0.6566345826877049,-0.22576584804617225,0.14148328936906038,0.0,0.0,0.0,0.6456879272370326,0.14148328936906038,0.0,0.0,-0.2191145442551435,0.0,0.0,-0.001801538234302516,0.0,1.7357649739125278,0.0,7.921518457580552,0.0,-0.37634401493246444,0.0,87.63099372033409,-1.8238257687832802,0.0,-7.901708314255406,0.0,-0.37634401493246444,0.0
sim_raptor_glider_3dof,raptor_glider_3dof,0.007,-14.916160596047607,0.0,-0.0005057030677432012,11.953809725287936,0.0,-0.1558005495752094,0.0,0.0,0.0,-20.488387323890596,-0.3575898172257608,-0.014955878369278438,0.0,0.0,0.0,0.0,0.0,-0.0012642966468020974,-0.0724388619143023,0.0,0.0,11.95482499912217,0.0005057030677432012,0.03513128507779297,-0.013032809784769684,-0.7467249958641057,0.0,0.0,0.011768513137967587,0.6742861339498034,-6.691589283862676,0.0,-22.728663739760442,11.953997149589394,0.0,-0.14068726752991245,0.0,-49.532717465749606,0.0,0.0,-0.3575898172257608,0.0,0.25335956536708204,0.3490658503988659,1.0,0.14,0.14,0.75,0.08726646259971647,5.0,0.184,0.175,0.174,0.0,0.0,0.0,-0.0023809120997438137,0.0,0.01808413950795532,0.0,6.077447623277398,0.0,-0.516663043932284,0.0,0.17967516542957176,0.0,-3.69338511308942,0.0,-0.04207584722316442,0.0,-0.015333821339623977,0.6487708033510028,-0.22515160287765912,0.1409063174136527,0.0,0.0,0.0,0.6360457039080872,0.1409063174136527,0.0,0.0,-0.21741830828454145,0.0,0.0,-0.0020938229716989817,0.0,1.7268361010672462,0.0,7.7948718240420956,0.0,-0.3730308952345603,0.0,87.53719354428773,-1.8282756539367944,0.0,-7.771704948492091,0.0,-0.3730308952345603,0.0
sim_raptor_glider_3dof,raptor_glider_3dof,0.008,-14.904209906084217,0.0,-0.0006555429751257758,11.947104098166378,0.0,-0.1785859758634059,0.0,0.0,0.0,-23.313844208770334,-0.4069033427400546,-0.017027469037032304,0.0,0.0,0.0,0.0,0.0,-0.0016465797330551062,-0.09434206933583532,0.0,0.0,11.948438780158641,0.0006555429751257758,0.035112518087979785,-0.014946942358229283,-0.8563967137518557,0.0,0.0,0.013300362625174176,0.7620546444160203,-6.719746666115616,0.0,-22.840922934034303,11.947381958443064,0.0,-0.15891388318249308,0.0,-49.0946436655874,0.0,0.0,-0.4069033427400546,0.0,0.25335956536708204,0.3490658503988659,1.0,0.14,0.14,0.75,0.08726646259971647,5.0,0.184,0.175,0.174,0.0,0.0,0.0,-0.002439164576212596,0.0,0.01805805563300462,0.0,6.078602737287121,0.0,-0.5169149649693467,0.0,0.1774791008341949,0.0,-3.694751573628192,0.0,-0.04150405250468578,0.0,-0.01510968778285917,0.6408323418448619,-0.2245335681768296,0.1403330890527497,0.0,0.0,0.0,0.6263418910592012,0.1403330890527497,0.0,0.0,-0.21572585065410232,0.0,0.0,-0.002383845665184523,0.0,1.7179741273884839,0.0,7.667750856213338,0.0,-0.3697317614455387,0.0,87.44369449779568,-1.8323873863385518,0.0,-7.641216837763733,0.0,-0.3697317614455387,0.0
sim_raptor_glider_3dof,raptor_glider_3dof,0.009000000000000001,-14.892265833398959,0.0,-0.0008233732983640027,11.940370074783829,0.0,-0.20147989223171642,0.0,0.0,0.0,-26.114254649424918,-0.45577972533670236,-0.019082945087087695,0.0,0.0,0.0,0.0,0.0,-0.002077957617926263,-0.11905820151423294,0.0,0.0,11.942069823517484,0.0008233732983640027,0.035093801826434755,-0.016872238633852215,-0.9667080646573059,0.0,0.0,0.014794281015925951,0.8476498631430728,-6.748375562115501,0.0,-22.945672498004384,11.940762962459821,0.0,-0.17666789214399609,0.0,-48.658432193297855,0.0,0.0,-0.45577972533670236,0.0,0.25335956536708204,0.3490658503988659,1.0,0.14,0.14,0.75,0.08726646259971647,5.0,0.184,0.175,0.174,0.0,0.0,0.0,-0.0024978429039479223,0.0,0.018032671711663513,0.0,6.079747324012187,0.0,-0.5171641099873379,0.0,0.17526908057688417,0.0,-3.6961124225058506,0.0,-0.04092940991151386,0.0,-0.014886881385170875,0.6328221998594222,-0.2239118000635173,0.13976395631409091,0.0,0.0,0.0,0.6165794720535732,0.13976395631409091,0.0,0.0,-0.21403722060830385,0.0,0.0,-0.0026716123121922775,0.0,1.7091831649819749,0.0,7.540193346696163,0.0,-0.36644665284772615,0.0,87.35049794245005,-1.8361537976601021,0.0,-7.510283751520794,0.0,-0.36644665284772615,0.0
sim_raptor_glider_3dof,raptor_glider_3dof,0.01,-14.88032838069182,0.0,-0.0010087208140434458,11.93360720231731,0.0,-0.22447487477516792,0.0,0.0,0.0,-28.889725443970693,-0.5042208289944692,-0.021122349698206238,0.0,0.0,0.0,0.0,0.0,-0.002557994090486119,-0.14656226540426023,0.0,0.0,11.935718236813607,0.0010087208140434458,0.035075136609402584,-0.018808093934713523,-1.0776244031446869,0.0,0.0,0.016250099844227404,0.9310621377404267,-6.777438648100121,0.0,-23.04308379666613,11.93414236432805,0.0,-0.1939480769572398,0.0,-48.22408612545794,0.0,0.0,-0.5042208289944692,0.0,0.25335956536708204,0.3490658503988659,1.0,0.14,0.14,0.75,0.08726646259971647,5.0,0.184,0.175,0.174,0.0,0.0,0.0,-0.0025569021163250245,0.0,0.018007869027559464,0.0,6.080880781664255,0.0,-0.5174103132654273,0.0,0.17304570989653295,0.0,-3.6974670559841107,0.0,-0.04035203020935847,0.0,-0.014665506877632203,0.6247433834971482,-0.22328634557627497,0.13919926021900145,0.0,0.0,0.0,0.6067614348490702,0.13919926021900145,0.0,0.0,-0.21235245867470187,0.0,0.0,-0.002957128957748874,0.0,1.7004671699565546,0.0,7.412236949630954,0.0,-0.3631755926108237,0.0,87.25760504767557,-1.8395682431618412,0.0,-7.378945308939815,0.0,-0.3631755926108237,0.0
sim_raptor_glider_3dof,raptor_glider_3dof,0.01,-14.88032838069182,0.0,-0.0010087208140434458,11.93360720231731,0.0,-0.22447487477516792,0.0,0.0,0.0,-28.889725443970693,-0.5042208289944692,-0.021122349698206238,0.0,0.0,0.0,0.0,0.0,-0.002557994090486119,-0.14656226540426023,0.0,0.0,11.935718236813607,0.0010087208140434458,0.035075136609402584,-0.018808093934713523,-1.0776244031446869,0.0,0.0,0.016250099844227404,0.9310621377404267,-4.803084696676457,0.0,-19.137859588749386,11.93414236432805,0.0,-0.1939480769572398,0.0,-2.3343964712671026,0.0,0.0,-0.5042208289944692,0.0,-0.06275335323210468,0.3490658503988659,1.0,0.14,0.14,0.75,0.08726646259971647,5.0,0.184,0.175,0.174,0.0,0.0,0.0,-0.011718903769663796,0.0,0.0021851775587327224,0.0,6.076802691374657,0.0,-0.5182247652526766,0.0,0.1710482989753717,0.0,-3.7690695426474163,0.0,-0.03612074260277712,0.0,-0.00876399903742865,0.5359991552523135,-0.02142502799118534,0.09641512236065136,0.0,0.0,0.0,0.5180292660431232,0.09641512236065136,0.0,0.0,-0.010279403302853362,0.0,0.0,-0.002957128957748874,0.0,1.1778133734596643,0.0,6.328279033933934,0.0,-0.01758033982511255,0.0,87.25760504767557,-1.2966209065203336,0.0,-6.30500865176271,0.0,-0.01758033982511255,0.0
sim_raptor_glider_3dof,raptor_glider_3dof,0.011,-14.86839656782238,0.0,-0.0012091766630179827,11.928795479956651,0.0,-0.2434628606426709,0.0,0.0,0.0,-29.019637461409438,-0.5064882214366836,-0.021225226182964123,0.0,0.0,0.0,0.0,0.0,-0.0030633570549128924,-0.1755174303881343,0.0,0.0,11.9312797204301,0.0012091766630179827,0.03506209327464838,-0.020406843614823224,-1.1692260123128633,0.0,0.0,0.01734348655991033,0.993708581924729,-4.82021897820652,0.0,-18.83860481210487,11.929485321664211,0.0,-0.20691961565950337,0.0,-2.2007749814343223,0.0,0.0,-0.5064882214366836,0.0,-0.06275335323210468,0.3490658503988659,1.0,0.14,0.14,0.75,0.08726646259971647,5.0,0.184,0.175,0.174,0.0,0.0,0.0,-0.011795613144665562,0.0,0.002173739441293085,0.0,6.077051183732468,0.0,-0.5184353654345095,0.0,0.16919874326515333,0.0,-3.7683153003214804,0.0,-0.03563146733759281,0.0,-0.008592612810389016,0.529336903860843,-0.020895887280100327,0.09607629244541392,0.0,0.0,0.0,0.5112787538348189,0.09607629244541392,0.0,0.0,-0.009698219039173634,0.0,0.0,-0.0029715316656149775,0.0,1.1728014629075267,0.0,6.241169961795662,0.0,-0.016574036385181883,0.0,87.19272042311418,-1.2999110108630196,0.0,-6.215938957812857,0.0,-0.016574036385181883,0.0
sim_raptor_glider_3dof,raptor_glider_3dof,0.012,-14.856469411465811,0.0,-0.0014224468729786702,11.923967162699606,0.0,-0.2621531179830834,0.0,0.0,0.0,-29.141970816212808,-0.5086233412630128,-0.02132262087781111,0.0,0.0,0.0,0.0,0.0,-0.0035709229369330583,-0.2045988132527249,0.0,0.0,11.926848584366565,0.0014224468729786702,0.03504907162821877,-0.021981852914822665,-1.2594673978966855,0.0,0.0,0.018410929977889606,1.0548685846439605,-4.836247266310317,0.0,-18.54237639122504,11.924827265195157,0.0,-0.21957196921492847,0.0,-2.069882026374169,0.0,0.0,-0.5086233412630128,0.0,-0.06275335323210468,0.3490658503988659,1.0,0.14,0.14,0.75,0.08726646259971647,5.0,0.184,0.175,0.174,0.0,0.0,0.0,-0.011871038975095314,0.0,0.0021621821344140345,0.0,6.077284165698445,0.0,-0.5186397658676573,0.0,0.16737562671451908,0.0,-3.767562900756602,0.0,-0.035149884687515426,0.0,-0.008425453994420396,0.5227607860446443,-0.02037499234622483,0.09574738855352947,0.0,0.0,0.0,0.5046190783721765,0.09574738855352947,0.0,0.0,-0.009128188194965327,0.0,0.0,-0.0029851669228935554,0.0,1.1679185536317493,0.0,6.15530087087366,0.0,-0.015588281540623866,0.0,87.12796776091714,-1.302930416841662,0.0,-6.128142857976153,0.0,-0.015588281540623866,0.0
sim_raptor_glider_3dof,raptor_glider_3dof,0.013000000000000001,-14.84454691334932,0.0,-0.0016482187327643773,11.919123332335726,0.0,-0.2805486054987909,0.0,0.0,0.0,-29.256878351323355,-0.5106288560860428,-0.021414639759891673,0.0,0.0,0.0,0.0,0.0,-0.004080561827284644,-0.2337989707456013,0.0,0.0,11.922424607917518,0.0016482187327643773,0.03503607102153316,-0.02353334257812069,-1.3483612075618352,0.0,0.0,0.019452780750836045,1.114562236816234,-4.851200999044639,0.0,-18.249198638171535,11.920168892655848,0.0,-0.23190968508688625,0.0,-1.9416781141800046,0.0,0.0,-0.5106288560860428,0.0,-0.06275335323210468,0.3490658503988659,1.0,0.14,0.14,0.75,0.08726646259971647,5.0,0.184,0.175,0.174,0.0,0.0,0.0,-0.011945204052875668,0.0,0.0021505206471654904,0.0,6.077502205657395,0.0,-0.5188381388389061,0.0,0.16557874909797218,0.0,-3.766812652329427,0.0,-0.03467590207298657,0.0,-0.008262433287713268,0.5162709290791476,-0.019862255327345917,0.09542817885189425,0.0,0.0,0.0,0.4980502762267736,0.09542817885189425,0.0,0.0,-0.00856916428837677,0.0,0.0,-0.0029980495663848345,0.0,1.1631614870004885,0.0,6.070669134282014,0.0,-0.014622777877889615,0.0,87.06334371750252,-1.3056893619366141,0.0,-6.041617637097789,0.0,-0.014622777877889615,0.0
sim_raptor_glider_3dof,raptor_glider_3dof,0.014,-14.832629073478008,0.0,-0.001886168173403811,11.914265089125262,0.0,-0.29865249450587444,0.0,0.0,0.0,-29.36451875569871,-0.5125075355505709,-0.02150139315888742,0.0,0.0,0.0,0.0,0.0,-0.004592140592013305,-0.26311027485306965,0.0,0.0,11.918007632420093,0.001886168173403811,0.03502309098833375,-0.025061551311218216,-1.435921118183358,0.0,0.0,0.02046941071920491,1.1728108433302884,-4.865111558148672,0.0,-17.959091057974256,11.91551091621591,0.0,-0.24393755750821822,0.0,-1.8161221288857419,0.0,0.0,-0.5125075355505709,0.0,-0.06275335323210468,0.3490658503988659,1.0,0.14,0.14,0.75,0.08726646259971647,5.0,0.184,0.175,0.174,0.0,0.0,0.0,-0.012018131337246841,0.0,0.00213876916652174,0.0,6.0777058592645545,0.0,-0.5190306545763695,0.0,0.16380788727815465,0.0,-3.766064843568535,0.0,-0.0342094224872716,0.0,-0.008103460748472463,0.5098673258668878,-0.019357582681627378,0.09511843111668124,0.0,0.0,0.0,0.4915722458211108,0.09511843111668124,0.0,0.0,-0.008020992960747046,0.0,0.0,-0.0030101950422442396,0.0,1.1585271218039253,0.0,5.987270526058414,0.0,-0.013677215752638522,0.0,86.99884586006009,-1.3081978969026857,0.0,-5.956358930311577,0.0,-0.013677215752638522,0.0
sim_raptor_glider_3dof,raptor_glider_3dof,0.015,-14.820715891122262,0.0,-0.0021359924849024894,11.909393444007485,0.0,-0.3164678181698779,0.0,0.0,0.0,-29.465040239296904,-0.5142619664083489,-0.021582984013761405,0.0,0.0,0.0,0.0,0.0,-0.005105535713129274,-0.2925256485156224,0.0,0.0,11.913597445108916,0.0021359924849024894,0.03501013090337334,-0.02656670659935433,-1.5221601637053548,0.0,0.0,0.021461170886225053,1.229634515189732,-4.8780095234960665,0.0,-17.672070582883762,11.910853957001102,0.0,-0.2556601241821546,0.0,-1.693174872220511,0.0,0.0,-0.5142619664083489,0.0,-0.06275335323210468,0.3490658503988659,1.0,0.14,0.14,0.75,0.08726646259971647,5.0,0.184,0.175,0.174,0.0,0.0,0.0,-0.012089842588769283,0.0,0.002126941297632257,0.0,6.07789566551144,0.0,-0.51921747758238,0.0,0.1620628290625973,0.0,-3.7653197573504986,0.0,-0.03375035337900534,0.0,-0.007948448887082848,0.5035499595978591,-0.01886088484005967,0.09481791881302172,0.0,0.0,0.0,0.48518488209981303,0.09481791881302172,0.0,0.0,-0.007483527781916258,0.0,0.0,-0.003021617761926597,0.0,1.1540123854656594,0.0,5.905100746705963,0.0,-0.01275129996269267,0.0,86.93447096981588,-1.3104657899584407,0.0,-5.872362286840285,0.0,-0.01275129996269267,0.0
sim_raptor_glider_3dof,raptor_glider_3dof,0.016,-14.80880736498157,0.0,-0.0023973884932867472,11.904509395488919,0.0,-0.33399767020272403,0.0,0.0,0.0,-29.558591221433105,-0.5158947390651,-0.021659515544762267,0.0,0.0,0.0,0.0,0.0,-0.005620624147446833,-0.32203804187802004,0.0,0.0,11.909193859828834,0.0023973884932867472,0.034997190219603375,-0.028049041230456165,-1.6070916818935717,0.0,0.0,0.02242841708300933,1.2850536400155517,-4.889925100437485,0.0,-17.38815083386261,11.906198621316861,0.0,-0.26708197381563337,0.0,-1.5727969394764358,0.0,0.0,-0.5158947390651,0.0,-0.06275335323210468,0.3490658503988659,1.0,0.14,0.14,0.75,0.08726646259971647,5.0,0.184,0.175,0.174,0.0,0.0,0.0,-0.012160359188609617,0.0,0.0021150499625676483,0.0,6.078072149324476,0.0,-0.5193987688382089,0.0,0.16034335413069356,0.0,-3.764577663081199,0.0,-0.03329860156786262,0.0,-0.007797310938135289,0.497318737229236,-0.018372070749128836,0.09452641772076589,0.0,0.0,0.0,0.4788880034811688,0.09452641772076589,0.0,0.0,-0.006956620771312748,0.0,0.0,-0.0030323321762667182,0.0,1.149614248439624,0.0,5.824154617125749,0.0,-0.011844733751197038,0.0,86.87021622097687,-1.3125025823521634,0.0,-5.78962234482712,0.0,-0.011844733751197038,0.0
sim_raptor_glider_3dof,raptor_glider_3dof,0.017,-14.79690349314734,0.0,-0.0026700577230531993,11.899613911333672,0.0,-0.3512451568593704,0.0,0.0,0.0,-29.645317812805057,-0.5174084036335722,-0.021731089442295442,0.0,0.0,0.0,0.0,0.0,-0.006137285491608082,-0.3516405563360157,0.0,0.0,11.904796697089077,0.0026700577230531993,0.03498426840955972,-0.029508789315934064,-1.6907290863437574,0.0,0.0,0.023371503824325984,1.339088530007742,-4.900887996298431,0.0,-17.107342457572095,11.901545483255203,0.0,-0.2782076724871423,0.0,-1.4549492248382356,0.0,0.0,-0.5174084036335722,0.0,-0.06275335323210468,0.3490658503988659,1.0,0.14,0.14,0.75,0.08726646259971647,5.0,0.184,0.175,0.174,0.0,0.0,0.0,-0.01222970197620869,0.0,0.0021031074513599133,0.0,6.0782358212305105,0.0,-0.5195746853731427,0.0,0.15864923870080774,0.0,-3.7638388187524723,0.0,-0.03285407442673616,0.0,-0.007649961292532334,0.49117350858448644,-0.01789104919064731,0.09424370679633293,0.0,0.0,0.0,0.47268137250493303,0.09424370679633293,0.0,0.0,-0.006440124668310204,0.0,0.0,-0.0030423525219213624,0.0,1.1453297305751722,0.0,5.744426311551264,0.0,-0.010957222612256753,0.0,86.8060788891194,-1.3143175741682476,0.0,-5.70813307087478,0.0,-0.010957222612256753,0.0
sim_raptor_glider_3dof,raptor_glider_3dof,0.018000000000000002,-14.785004273117329,0.0,-0.0029537065278109004,11.894707928048996,0.0,-0.36821339438961304,0.0,0.0,0.0,-29.725363757162892,-0.5188054689154846,-0.021797805821944443,0.0,0.0,0.0,0.0,0.0,-0.006655402026690064,-0.38132644709215513,0.0,0.0,11.900405782888226,0.0029537065278109004,0.034971364961909626,-0.030946186088953116,-1.7730858549234731,0.0,0.0,0.02429078406226305,1.391759407831318,-4.910927401847185,0.0,-16.829653266398715,11.896895084767836,0.0,-0.28904176069636717,0.0,-1.33959293993958,0.0,0.0,-0.5188054689154846,0.0,-0.06275335323210468,0.3490658503988659,1.0,0.14,0.14,0.75,0.08726646259971647,5.0,0.184,0.175,0.174,0.0,0.0,0.0,-0.0122978912668428,0.0,0.002091125444576429,0.0,6.078387177573925,0.0,-0.5197453803212063,0.0,0.15698025582279765,0.0,-3.763103471190151,0.0,-0.03241667991008066,0.0,-0.007506315528025601,0.48511406958203146,-0.017417728852070564,0.09396956824470323,0.0,0.0,0.0,0.466564699105002,0.09396956824470323,0.0,0.0,-0.005933893026666241,0.0,0.0,-0.0030516928150722223,0.0,1.141155901529146,0.0,5.665909397842255,0.0,-0.010088474430684977,0.0,86.74205633386522,-1.3159198237811234,0.0,-5.627887802144944,0.0,-0.010088474430684977,0.0
sim_raptor_glider_3dof,raptor_glider_3dof,0.019000000000000003,-14.77310970189744,0.0,-0.0032480455212682176,11.889792354982465,0.0,-0.38490550468094403,0.0,0.0,0.0,-29.79887071674924,-0.5200884073833968,-0.021859763423366162,0.0,0.0,0.0,0.0,0.0,-0.007174858372390634,-0.4110891033420865,0.0,0.0,11.89602095207188,0.0032480455212682176,0.03495847939131881,-0.03236146753818317,-1.8541755087875138,0.0,0.0,0.025186609165792535,1.4430864054454273,-4.920071982497252,0.0,-16.555088485819326,11.892247940195222,0.0,-0.2995887532195785,0.0,-1.2266896164294778,0.0,0.0,-0.5200884073833968,0.0,-0.06275335323210468,0.3490658503988659,1.0,0.14,0.14,0.75,0.08726646259971647,5.0,0.184,0.175,0.174,0.0,0.0,0.0,-0.012364946860557275,0.0,0.002079115036888862,0.0,6.078526700724437,0.0,-0.5199110029597293,0.0,0.15533617586083456,0.0,-3.7623718563943407,0.0,-0.03198632663295957,0.0,-0.007366290453366329,0.47914016607653553,-0.016952018450279407,0.09370378761537941,0.0,0.0,0.0,0.46053764428687244,0.09370378761537941,0.0,0.0,-0.005437780233467828,0.0,0.0,-0.0030603668792712636,0.0,1.1370898823401423,0.0,5.588596886871376,0.0,-0.009238199501330398,0.0,86.6781460476504,-1.3173181485062861,0.0,-5.548879297667658,0.0,-0.009238199501330398,0.0
sim_raptor_glider_3dof,raptor_glider_3dof,0.02,-14.761219775991501,0.0,-0.003552789829834141,11.884868073006212,0.0,-0.40132461364155914,0.0,0.0,0.0,-29.86597815343563,-0.521259653106148,-0.021917059522767464,0.0,0.0,0.0,0.0,0.0,-0.007695541608941888,-0.44092205525968525,0.0,0.0,11.891642046339813,0.003552789829834141,0.034945611232595174,-0.033754870283623374,-1.9340116052631795,0.0,0.0,0.026059328674681484,1.4930895500034942,-4.928349863871684,0.0,-16.28365085651521,11.887604535493477,0.0,-0.30985313616593013,0.0,-1.1162011231371476,0.0,0.0,-0.521259653106148,0.0,-0.06275335323210468,0.3490658503988659,1.0,0.14,0.14,0.75,0.08726646259971647,5.0,0.184,0.175,0.174,0.0,0.0,0.0,-0.012430888061768851,0.0,0.0020670867582579873,0.0,6.078654859318791,0.0,-0.5200716987781163,0.0,0.15371676669444465,0.0,-3.7616441997640884,0.0,-0.03156292387705199,0.0,-0.007229804125397484,0.4732514966006132,-0.016493826774931074,0.09344615384458746,0.0,0.0,0.0,0.4545998229488063,0.09344615384458746,0.0,0.0,-0.00495164159877272,0.0,0.0,-0.0030683883331874455,0.0,1.1331288453179804,0.0,5.512481266125173,0.0,-0.008406110658345858,0.0,86.61434562644448,-1.3185211251361295,0.0,-5.471099773541185,0.0,-0.008406110658345858,0.0
sim_raptor_glider_3dof,raptor_glider_3dof,0.02,-14.761219775991501,0.0,-0.003552789829834141,11.884868073006212,0.0,-0.40132461364155914,0.0,0.0,0.0,-29.86597815343563,-0.521259653106148,-0.021917059522767464,0.0,0.0,0.0,0.0,0.0,-0.007695541608941888,-0.44092205525968525,0.0,0.0,11.891642046339813,0.003552789829834141,0.034945611232595174,-0.033754870283623374,-1.9340116052631795,0.0,0.0,0.026059328674681484,1.4930895500034942,-4.932990788998974,0.0,-16.268239387025233,11.887604535493477,0.0,-0.30985313616593013,0.0,-0.9396904751984809,0.0,0.0,-0.521259653106148,0.0,-0.06410381218097022,0.3490658503988659,1.0,0.14,0.14,0.75,0.08726646259971647,5.0,0.184,0.175,0.174,0.0,0.0,0.0,-0.012514767928824968,0.0,0.0021245483363931407,0.0,6.078385478111399,0.0,-0.5200990319345218,0.0,0.15371139647874138,0.0,-3.760664329886941,0.0,-0.03153684012978511,0.0,-0.0072530933929892275,0.4729049117168572,-0.015707791496123613,0.09356313863746489,0.0,0.0,0.0,0.4542540646312042,0.09356313863746489,0.0,0.0,-0.004168612941264339,0.0,0.0,-0.0030683883331874455,0.0,1.1345474038976455,0.0,5.508288597865812,0.0,-0.00707680896871976,0.0,86.61434562644448,-1.3197973795461342,0.0,-5.466861619431441,0.0,-0.00707680896871976,0.0
sim_raptor_glider_3dof,raptor_glider_3dof,0.021,-14.749334498483218,0.0,-0.0038676481619905165,11.879931371691864,0.0,-0.4174575304994815,0.0,0.0,0.0,-29.916744928239595,-0.5221457004770956,-0.021962400688712136,0.0,0.0,0.0,0.0,0.0,-0.00821724876988393,-0.47081367372341665,0.0,0.0,11.887263780444988,0.0038676481619905165,0.03493274495414202,-0.035125272955597295,-2.012529894600736,0.0,0.0,0.026908024185713364,1.5417162208773194,-4.940340802782986,0.0,-15.998374753237213,11.882960602366694,0.0,-0.3198241837013553,0.0,-0.8327869793231726,0.0,0.0,-0.5221457004770956,0.0,-0.06410381218097022,0.3490658503988659,1.0,0.14,0.14,0.75,0.08726646259971647,5.0,0.184,0.175,0.174,0.0,0.0,0.0,-0.012579885284224376,0.0,0.0021125412423942027,0.0,6.078498352091809,0.0,-0.5202550096569385,0.0,0.1521180277133297,0.0,-3.759930485524186,0.0,-0.031120680638796798,0.0,-0.007120211814647741,0.46710717963556786,-0.015257888300472117,0.0933140914617823,0.0,0.0,0.0,0.4484174013403635,0.0933140914617823,0.0,0.0,-0.003697094316602057,0.0,0.0,-0.0030747360964196993,0.0,1.130694397370735,0.0,5.433509938707913,0.0,-0.006271718741282813,0.0,86.55057801163794,-1.3208112290657414,0.0,-5.390450609314317,0.0,-0.006271718741282813,0.0
sim_raptor_glider_3dof,raptor_glider_3dof,0.022,-14.73745385779129,0.0,-0.004192336384524229,11.874987719101881,0.0,-0.4333223791039843,0.0,0.0,0.0,-29.961457210454732,-0.5229260770178307,-0.022003318522679418,0.0,0.0,0.0,0.0,0.0,-0.008739790457379642,-0.5007531070365648,0.0,0.0,11.882891130236482,0.004192336384524229,0.03491989517833754,-0.03647416009365214,-2.089815434650759,0.0,0.0,0.0277343696362725,1.5890623276141942,-4.9468761400550525,0.0,-15.731672461679722,11.878321291411595,0.0,-0.3295222466706053,0.0,-0.7282230648030403,0.0,0.0,-0.5229260770178307,0.0,-0.06410381218097022,0.3490658503988659,1.0,0.14,0.14,0.75,0.08726646259971647,5.0,0.184,0.175,0.174,0.0,0.0,0.0,-0.012643914909501107,0.0,0.0021005358427060978,0.0,6.078600836707651,0.0,-0.5204063278800862,0.0,0.15054898948100667,0.0,-3.7592012699941812,0.0,-0.030711325881763084,0.0,-0.006990717545067331,0.4613944359124436,-0.01481535690649509,0.09307278921991859,0.0,0.0,0.0,0.44266952125892106,0.09307278921991859,0.0,0.0,-0.0032352704956590747,0.0,0.0,-0.003080464593175119,0.0,1.1269409855426293,0.0,5.359917014826611,0.0,-0.005484247901031697,0.0,86.48691562408813,-1.3216465743908017,0.0,-5.315256976207704,0.0,-0.005484247901031697,0.0
sim_raptor_glider_3dof,raptor_glider_3dof,0.023,-14.725577853771624,0.0,-0.004526581748850263,11.870037945176216,0.0,-0.44892218125159833,0.0,0.0,0.0,-30.000247639362108,-0.5236030977205252,-0.022039905740801412,0.0,0.0,0.0,0.0,0.0,-0.009263058289906116,-0.5307341453952902,0.0,0.0,11.878523980055052,0.004526581748850263,0.034907061565297395,-0.03780176022860213,-2.165881319264392,0.0,0.0,0.02853870193869601,1.6351471738691017,-4.952623471340843,0.0,-15.468130276371472,11.873687031837342,0.0,-0.3389516406813829,0.0,-0.6259622528952197,0.0,0.0,-0.5236030977205252,0.0,-0.06410381218097022,0.3490658503988659,1.0,0.14,0.14,0.75,0.08726646259971647,5.0,0.184,0.175,0.174,0.0,0.0,0.0,-0.012706874451028484,0.0,0.002088541170102166,0.0,6.078693361070466,0.0,-0.5205531205895025,0.0,0.14900405423743235,0.0,-3.75847688278369,0.0,-0.03030868983037781,0.0,-0.006864533089231547,0.4557662917854028,-0.014380109135610344,0.09283903184070612,0.0,0.0,0.0,0.4370099557666708,0.09283903184070612,0.0,0.0,-0.0027830024640356325,0.0,0.0,-0.003085586803712198,0.0,1.1232845069007618,0.0,5.287501419837673,0.0,-0.0047141217265538994,0.0,86.42335669057366,-1.32231129198194,0.0,-5.2412720016543455,0.0,-0.0047141217265538994,0.0
sim_raptor_glider_3dof,raptor_glider_3dof,0.024,-14.713706481745279,0.0,-0.004870143339796735,11.865082749268382,0.0,-0.46425979024995084,0.0,0.0,0.0,-30.03323451862738,-0.5241788273736621,-0.02207224486852841,0.0,0.0,0.0,0.0,0.0,-0.009786959829033364,-0.5607514924676895,0.0,0.0,11.874162109379721,0.004870143339796735,0.03489424346698322,-0.039108288350614584,-2.240739866470859,0.0,0.0,0.02932132852158122,1.6799883740031696,-4.957608457006761,0.0,-15.207743971639438,11.869058127186063,0.0,-0.3481163215184246,0.0,-0.5259704550421571,0.0,0.0,-0.5241788273736621,0.0,-0.06410381218097022,0.3490658503988659,1.0,0.14,0.14,0.75,0.08726646259971647,5.0,0.184,0.175,0.174,0.0,0.0,0.0,-0.012768780472918493,0.0,0.002076565908239847,0.0,6.078776340885587,0.0,-0.5206955168205776,0.0,0.1474830086844187,0.0,-3.7577575213930254,0.0,-0.02991269130537939,0.0,-0.006741583499033676,0.4502223794131848,-0.013952061550885974,0.09261262503844847,0.0,0.0,0.0,0.4314382658275987,0.09261262503844847,0.0,0.0,-0.0023401613672622,0.0,0.0,-0.0030901142815939774,0.0,1.119722358156526,0.0,5.216255043098973,0.0,-0.003961083496922486,0.0,86.35989791515769,-1.3228129920447078,0.0,-5.168487266317757,0.0,-0.003961083496922486,0.0
sim_raptor_glider_3dof,raptor_glider_3dof,0.025,-14.701839735660533,0.0,-0.005222733681082522,11.860122955083824,0.0,-0.4793386516712684,0.0,0.0,0.0,-30.060559078819352,-0.5246557309156713,-0.022100435089239024,0.0,0.0,0.0,0.0,0.0,-0.01031138534226773,-0.5907988610450008,0.0,0.0,11.869805476615541,0.005222733681082522,0.03488144076116119,-0.040394009123524685,-2.3144062403909063,0.0,0.0,0.030082623781256954,1.7236073793459052,-4.961857207890275,0.0,-14.950503099049985,11.864435006814249,0.0,-0.3570210382776664,0.0,-0.42820819395286674,0.0,0.0,-0.5246557309156713,0.0,-0.06410381218097022,0.3490658503988659,1.0,0.14,0.14,0.75,0.08726646259971647,5.0,0.184,0.175,0.174,0.0,0.0,0.0,-0.012829651472805122,0.0,0.0020646178257227882,0.0,6.07885018255347,0.0,-0.5208336475850989,0.0,0.14598558021333202,0.0,-3.757043346565878,0.0,-0.029523234793875405,0.0,-0.00662179044729973,0.4447620853506111,-0.013531114751793435,0.09239336943253108,0.0,0.0,0.0,0.42595375260786866,0.09239336943253108,0.0,0.0,-0.001906593786640317,0.0,0.0,-0.003094060912493464,0.0,1.1162519161352218,0.0,5.1461668240244,0.0,-0.0032248359086590396,0.0,86.29653860839845,-1.3231591429072935,0.0,-5.096891327417701,0.0,-0.0032248359086590396,0.0
sim_raptor_glider_3dof,raptor_glider_3dof,0.026000000000000002,-14.689977609670672,0.0,-0.005584100530059953,11.855159269784817,0.0,-0.4941618409205222,0.0,0.0,0.0,-30.08234528700385,-0.5250359719800157,-0.02212456323079647,0.0,0.0,0.0,0.0,0.0,-0.010836239257524635,-0.6208707752501383,0.0,0.0,11.865453941463295,0.005584100530059953,0.034868653035538204,-0.04165915669216949,-2.386893856535491,0.0,0.0,0.030822917434644857,1.7660230812853528,-4.965394625133357,0.0,-14.696398132420155,11.859817987145739,0.0,-0.36566999981026826,0.0,-0.332639886929533,0.0,0.0,-0.5250359719800157,0.0,-0.06410381218097022,0.3490658503988659,1.0,0.14,0.14,0.75,0.08726646259971647,5.0,0.184,0.175,0.174,0.0,0.0,0.0,-0.012889504101423832,0.0,0.00205270452180229,0.0,6.078915278044799,0.0,-0.5209676371374973,0.0,0.1445115302913265,0.0,-3.75633452638367,0.0,-0.029140234736318046,0.0,-0.006505079814147185,0.4393848924124648,-0.013117179656336929,0.09218107456950994,0.0,0.0,0.0,0.42055582405033887,0.09218107456950994,0.0,0.0,-0.0014821631520370096,0.0,0.0,-0.003097438852311506,0.0,1.1128706546978893,0.0,5.077226940926939,0.0,-0.002505110988466313,0.0,86.23327664715877,-1.3233569273858263,0.0,-5.0264740073437135,0.0,-0.002505110988466313,0.0
sim_raptor_glider_3dof,raptor_glider_3dof,0.027,-14.67812009752906,0.0,-0.00595399011610219,11.850192393263125,0.0,-0.5087324886662673,0.0,0.0,0.0,-30.098717890867782,-0.5253217278245661,-0.022144716786519195,0.0,0.0,0.0,0.0,0.0,-0.011361425927178564,-0.6509617548778399,0.0,0.0,11.861107389378775,0.00595399011610219,0.03485587995350664,-0.042903970129269976,-2.4582164127625226,0.0,0.0,0.03154254420209141,1.8072546578846826,-4.9682451433160635,0.0,-14.445417486421603,11.855207380368375,0.0,-0.37406746829284615,0.0,-0.2392297146712997,0.0,0.0,-0.5253217278245661,0.0,-0.06410381218097022,0.3490658503988659,1.0,0.14,0.14,0.75,0.08726646259971647,5.0,0.184,0.175,0.174,0.0,0.0,0.0,-0.012948354863658331,0.0,0.002040833121469186,0.0,6.078972007584265,0.0,-0.5210976069625871,0.0,0.14306061325628325,0.0,-3.7556312170635193,0.0,-0.02876360475074851,0.0,-0.006391378318764753,0.43409023106615263,-0.012710165879957025,0.0919755526924978,0.0,0.0,0.0,0.4152438351815942,0.0919755526924978,0.0,0.0,-0.0010667313280495385,0.0,0.0,-0.0031002603501126876,0.0,1.1095760926729066,0.0,5.009424990222292,0.0,-0.0018016389811895581,0.0,86.17011028560695,-1.323413312087381,0.0,-4.9572245302673945,0.0,-0.0018016389811895581,0.0
sim_raptor_glider_3dof,raptor_glider_3dof,0.028,-14.666267192676317,0.0,-0.006332153040543895,11.84522300054096,0.0,-0.5230537129082515,0.0,0.0,0.0,-30.109799535340695,-0.5255151390071539,-0.022160981832153422,0.0,0.0,0.0,0.0,0.0,-0.01188685192994964,-0.6810664472830517,0.0,0.0,11.856765710729537,0.006332153040543895,0.034843121192892935,-0.044128687781588294,-2.528387565335533,0.0,0.0,0.03224183585163865,1.8473211180524811,-4.97043261393549,0.0,-14.197548078858883,11.850603477303295,0.0,-0.38221766424220477,0.0,-0.14794227715502584,0.0,0.0,-0.5255151390071539,0.0,-0.06410381218097022,0.3490658503988659,1.0,0.14,0.14,0.75,0.08726646259971647,5.0,0.184,0.175,0.174,0.0,0.0,0.0,-0.0130062198701768,0.0,0.002029010343084633,0.0,6.079020739548502,0.0,-0.5212236752383064,0.0,0.1416325829458298,0.0,-3.7549335662465584,0.0,-0.02839325932052112,0.0,-0.006280614044282913,0.42887750504407696,-0.012309983585955397,0.09177661970813099,0.0,0.0,0.0,0.4100171155007784,0.09177661970813099,0.0,0.0,-0.00066016155000077,0.0,0.0,-0.0031025374565014797,0.0,1.106365801396364,0.0,4.942750299802715,0.0,-0.0011141532892544996,0.0,86.1070378517847,-1.323335040668262,0.0,-4.889131843470657,0.0,-0.0011141532892544996,0.0
sim_raptor_glider_3dof,raptor_glider_3dof,0.029,-14.654418888257577,0.0,-0.0067183443196139276,11.840251741847602,0.0,-0.5371286172518281,0.0,0.0,0.0,-30.115710745498976,-0.5256183090871932,-0.022173443011194983,0.0,0.0,0.0,0.0,0.0,-0.012412426076556219,-0.7111796277047986,0.0,0.0,11.852428800115023,0.0067183443196139276,0.03483037644395963,-0.04533354712928497,-2.5974209208654377,0.0,0.0,0.032921121052728756,1.8862412931606394,-4.971980306759962,0.0,-13.952775426765989,11.846006547763599,0.0,-0.3901247648355789,0.0,-0.058742602501487155,0.0,0.0,-0.5256183090871932,0.0,-0.06410381218097022,0.3490658503988659,1.0,0.14,0.14,0.75,0.08726646259971647,5.0,0.184,0.175,0.174,0.0,0.0,0.0,-0.013063114849624946,0.0,0.0020172425153840417,0.0,6.079061830731262,0.0,-0.5213459569031392,0.0,0.14022719290811358,0.0,-3.754241713265808,0.0,-0.028029113811292118,0.0,-0.006172716439803827,0.42374609350470455,-0.011916543528728266,0.0915840951865843,0.0,0.0,0.0,0.40487497115556953,0.0915840951865843,0.0,0.0,-0.0002623184736192056,0.0,0.0,-0.003104282021567298,0.0,1.1032374043712219,0.0,4.877191955246557,0.0,-0.0004423905394386998,0.0,86.04405773759828,-1.3231286375345213,0.0,-4.82218464466693,0.0,-0.0004423905394386998,0.0
sim_raptor_glider_3dof,raptor_glider_3dof,0.03,-14.642575177174404,0.0,-0.007112322896345735,11.835279245756514,0.0,-0.5509602907586203,0.0,0.0,0.0,-30.116570165261535,-0.5256333087917066,-0.022182183702773337,0.0,0.0,0.0,0.0,0.0,-0.012938059146757865,-0.7412961841998567,0.0,0.0,11.848096558816007,0.007112322896345735,0.0348176454166035,-0.04651878476590946,-2.6653300351640814,0.0,0.0,0.0335807256191516,1.9240338509642247,-4.972910920452873,0.0,-13.71108377300205,11.841416843866662,0.0,-0.39779290694854536,0.0,0.02840387443862328,0.0,0.0,-0.5256333087917066,0.0,-0.06410381218097022,0.3490658503988659,1.0,0.14,0.14,0.75,0.08726646259971647,5.0,0.184,0.175,0.174,0.0,0.0,0.0,-0.013119055165748862,0.0,0.002005535592838981,0.0,6.079095626611751,0.0,-0.5214645637349566,0.0,0.13884419647064344,0.0,-3.753555789345312,0.0,-0.02767108445235079,0.0,-0.006067616310412979,0.41869535261347307,-0.011529757057328184,0.09139780233899059,0.0,0.0,0.0,0.39981668638240114,0.09139780233899059,0.0,0.0,0.0001269319107730718,0.0,0.0,-0.003105505718388268,0.0,1.1001885772400788,0.0,4.81273881965371,0.0,0.00021390957839727192,0.0,85.98116843425103,-1.3228004123909491,0.0,-4.756371402725997,0.0,0.00021390957839727192,0.0
sim_raptor_glider_3dof,raptor_glider_3dof,0.03,-14.642575177174404,0.0,-0.007112322896345735,11.835279245756514,0.0,-0.5509602907586203,0.0,0.0,0.0,-30.116570165261535,-0.5256333087917066,-0.022182183702773337,0.0,0.0,0.0,0.0,0.0,-0.012938059146757865,-0.7412961841998567,0.0,0.0,11.848096558816007,0.007112322896345735,0.0348176454166035,-0.04651878476590946,-2.6653300351640814,0.0,0.0,0.0335807256191516,1.9240338509642247,-4.97706326056165,0.0,-13.697364849014795,11.841416843866662,0.0,-0.39779290694854536,0.0,0.185409588775985,0.0,0.0,-0.5256333087917066,0.0,-0.06532075794341125,0.3490658503988659,1.0,0.14,0.14,0.75,0.08726646259971647,5.0,0.184,0.175,0.174,0.0,0.0,0.0,-0.013185287571865883,0.0,0.0020569033527603284,0.0,6.078815042579591,0.0,-0.521489139208203,0.0,0.13883933271479015,0.0,-3.7525687285978586,0.0,-0.027650782355127603,0.0,-0.0060887570542562195,0.41838581546071535,-0.010825060857864804,0.09150713662434205,0.0,0.0,0.0,0.3995080205849598,0.09150713662434205,0.0,0.0,0.0008285627874408379,0.0,0.0,-0.003105505718388268,0.0,1.1015046737847005,0.0,4.809023297224953,0.0,0.0013963196130719433,0.0,85.98116843425103,-1.3239423059208628,0.0,-4.752598698629503,0.0,0.0013963196130719433,0.0
sim_raptor_glider_3dof,raptor_glider_3dof,0.031,-14.630736064865374,0.0,-0.007513844291171472,11.830302058620747,0.0,-0.564537061945301,0.0,0.0,0.0,-30.103526651393015,-0.5254056565286713,-0.022180687259842784,0.0,0.0,0.0,0.0,0.0,-0.013463578259948676,-0.7714062114391479,0.0,0.0,11.843764135295675,0.007513844291171472,0.03480491385375907,-0.04768340911573152,-2.7320580951270528,0.0,0.0,0.03421983085578284,1.9606518836879048,-4.977306078986528,0.0,-13.457367105527753,11.836830306867425,0.0,-0.40521251083961446,0.0,0.2694738421711452,0.0,0.0,-0.5254056565286713,0.0,-0.06532075794341125,0.3490658503988659,1.0,0.14,0.14,0.75,0.08726646259971647,5.0,0.184,0.175,0.174,0.0,0.0,0.0,-0.013240446219074567,0.0,0.0020452881875767936,0.0,6.078838680330782,0.0,-0.5216042063410593,0.0,0.13747993380400392,0.0,-3.751881284658678,0.0,-0.02729913948601966,0.0,-0.00598651757363989,0.41342060947226966,-0.01044559046036386,0.0913274280661845,0.0,0.0,0.0,0.39454401471826633,0.0913274280661845,0.0,0.0,0.001205112297186126,0.0,0.0,-0.00310529621637799,0.0,1.0985376241244569,0.0,4.7457971139516895,0.0,0.0020294075053908945,0.0,85.91829947831478,-1.3234990241604772,0.0,-4.688040687905285,0.0,0.0020294075053908945,0.0
sim_raptor_glider_3dof,raptor_glider_3dof,0.032,-14.618901523989397,0.0,-0.007922651743848765,11.825324918196161,0.0,-0.5778759667355099,0.0,0.0,0.0,-30.085735435338115,-0.5250951412305797,-0.022175681822444192,0.0,0.0,0.0,0.0,0.0,-0.013988828663828763,-0.8015008427690188,0.0,0.0,11.839436221959284,0.007922651743848765,0.03479219554485669,-0.048828816978763186,-2.797685131499866,0.0,0.0,0.03483998831493442,1.9961842887308472,-4.976974550170774,0.0,-13.220442435008902,11.832251448190135,0.0,-0.41240237710758887,0.0,0.3515565857897519,0.0,0.0,-0.5250951412305797,0.0,-0.06532075794341125,0.3490658503988659,1.0,0.14,0.14,0.75,0.08726646259971647,5.0,0.184,0.175,0.174,0.0,0.0,0.0,-0.013294673851156878,0.0,0.0020337443369125166,0.0,6.078855746867998,0.0,-0.5217158066084167,0.0,0.13614251141764758,0.0,-3.7512001977934655,0.0,-0.026953466564531688,0.0,-0.005886945194947801,0.4085350078707783,-0.010072615416778537,0.09115360882767413,0.0,0.0,0.0,0.3896626199465869,0.09115360882767413,0.0,0.0,0.0015733436686195292,0.0,0.0,-0.0031045954551421873,0.0,1.0956456543295954,0.0,4.683656101935337,0.0,0.0026475726475826216,0.0,85.85551892809494,-1.3229462840780122,0.0,-4.62459587537026,0.0,0.0026475726475826216,0.0
sim_raptor_glider_3dof,raptor_glider_3dof,0.033,-14.607071558040795,0.0,-0.008338535949043083,11.820348386032745,0.0,-0.5909794767083062,0.0,0.0,0.0,-30.063297145213557,-0.5247035191893884,-0.02216723796072227,0.0,0.0,0.0,0.0,0.0,-0.014513728014345553,-0.8315753602227889,0.0,0.0,11.835112703691392,0.008338535949043083,0.03477949015161007,-0.04995519378759864,-2.8622217687875517,0.0,0.0,0.03544146577325309,2.030646408564763,-4.976089375003041,0.0,-12.98657849206873,11.827680453992519,0.0,-0.4193659348595502,0.0,0.4316866508833952,0.0,0.0,-0.5247035191893884,0.0,-0.06532075794341125,0.3490658503988659,1.0,0.14,0.14,0.75,0.08726646259971647,5.0,0.184,0.175,0.174,0.0,0.0,0.0,-0.013347982603812869,0.0,0.0020222772311755187,0.0,6.078866554939771,0.0,-0.5218240383727469,0.0,0.13482687517293215,0.0,-3.750525603997456,0.0,-0.026613696862054552,0.0,-0.005789978735749467,0.40372851260704257,-0.009706064429435236,0.09098551959496139,0.0,0.0,0.0,0.38486327720336694,0.09098551959496139,0.0,0.0,0.0019333666663878188,0.0,0.0,-0.0031034133145011185,0.0,1.0928266669668445,0.0,4.622591092916984,0.0,0.0032510321678028494,0.0,85.79282504291118,-1.3222897648741911,0.0,-4.562254740154068,0.0,0.0032510321678028494,0.0
sim_raptor_glider_3dof,raptor_glider_3dof,0.034,-14.595246160056341,0.0,-0.00876129945398523,11.815372940496998,0.0,-0.6038502746733395,0.0,0.0,0.0,-30.036309408619957,-0.5242324943281691,-0.022155424232665408,0.0,0.0,0.0,0.0,0.0,-0.015038205732494,-0.8616257199213468,0.0,0.0,11.83079341706429,0.00876129945398523,0.034766797193759115,-0.05106274336840909,-2.9256796853694738,0.0,0.0,0.03602453763591509,2.0640539654481267,-4.974670730453244,0.0,-12.755757838632235,11.823117438769158,0.0,-0.4261066842052196,0.0,0.5098937903999673,0.0,0.0,-0.5242324943281691,0.0,-0.06532075794341125,0.3490658503988659,1.0,0.14,0.14,0.75,0.08726646259971647,5.0,0.184,0.175,0.174,0.0,0.0,0.0,-0.013400385222756068,0.0,0.002010891804421674,0.0,6.07887140802325,0.0,-0.5219289992037282,0.0,0.1335328121748503,0.0,-3.7498576210034433,0.0,-0.026279758590922155,0.0,-0.005695556523299531,0.3990005259508414,-0.009345860491401568,0.09082300130873211,0.0,0.0,0.0,0.3801453294647609,0.09082300130873211,0.0,0.0,0.0022852956053578954,0.0,0.0,-0.003101759392573157,0.0,1.0900785649679596,0.0,4.562591736135213,0.0,0.0038400101355021542,0.0,85.73021538441769,-1.3215349555571423,0.0,-4.501006552949298,0.0,0.0038400101355021542,0.0
sim_raptor_glider_3dof,raptor_glider_3dof,0.034999999999999996,-14.583425320703563,0.0,-0.00919068583875671,11.810399192079087,0.0,-0.6164918760111284,0.0,0.0,0.0,-30.004899069493177,-0.5236842804912388,-0.022140330487520257,0.0,0.0,0.0,0.0,0.0,-0.015562170644600182,-0.8916466979979742,0.0,0.0,11.82647839846884,0.00919068583875671,0.034754116778244554,-0.05215173952057432,-2.988074568794528,0.0,0.0,0.03658956887597414,2.096427870796554,-4.972739399540563,0.0,-12.527954752054331,11.818562657416136,0.0,-0.4326291970948569,0.0,0.5862151360919514,0.0,0.0,-0.5236842804912388,0.0,-0.06532075794341125,0.3490658503988659,1.0,0.14,0.14,0.75,0.08726646259971647,5.0,0.184,0.175,0.174,0.0,0.0,0.0,-0.013451897516115962,0.0,0.001999591958667641,0.0,6.078870599868677,0.0,-0.5220307906036373,0.0,0.13226002672128118,0.0,-3.7491963166000692,0.0,-0.025951559356555902,0.0,-0.005603612130551935,0.39435013117005696,-0.00899190414232346,0.09066588800341835,0.0,0.0,0.0,0.37550778259998213,0.09066588800341835,0.0,0.0,0.002629278229373226,0.0,0.0,-0.0030996462682528368,0.0,1.0873992114251347,0.0,4.503643825424469,0.0,0.004414786189908486,0.0,85.66769041265448,-1.3206871963615896,0.0,-4.440836641969451,0.0,0.004414786189908486,0.0
sim_raptor_glider_3dof,raptor_glider_3dof,0.036,-14.571609031951716,0.0,-0.009626486916118983,11.805427623879751,0.0,-0.628907177640415,0.0,0.0,0.0,-29.969169248711534,-0.5230606774774517,-0.02212202944973946,0.0,0.0,0.0,0.0,0.0,-0.01608554940394147,-0.9216340919950233,0.0,0.0,11.822167551711942,0.009626486916118983,0.034741448622386616,-0.053222404662240375,-3.049419162683769,0.0,0.0,0.037136855258298906,2.1277850706887462,-4.970314797645277,0.0,-12.30314786033269,11.814016240942847,0.0,-0.4389372158855803,0.0,0.6606818339684735,0.0,0.0,-0.5230606774774517,0.0,-0.06532075794341125,0.3490658503988659,1.0,0.14,0.14,0.75,0.08726646259971647,5.0,0.184,0.175,0.174,0.0,0.0,0.0,-0.01350253244753885,0.0,0.001988381747258639,0.0,6.078864413592027,0.0,-0.5221295060562274,0.0,0.13100828251043722,0.0,-3.748541782107498,0.0,-0.025629022721147445,0.0,-0.005514084358323661,0.3897766116635499,-0.008644113283893036,0.09051402469744459,0.0,0.0,0.0,0.370949857202566,0.09051402469744459,0.0,0.0,0.0029654359537374924,0.0,0.0,-0.0030970841229635247,0.0,1.0847865828887853,0.0,4.44573566762649,0.0,0.004975594891616574,0.0,85.60524866685668,-1.3197516017823947,0.0,-4.381732906786387,0.0,0.004975594891616574,0.0
sim_raptor_glider_3dof,raptor_glider_3dof,0.037,-14.559797285376586,0.0,-0.010068490367808759,11.800458718987207,0.0,-0.6410991608744544,0.0,0.0,0.0,-29.9292251865268,-0.5223635220757067,-0.02210059546716024,0.0,0.0,0.0,0.0,0.0,-0.016608267633212537,-0.9515836404068071,0.0,0.0,11.817860809494887,0.010068490367808759,0.034728792528416604,-0.05427496860643431,-3.1097266343537253,0.0,0.0,0.03766670097322178,2.1581429939469183,-4.967415947968135,0.0,-12.08131414308989,11.80947832622052,0.0,-0.4450345774464408,0.0,0.7333250523361765,0.0,0.0,-0.5223635220757067,0.0,-0.06532075794341125,0.3490658503988659,1.0,0.14,0.14,0.75,0.08726646259971647,5.0,0.184,0.175,0.174,0.0,0.0,0.0,-0.01355230186807652,0.0,0.0019772643626528217,0.0,6.078853120273923,0.0,-0.5222252340144384,0.0,0.1297773363853615,0.0,-3.7478940991977203,0.0,-0.025312070382228574,0.0,-0.005426909848339911,0.38527920130374527,-0.008302406086243082,0.09036725857385103,0.0,0.0,0.0,0.366470722983581,0.09036725857385103,0.0,0.0,0.003293890701374525,0.0,0.0,-0.003094083365402434,0.0,1.0822386930677759,0.0,4.388855018382928,0.0,0.005522670969143746,0.0,85.54288910665704,-1.3187331059611624,0.0,-4.3236826845179195,0.0,0.005522670969143746,0.0
sim_raptor_glider_3dof,raptor_glider_3dof,0.038,-14.547990072420824,0.0,-0.010516487205235436,11.795492943480173,0.0,-0.6530707885174842,0.0,0.0,0.0,-29.885170588564364,-0.5215946242906198,-0.022076101857022308,0.0,0.0,0.0,0.0,0.0,-0.01713025257551177,-0.9814911745699328,0.0,0.0,11.813558110683903,0.010516487205235436,0.034716148316682544,-0.05530965995006338,-3.169010081442391,0.0,0.0,0.03817940737455161,2.1875189068724583,-4.9640613530533155,0.0,-11.862429890509635,11.804949038747223,0.0,-0.4509250792387156,0.0,0.804175411546892,0.0,0.0,-0.5215946242906198,0.0,-0.06532075794341125,0.3490658503988659,1.0,0.14,0.14,0.75,0.08726646259971647,5.0,0.184,0.175,0.174,0.0,0.0,0.0,-0.013601216967545906,0.0,0.001966242573395737,0.0,6.078836980843218,0.0,-0.5223180593072626,0.0,0.12856694654763867,0.0,-3.7472533437318485,0.0,-0.025000624809409178,0.0,-0.005342025651507324,0.38085712216555995,-0.007966702165090003,0.09022544024900041,0.0,0.0,0.0,0.3620695387549739,0.09022544024900041,0.0,0.0,0.0036147623449508375,0.0,0.0,-0.0030906542599831235,0.0,1.0797536036832136,0.0,4.332989544586159,0.0,0.006056245024359644,0.0,85.4806107823877,-1.317636461904397,0.0,-4.266673223065005,0.0,0.006056245024359644,0.0
sim_raptor_glider_3dof,raptor_glider_3dof,0.039,-14.536187384390677,0.0,-0.010970272719211,11.790530742720794,0.0,-0.6648249962812349,0.0,0.0,0.0,-29.837107183362438,-0.520755759620126,-0.022048620585707248,0.0,0.0,0.0,0.0,0.0,-0.017651433510258652,-1.0113526424936126,0.0,0.0,11.809259395521995,0.010970272719211,0.034703515811578343,-0.05632670536721359,-3.2272824914182205,0.0,0.0,0.038675271856954935,2.215929848924608,-4.960268988149644,0.0,-11.646470787460084,11.800428489111868,0.0,-0.4566124659724895,0.0,0.8732631466310127,0.0,0.0,-0.520755759620126,0.0,-0.06532075794341125,0.3490658503988659,1.0,0.14,0.14,0.75,0.08726646259971647,5.0,0.184,0.175,0.174,0.0,0.0,0.0,-0.013649288836504176,0.0,0.0019553189753200397,0.0,6.0788162475029734,0.0,-0.5224080646337413,0.0,0.1273768721221022,0.0,-3.746619585331017,0.0,-0.024694609479265908,0.0,-0.005259370541301902,0.3765095884958044,-0.0076369216898202604,0.09008842384977916,0.0,0.0,0.0,0.3577454566686048,0.09008842384977916,0.0,0.0,0.003928169430411819,0.0,0.0,-0.003086806881999015,0.0,1.077329424332982,0.0,4.278126871585539,0.0,0.006576544757278157,0.0,85.41841276564722,-1.3164662455482494,0.0,-4.2106917296624795,0.0,0.006576544757278157,0.0
sim_raptor_glider_3dof,raptor_glider_3dof,0.04,-14.524389212498107,0.0,-0.011429645634280337,11.78557254577243,0.0,-0.676364697013571,0.0,0.0,0.0,-29.785135110263443,-0.5198486758254613,-0.02201822254514078,0.0,0.0,0.0,0.0,0.0,-0.01817174133966741,-1.041164085166347,0.0,0.0,11.804964609647548,0.011429645634280337,0.034690894853353166,-0.057326329947228964,-3.2845567609506388,0.0,0.0,0.039154588607561554,2.2433926757842917,-4.956056323707746,0.0,-11.433411975154806,11.79591677740878,0.0,-0.46210043873292167,0.0,0.9406181634746398,0.0,0.0,-0.5198486758254613,0.0,-0.06532075794341125,0.3490658503988659,1.0,0.14,0.14,0.75,0.08726646259971647,5.0,0.184,0.175,0.174,0.0,0.0,0.0,-0.01369652848451124,0.0,0.0019444959949175093,0.0,6.078791163950552,0.0,-0.5224953306388552,0.0,0.1262068728165884,0.0,-3.745992887363356,0.0,-0.024393948755082766,0.0,-0.005178884945898099,0.3722358062173565,-0.007312985286702972,0.08995606691890122,0.0,0.0,0.0,0.3534976214858947,0.08995606691890122,0.0,0.0,0.0042342294198043475,0.0,0.0,-0.0030825511563197096,0.0,1.074964311913526,0.0,4.2242545773620215,0.0,0.007083795389127513,0.0,85.35629420737494,-1.3152268611470586,0.0,-4.15572536507996,0.0,0.007083795389127513,0.0
sim_raptor_glider_3dof,raptor_glider_3dof,0.04,-14.524389212498107,0.0,-0.011429645634280337,11.78557254577243,0.0,-0.676364697013571,0.0,0.0,0.0,-29.785135110263443,-0.5198486758254613,-0.02201822254514078,0.0,0.0,0.0,0.0,0.0,-0.01817174133966741,-1.041164085166347,0.0,0.0,11.804964609647548,0.011429645634280337,0.034690894853353166,-0.057326329947228964,-3.2845567609506388,0.0,0.0,0.039154588607561554,2.2433926757842917,-4.959679481792292,0.0,-11.421558441319123,11.79591677740878,0.0,-0.46210043873292167,0.0,1.0763700369673443,0.0,0.0,-0.5198486758254613,0.0,-0.06638602833022922,0.3490658503988659,1.0,0.14,0.14,0.75,0.08726646259971647,5.0,0.184,0.175,0.174,0.0,0.0,0.0,-0.013746182808296628,0.0,0.0019891634174182033,0.0,6.078518689946217,0.0,-0.5225164044391164,0.0,0.12620258488435762,0.0,-3.7450540453936148,0.0,-0.02437886068554006,0.0,-0.005197621745758786,0.37196740881553575,-0.006698998894944282,0.09005493796787663,0.0,0.0,0.0,0.3532300639991311,0.09005493796787663,0.0,0.0,0.004845321783163611,0.0,0.0,-0.0030825511563197096,0.0,1.076145809201817,0.0,4.22105729718396,0.0,0.00810614274840107,0.0,85.35629420737494,-1.3162232296203087,0.0,-4.152465643275147,0.0,0.00810614274840107,0.0
sim_raptor_glider_3dof,raptor_glider_3dof,0.041,-14.512595569546681,0.0,-0.011894410831351055,11.780615238770604,0.0,-0.6876796051187686,0.0,0.0,0.0,-29.72159162968557,-0.5187396328712004,-0.021979246033691564,0.0,0.0,0.0,0.0,0.0,-0.018691030713490354,-1.070917174632393,0.0,0.0,11.80066941504805,0.011894410831351055,0.03467827269401995,-0.05830765999725534,-3.340782831126512,0.0,0.0,0.039616629283764984,2.269865656494119,-4.954972725614608,0.0,-11.210201703624815,11.791410184676629,0.0,-0.4673804659533393,0.0,1.1411137667799003,0.0,0.0,-0.5187396328712004,0.0,-0.06638602833022922,0.3490658503988659,1.0,0.14,0.14,0.75,0.08726646259971647,5.0,0.184,0.175,0.174,0.0,0.0,0.0,-0.013792684047761043,0.0,0.001978463013672872,0.0,6.078487247785956,0.0,-0.5226010084832257,0.0,0.12505371866885637,0.0,-3.744429180779019,0.0,-0.024083797464662122,0.0,-0.005119360308061773,0.36777152862456347,-0.00638145398693269,0.08992750907116867,0.0,0.0,0.0,0.3490674492821193,0.08992750907116867,0.0,0.0,0.005140508243877981,0.0,0.0,-0.0030770944447168196,0.0,1.0738411957019398,0.0,4.168279662022955,0.0,0.00859372777761943,0.0,85.29419233600233,-1.3149212405122932,0.0,-4.098618350819015,0.0,0.00859372777761943,0.0
sim_raptor_glider_3dof,raptor_glider_3dof,0.042,-14.500806408162545,0.0,-0.01236433591156289,11.775662812727692,0.0,-0.6987855613714791,0.0,0.0,0.0,-29.654403615226766,-0.5175669808010167,-0.021937537820620807,0.0,0.0,0.0,0.0,0.0,-0.01920918402470581,-1.1006051725057675,0.0,0.0,11.796378085659983,0.01236433591156289,0.03466566189326745,-0.05927199711314489,-3.3960352778948013,0.0,0.0,0.04006281308843908,2.295430105389034,-4.949879161233412,0.0,-11.001710851642109,11.786912587377518,0.0,-0.4724696787736934,0.0,1.204190222813954,0.0,0.0,-0.5175669808010167,0.0,-0.06638602833022922,0.3490658503988659,1.0,0.14,0.14,0.75,0.08726646259971647,5.0,0.184,0.175,0.174,0.0,0.0,0.0,-0.013838372090702315,0.0,0.0019678671252404793,0.0,6.078451969138602,0.0,-0.5226830273762527,0.0,0.12392446979124719,0.0,-3.743811610053487,0.0,-0.023793944945189757,0.0,-0.005043153755427289,0.3636478653316035,-0.006069597599872115,0.08980445894429953,0.0,0.0,0.0,0.3449793875366708,0.08980445894429953,0.0,0.0,0.005428603630563756,0.0,0.0,-0.0030712552948869132,0.0,1.0715920340159029,0.0,4.116467800482721,0.0,0.009068756568011888,0.0,85.23216891877026,-1.3135586716265635,0.0,-4.0457607759199075,0.0,0.009068756568011888,0.0
sim_raptor_glider_3dof,raptor_glider_3dof,0.043000000000000003,-14.489021739849175,0.0,-0.012839256203790204,11.770715665706192,0.0,-0.7096844514462095,0.0,0.0,0.0,-29.583648691691902,-0.5163320744233365,-0.02189315256153874,0.0,0.0,0.0,0.0,0.0,-0.019726133584314003,-1.1302242004924634,0.0,0.0,11.792090539998652,0.012839256203790204,0.034653062211639045,-0.06021948035279407,-3.450322068686082,0.0,0.0,0.04049334676848007,2.320097868193619,-4.944414378548964,0.0,-10.796071715821132,11.78242404989422,0.0,-0.4773707280510087,0.0,1.265620987005678,0.0,0.0,-0.5163320744233365,0.0,-0.06638602833022922,0.3490658503988659,1.0,0.14,0.14,0.75,0.08726646259971647,5.0,0.184,0.175,0.174,0.0,0.0,0.0,-0.01388325384743112,0.0,0.0019573786614671875,0.0,6.078413076399584,0.0,-0.5227625291267216,0.0,0.12281469524615536,0.0,-3.7432014299532557,0.0,-0.023509254517143564,0.0,-0.004968953526920067,0.35959595219778334,-0.005763378093950777,0.08968566516781348,0.0,0.0,0.0,0.3409653647238698,0.08968566516781348,0.0,0.0,0.005709689102484348,0.0,0.0,-0.003065041358615424,0.0,1.0693967307692553,0.0,4.065613447355141,0.0,0.009531391653139761,0.0,85.1702227176499,-1.3121394758983083,0.0,-3.99388433318796,0.0,0.009531391653139761,0.0
