name,vehicle,t,north,east,down,u,v,w,p_rad,p_deg,p_hat_div_b,q_deg,q_rad,q_hat_div_c,r_rad,r_deg,r_hat_div_b,phi_rad,phi_deg,theta_rad,theta_deg,psi_rad,psi_deg,speed,altitude,mach,alpha_rad,alpha_deg,beta_rad,beta_deg,gamma_rad,gamma_deg,u_dot,v_dot,w_dot,north_dot,east_dot,down_dot,p_rad_dot,q_rad_dot,r_rad_dot,phi_rad_dot,theta_rad_dot,psi_rad_dot,del_tail_alt_rad,del_tail_splay_rad,DIM_b,DIM_c_bar,DIM_S,DIM_wing_position,DIM_wing_incidence_rad,DIM_wing_incidence_deg,DIM_empennage_length,DIM_nose_length,DIM_tail_length,CDp,CDq,CDr,CYp,CYq,CYr,CLp,CLq,CLr,Clp,Clq,Clr,Cmp,Cmq,Cmr,Cnp,Cnq,Cnr,CL_0,Cm_0,CD_0,Cl_0,CY_0,Cn_0,CL,CD,CY,Cl,Cm,Cn,p_hat,q_hat,r_hat,drag_force_wind,side_force_wind,lift_force_wind,roll_moment_wind,pitch_moment_wind,yaw_moment_wind,qbar,X_total,Y_total,Z_total,L_total,M_total,N_total
sim_raptor_glider_3dof,raptor_glider_3dof,0.0,-15.0,0.0,0.0,12.0,0.0,0.0,0.0,0.0,0.0,0.0,0.0,0.0,0.0,0.0,0.0,0.0,0.0,0.0,0.0,0.0,0.0,12.0,-0.0,0.035264039495724236,0.0,0.0,0.0,0.0,0.0,0.0,-7.487178041450953,0.0,-25.024054441263395,12.0,0.0,0.0,0.0,-89.41363838472799,0.0,0.0,0.0,0.0,0.4363323129985824,0.3490658503988659,1.0,0.14,0.14,0.75,0.08726646259971647,5.0,0.184,0.175,0.174,0.0,0.0,0.0,-0.053153656886407115,0.0,0.055671173493162154,0.0,6.024209384397437,0.0,-0.5269202128147928,0.0,0.19813275846416445,0.0,-3.4552995296441478,0.0,-0.03588346466142729,0.0,-0.029845922084054996,0.7757079658211316,-0.38952171953159265,0.1667455120831285,0.0,0.0,0.0,0.7757079658211316,0.1667455120831285,0.0,0.0,-0.38952171953159265,0.0,0.0,0.0,0.0,2.0589739613990123,0.0,9.578443721347433,0.0,-0.6733741106753866,0.0,88.20001620075907,-2.0589739613990123,0.0,-9.578443721347433,0.0,-0.6733741106753866,0.0
sim_raptor_glider_3dof,raptor_glider_3dof,0.001,-14.988003746590733,0.0,-0.000012415174634177188,11.992502827180262,0.0,-0.02526770405029525,0.0,0.0,0.0,-5.103039651887635,-0.0890648437852645,-0.0037133468875430262,0.0,0.0,0.0,0.0,0.0,-0.000044590487564095195,-0.0025548467438532376,0.0,0.0,11.992529446150822,0.000012415174634177188,0.03524208600355821,-0.002106955238988487,-0.12071964281701804,0.0,0.0,0.002062364751424392,0.1181647960731648,-7.507675599275719,0.0,-25.508550485583747,11.99250394195709,0.0,-0.024732952477174667,0.0,-88.71856693472195,0.0,0.0,-0.0890648437852645,0.0,0.4363323129985824,0.3490658503988659,1.0,0.14,0.14,0.75,0.08726646259971647,5.0,0.184,0.175,0.174,0.0,0.0,0.0,-0.053430186057496054,0.0,0.0554080780660455,0.0,6.0240249874908525,0.0,-0.5274002219771142,0.0,0.1957017793236076,0.0,-3.453669819760639,0.0,-0.03525814560644711,0.0,-0.029499655008724115,0.7671435812705255,-0.38877083359862435,0.165760584735996,0.0,0.0,0.0,0.7640118800492363,0.165760584735996,0.0,0.0,-0.386975379228011,0.0,0.0,-0.0005198685642560238,0.0,2.0442643995802876,0.0,9.422277857722193,0.0,-0.6681395275853911,0.0,88.09023322213056,-2.064112165078258,0.0,-9.417949773357746,0.0,-0.6681395275853911,0.0
sim_raptor_glider_3dof,raptor_glider_3dof,0.002,-14.976014997218163,0.0,-0.000049270492086499364,11.984983638081903,0.0,-0.051011581957007696,0.0,0.0,0.0,-10.166686259086081,-0.1774421492383174,-0.0074026192836820276,0.0,0.0,0.0,0.0,0.0,-0.00017790069037163533,-0.010192958730758345,0.0,0.0,11.985092197667264,0.000049270492086499364,0.03522023038486956,-0.004256265628603735,-0.24386605700559036,0.0,0.0,0.0040783649382321,0.233673098274832,-7.5312069778045,0.0,-25.97647568606275,11.984992523423195,0.0,-0.04887944429772272,0.0,-88.03854836579413,0.0,0.0,-0.1774421492383174,0.0,0.4363323129985824,0.3490658503988659,1.0,0.14,0.14,0.75,0.08726646259971647,5.0,0.184,0.175,0.174,0.0,0.0,0.0,-0.05371000072613438,0.0,0.05518325282971427,0.0,6.023796383437123,0.0,-0.5278990096560925,0.0,0.1932332307470952,0.0,-3.4519868033346692,0.0,-0.03462545852853912,0.0,-0.029153229463314653,0.758374006898808,-0.388063512765844,0.16478068235403653,0.0,0.0,0.0,0.7521311449211472,0.16478068235403653,0.0,0.0,-0.38448598859501065,0.0,0.0,-0.001036366699715484,0.0,2.0296598650783366,0.0,9.264255835778041,0.0,-0.6630183077427956,0.0,87.98100758981425,-2.069072495287059,0.0,-9.25553317577674,0.0,-0.6630183077427956,0.0
sim_raptor_glider_3dof,raptor_glider_3dof,0.003,-14.964033765483153,0.0,-0.00010997650410396534,11.977439408842296,0.0,-0.07721526894416839,0.0,0.0,0.0,-15.191799193026208,-0.2651469152201249,-0.011068367643203196,0.0,0.0,0.0,0.0,0.0,-0.0003992506169425001,-0.022875375318799577,0.0,0.0,11.97768829909372,0.00010997650410396534,0.035198472770559576,-0.006446636600632963,-0.3693650692708328,0.0,0.0,0.006047385983690463,0.3464896939520332,-7.557751963901034,0.0,-26.428240508352538,11.977469282477013,0.0,-0.07243326284374174,0.0,-87.37346069275941,0.0,0.0,-0.2651469152201249,0.0,0.4363323129985824,0.3490658503988659,1.0,0.14,0.14,0.75,0.08726646259971647,5.0,0.184,0.175,0.174,0.0,0.0,0.0,-0.0539933342342998,0.0,0.0549956890768542,0.0,6.023523849844041,0.0,-0.5284156910211553,0.0,0.1907277346999606,0.0,-3.450251759098094,0.0,-0.033984927296559594,0.0,-0.028807107836358457,0.7494038488665931,-0.387399686775176,0.16380724554970857,0.0,0.0,0.0,0.7400699681597184,0.16380724554970857,0.0,0.0,-0.38205327508479314,0.0,0.0,-0.0015495714700484477,0.0,2.015177614704102,0.0,9.104435082498677,0.0,-0.6580095324771711,0.0,87.87233904709669,-2.0738283182350847,0.0,-9.09125486919839,0.0,-0.6580095324771711,0.0
sim_raptor_glider_3dof,raptor_glider_3dof,0.004,-14.95206006146447,0.0,-0.00019393750269191865,11.969867139046595,0.0,-0.10386280993339823,0.0,0.0,0.0,-20.179227607931264,-0.35219396226773997,-0.01471113674262299,0.0,0.0,0.0,0.0,0.0,-0.0007079751977142588,-0.040563990828967035,0.0,0.0,11.970317740549529,0.00019393750269191865,0.03517681313159225,-0.008676805031272569,-0.49714430794979647,0.0,0.0,0.00796882983355831,0.4565803171208294,-7.587282867422961,0.0,-26.864252771312174,11.96993767151242,0.0,-0.09538841555743248,0.0,-86.72306067972036,0.0,0.0,-0.35219396226773997,0.0,0.4363323129985824,0.3490658503988659,1.0,0.14,0.14,0.75,0.08726646259971647,5.0,0.184,0.175,0.174,0.0,0.0,0.0,-0.054280487125545326,0.0,0.054843901706905056,0.0,6.023207997132767,0.0,-0.5289492506950555,0.0,0.18818569052618506,0.0,-3.4484661334741316,0.0,-0.033335929119057396,0.0,-0.028461722112779208,0.7402377623774763,-0.38677875516894367,0.16284159593212236,0.0,0.0,0.0,0.727832609270965,0.16284159593212236,0.0,0.0,-0.37967643521108574,0.0,0.0,-0.0020595591439672187,0.0,2.000833340210975,0.0,8.942873240625298,0.0,-0.6531113699789741,0.0,87.76422654166264,-2.078352616244555,0.0,-8.925175978978858,0.0,-0.6531113699789741,0.0
sim_raptor_glider_3dof,raptor_glider_3dof,0.005,-14.94009389182307,0.0,-0.0003005518855746,11.962263859629724,0.0,-0.13093865674169305,0.0,0.0,0.0,-25.12980322664479,-0.4385978066832464,-0.01833146045868009,0.0,0.0,0.0,0.0,0.0,-0.0011034240774344013,-0.06322154265010774,0.0,0.0,11.962980463882431,0.0003005518855746,0.035155251297077285,-0.010945539172903748,-0.6271331991024985,0.0,0.0,0.009842115095469346,0.5639116564523908,-7.619764933048298,0.0,-27.284916404279006,11.96240105817221,0.0,-0.11773912974501546,0.0,-86.08698535636344,0.0,0.0,-0.4385978066832464,0.0,0.4363323129985824,0.3490658503988659,1.0,0.14,0.14,0.75,0.08726646259971647,5.0,0.184,0.175,0.174,0.0,0.0,0.0,-0.05457182683161292,0.0,0.05472593032343835,0.0,6.022849768199583,0.0,-0.529498543215881,0.0,0.18560727572066893,0.0,-3.446631540314975,0.0,-0.03267769521599154,0.0,-0.028117473742245224,0.7308804509402165,-0.3861995880247053,0.16188493539638366,0.0,0.0,0.0,0.7154233824078116,0.16188493539638366,0.0,0.0,-0.37735413745313595,0.0,0.0,-0.002566404464215213,0.0,1.9866411722863777,0.0,8.779628219436473,0.0,-0.6483210867187731,0.0,87.65666831823584,-2.0826180146542357,0.0,-8.757357879177162,0.0,-0.6483210867187731,0.0
sim_raptor_glider_3dof,raptor_glider_3dof,0.006,-14.92813525992473,0.0,-0.0004292124397594923,11.954626639550906,0.0,-0.15842765930436845,0.0,0.0,0.0,-30.04433358782197,-0.5243725426750143,-0.02192985685369944,0.0,0.0,0.0,0.0,0.0,-0.0015849610904613313,-0.09081158117588696,0.0,0.0,11.955676367913814,0.0004292124397594923,0.03513378696968413,-0.01325163807797221,-0.7592629335026617,0.0,0.0,0.01166667698751088,0.6684513523267749,-7.65515672930522,0.0,-27.690630360815796,11.954862725505864,0.0,-0.13947985016959272,0.0,-85.46475387002384,0.0,0.0,-0.5243725426750143,0.0,0.4363323129985824,0.3490658503988659,1.0,0.14,0.14,0.75,0.08726646259971647,5.0,0.184,0.175,0.174,0.0,0.0,0.0,-0.05486778710977721,0.0,0.05463934182373924,0.0,6.022450437086101,0.0,-0.5300622937916623,0.0,0.18299244783751023,0.0,-3.444749760445701,0.0,-0.03200931203935526,0.0,-0.02777473367758559,0.7213366671206888,-0.3856605284654083,0.16093834608201854,0.0,0.0,0.0,0.7028466604815571,0.16093834608201854,0.0,0.0,-0.37508452678533377,0.0,0.0,-0.003070179959517922,0.0,1.9726136922696764,0.0,8.61475825857789,0.0,-0.6436350613951496,0.0,87.54966199755503,-2.0865968109073574,0.0,-8.58786227075033,0.0,-0.6436350613951496,0.0
sim_raptor_glider_3dof,raptor_glider_3dof,0.007,-14.916184165882276,0.0,-0.0005793064854676666,11.946952592434664,0.0,-0.18631506489291877,0.0,0.0,0.0,-34.923595341205655,-0.6095317253381911,-0.025506823267053384,0.0,0.0,0.0,0.0,0.0,-0.00215196395569408,-0.12329845232554847,0.0,0.0,11.94840531406963,0.0005793064854676666,0.03511241974218939,-0.015593931681301612,-0.8934664713539263,0.0,0.0,0.013441967725607532,0.7701680190283778,-7.693410528399182,0.0,-28.081787400130356,11.947325872576652,0.0,-0.1606052419691676,0.0,-84.85576962259707,0.0,0.0,-0.6095317253381911,0.0,0.4363323129985824,0.3490658503988659,1.0,0.14,0.14,0.75,0.08726646259971647,5.0,0.184,0.175,0.174,0.0,0.0,0.0,-0.05516886739682447,0.0,0.05458123429015566,0.0,6.022011606567932,0.0,-0.5306390995932566,0.0,0.18034094615955698,0.0,-3.442822740123928,0.0,-0.031329722669104235,0.0,-0.027433842397851762,0.7116112100401488,-0.3851593965008954,0.16000279048359145,0.0,0.0,0.0,0.6901068760336266,0.16000279048359145,0.0,0.0,-0.3728652305367967,0.0,0.0,-0.0035709552573874744,0.0,1.9587619456352325,0.0,8.448321951825605,0.0,-0.6390488010277785,0.0,87.4432046606849,-2.090261009781001,0.0,-8.416751218395161,0.0,-0.6390488010277785,0.0
sim_raptor_glider_3dof,raptor_glider_3dof,0.008,-14.904240606651282,0.0,-0.0007502161182813057,11.939238882633015,0.0,-0.21458650998107728,0.0,0.0,0.0,-39.768327695755914,-0.6940882563029905,-0.02906283149078703,0.0,0.0,0.0,0.0,0.0,-0.0028038236298313884,-0.16064726048838937,0.0,0.0,11.941167131685324,0.0007502161182813057,0.035091149113066274,-0.017971280258754233,-1.0296785112733915,0.0,0.0,0.015167456628922844,0.8690312507850021,-7.734472659743328,0.0,-28.458772998507442,11.939793614875626,0.0,-0.18111019026309105,0.0,-84.25932271685393,0.0,0.0,-0.6940882563029905,0.0,0.4363323129985824,0.3490658503988659,1.0,0.14,0.14,0.75,0.08726646259971647,5.0,0.184,0.175,0.174,0.0,0.0,0.0,-0.05547563193059443,0.0,0.054548242134604644,0.0,6.021535204946049,0.0,-0.5312274312413525,0.0,0.17765229454057654,0.0,-3.440852589499303,0.0,-0.030637728722487007,0.0,-0.027095110104628704,0.7017089249620452,-0.38469349440195466,0.1590791122370665,0.0,0.0,0.0,0.6772085241452388,0.1590791122370665,0.0,0.0,-0.37069336574289874,0.0,0.0,-0.004068796408710184,0.0,1.9450954633896698,0.0,8.280378294547667,0.0,-0.634556959380627,0.0,87.33729292823296,-2.0935823601488033,0.0,-8.244087212286694,0.0,-0.634556959380627,0.0
sim_raptor_glider_3dof,raptor_glider_3dof,0.009000000000000001,-14.892304576113405,0.0,-0.0009413184291606596,11.931482731000013,0.0,-0.24322801242629782,0.0,0.0,0.0,-44.57922600410458,-0.7780542717623,-0.03259832301805841,0.0,0.0,0.0,0.0,0.0,-0.0035399435977275817,-0.2028238278641469,0.0,0.0,11.933961623290918,0.0009413184291606596,0.03506997450201568,-0.020382573901800104,-1.1678354601866447,0.0,0.0,0.01684263030407252,0.9650116323224979,-7.778283843616755,0.0,-28.821964269395146,11.932268984822977,0.0,-0.20098980076623565,0.0,-83.67459264387269,0.0,0.0,-0.7780542717623,0.0,0.4363323129985824,0.3490658503988659,1.0,0.14,0.14,0.75,0.08726646259971647,5.0,0.184,0.175,0.174,0.0,0.0,0.0,-0.055788708736007504,0.0,0.0545365423304085,0.0,6.021023482042527,0.0,-0.531825634606743,0.0,0.17492580464570248,0.0,-3.4388415806117196,0.0,-0.029931992558805562,0.0,-0.02675881698380161,0.6916347024036031,-0.3842596132891834,0.15816803727685969,0.0,0.0,0.0,0.6641561648322319,0.15816803727685969,0.0,0.0,-0.3685655476778038,0.0,0.0,-0.004563765222528177,0.0,1.9316222876944662,0.0,8.110986723910683,0.0,-0.6301533572010052,0.0,87.23192303897322,-2.096532395351765,0.0,-8.0699332223392,0.0,-0.6301533572010052,0.0
sim_raptor_glider_3dof,raptor_glider_3dof,0.01,-14.88037606515921,0.0,-0.0011519857253842968,11.923681420343334,0.0,-0.27222596258209436,0.0,0.0,0.0,-49.356935507178044,-0.8614410332947542,-0.03611370438294382,0.0,0.0,0.0,0.0,0.0,-0.004359739052099519,-0.24979464746366856,0.0,0.0,11.926788569792983,0.0011519857253842968,0.03504889526519434,-0.022826731891997996,-1.3078753974881616,0.0,0.0,0.01846699283989848,1.058080750024493,-7.824779502619,0.0,-29.171728920063018,11.924754932281528,0.0,-0.22023940058925584,0.0,-83.10065118556057,0.0,0.0,-0.8614410332947542,0.0,0.4363323129985824,0.3490658503988659,1.0,0.14,0.14,0.75,0.08726646259971647,5.0,0.184,0.175,0.174,0.0,0.0,0.0,-0.05610878847395166,0.0,0.05454186162840115,0.0,6.020479004498773,0.0,-0.5324319328652451,0.0,0.17216057968112747,0.0,-3.4367921450673697,0.0,-0.02921103978427371,0.0,-0.02642521354291394,0.6813934773072167,-0.3838540408424605,0.15727017538811427,0.0,0.0,0.0,0.6509544254455103,0.15727017538811427,0.0,0.0,-0.3664778994650984,0.0,0.0,-0.0050559186136121355,0.0,1.9183490019530007,0.0,7.940207158086878,0.0,-0.6258310040784566,0.0,87.12709092666549,-2.099082476605616,0.0,-7.894352751368246,0.0,-0.6258310040784566,0.0
sim_raptor_glider_3dof,raptor_glider_3dof,0.01,-14.88037606515921,0.0,-0.0011519857253842968,11.923681420343334,0.0,-0.27222596258209436,0.0,0.0,0.0,-49.356935507178044,-0.8614410332947542,-0.03611370438294382,0.0,0.0,0.0,0.0,0.0,-0.004359739052099519,-0.24979464746366856,0.0,0.0,11.926788569792983,0.0011519857253842968,0.03504889526519434,-0.022826731891997996,-1.3078753974881616,0.0,0.0,0.01846699283989848,1.058080750024493,-5.4917203453292895,0.0,-20.499658056508785,11.924754932281528,0.0,-0.22023940058925584,0.0,17.12050345816104,0.0,0.0,-0.8614410332947542,0.0,-0.19033467788355463,0.3490658503988659,1.0,0.14,0.14,0.75,0.08726646259971647,5.0,0.184,0.175,0.174,0.0,0.0,0.0,0.002523371113697878,0.0,0.008631123243193175,0.0,6.0393147168961345,0.0,-0.5174203562343457,0.0,0.16531011674839835,0.0,-3.6210600765318874,0.0,-0.03866666924130636,0.0,-0.011328896886269387,0.484826705526364,0.057194465008076165,0.10914743488796458,0.0,0.0,0.0,0.4542924218357471,0.10914743488796458,0.0,0.0,0.07550225005002152,0.0,0.0,-0.0050559186136121355,0.0,1.3313577877454388,0.0,5.541364800240951,0.0,0.1289345115434108,0.0,87.12709092666549,-1.4574912083509455,0.0,-5.509533263890832,0.0,0.1289345115434108,0.0
sim_raptor_glider_3dof,raptor_glider_3dof,0.011,-14.868453916501922,0.0,-0.0013772925887191808,11.918182773864004,0.0,-0.2924632576799932,0.0,0.0,0.0,-48.37539665593635,-0.8443099486043438,-0.03541042574626728,0.0,0.0,0.0,0.0,0.0,-0.005212611964569222,-0.298660665809213,0.0,0.0,11.921770648201612,0.0013772925887191808,0.035034149249762295,-0.024534325388850167,-1.4057132979817768,0.0,0.0,0.019321713424280944,1.1070526321725638,-5.505330360010196,0.0,-19.97607404378592,11.919545348403249,0.0,-0.23033470359453684,0.0,17.1412800821209,0.0,0.0,-0.8443099486043438,0.0,-0.19033467788355463,0.3490658503988659,1.0,0.14,0.14,0.75,0.08726646259971647,5.0,0.184,0.175,0.174,0.0,0.0,0.0,0.0025201115028899335,0.0,0.008640503312250684,0.0,6.039356131958291,0.0,-0.5176223673010927,0.0,0.1633374907869185,0.0,-3.6196226913357457,0.0,-0.03816537283117303,0.0,-0.011163701160814303,0.4777068272037711,0.057713391622808786,0.10885242185947806,0.0,0.0,0.0,0.4477669631425349,0.10885242185947806,0.0,0.0,0.07565752489855558,0.0,0.0,-0.0049574596044774195,0.0,1.3266422667277866,0.0,5.457173747737854,0.0,0.1290909802984525,0.0,87.05379291556534,-1.4601176566846645,0.0,-5.422986395474871,0.0,0.1290909802984525,0.0
sim_raptor_glider_3dof,raptor_glider_3dof,0.012,-14.856536973364157,0.0,-0.0016125433697630163,11.912671511402404,0.0,-0.312180982265751,0.0,0.0,0.0,-47.39275909630846,-0.827159687835075,-0.03470572532709745,0.0,0.0,0.0,0.0,0.0,-0.0060483480621052925,-0.3465448169847636,0.0,0.0,11.916761284185686,0.0016125433697630163,0.03501942838222012,-0.02619979478539675,-1.5011376653120962,0.0,0.0,0.020151446723291458,1.1545928483273327,-5.516911981834115,0.0,-19.46051420182382,11.914341782055576,0.0,-0.24012372775636673,0.0,17.158780378944464,0.0,0.0,-0.827159687835075,0.0,-0.19033467788355463,0.3490658503988659,1.0,0.14,0.14,0.75,0.08726646259971647,5.0,0.184,0.175,0.174,0.0,0.0,0.0,0.0025168582271148077,0.0,0.008649632303625643,0.0,6.039383616510965,0.0,-0.5178159063871254,0.0,0.1614126011855526,0.0,-3.618210522702615,0.0,-0.03767681469805881,0.0,-0.011004534316036464,0.4707508515113702,0.058218285708365625,0.10857036405959852,0.0,0.0,0.0,0.44140668505982594,0.10857036405959852,0.0,0.0,0.07579845258907991,0.0,0.0,-0.004858801545793643,0.0,1.3220929273614064,0.0,5.3751376949172744,0.0,0.12922277503383076,0.0,86.98065067314698,-1.4624505854409813,0.0,-5.3386583738841145,0.0,0.12922277503383076,0.0
sim_raptor_glider_3dof,raptor_glider_3dof,0.013000000000000001,-14.844625230894573,0.0,-0.0018574428367753126,11.907149575987296,0.0,-0.33138689674898336,0.0,0.0,0.0,-46.40920479920374,-0.8099934269784591,-0.033999737287446784,0.0,0.0,0.0,0.0,0.0,-0.006866926291720659,-0.3934458947430149,0.0,0.0,11.91176008406278,0.0018574428367753126,0.03500473150566511,-0.027823735202198198,-1.594182597375535,0.0,0.0,0.02095680891047754,1.2007367026325202,-5.526562517436275,0.0,-18.952941905649524,11.909144429705947,0.0,-0.2496142076788158,0.0,17.173089039017835,0.0,0.0,-0.8099934269784591,0.0,-0.19033467788355463,0.3490658503988659,1.0,0.14,0.14,0.75,0.08726646259971647,5.0,0.184,0.175,0.174,0.0,0.0,0.0,0.002513618472950384,0.0,0.008658507350951201,0.0,6.039398126210159,0.0,-0.5180013013376227,0.0,0.15953484245496102,0.0,-3.6168238473144876,0.0,-0.03720079159404974,0.0,-0.010851192569510856,0.4639577172375221,0.0587094272404152,0.1083007809162945,0.0,0.0,0.0,0.43521040428436,0.1083007809162945,0.0,0.0,0.07592537572772831,0.0,0.0,-0.00475996322024255,0.0,1.3177034165684538,0.0,5.295236394416025,0.0,0.12933053355284332,0.0,86.90765829729233,-1.4645076387584448,0.0,-5.256528145344831,0.0,0.12933053355284332,0.0
sim_raptor_glider_3dof,raptor_glider_3dof,0.014,-14.832718682422863,0.0,-0.0021116813308657244,11.901618953098387,0.0,-0.3500893600013728,0.0,0.0,0.0,-45.4249234657505,-0.7928144769437799,-0.03329260111014432,0.0,0.0,0.0,0.0,0.0,-0.007668331299857185,-0.4393630193898852,0.0,0.0,11.906766826672005,0.0021116813308657244,0.03499005797017839,-0.029406792571801857,-1.6848851033809062,0.0,0.0,0.021738461271944672,1.245522083991021,-5.534377272761988,0.0,-18.453307518601047,11.90395360243548,0.0,-0.258814404159202,0.0,17.184293715565126,0.0,0.0,-0.7928144769437799,0.0,-0.19033467788355463,0.3490658503988659,1.0,0.14,0.14,0.75,0.08726646259971647,5.0,0.184,0.175,0.174,0.0,0.0,0.0,0.0025103986625387865,0.0,0.008667126925456792,0.0,6.039400577011971,0.0,-0.518178874491622,0.0,0.15770354532512557,0.0,-3.6154628620360527,0.0,-0.0367370867439178,0.0,-0.010703473974560543,0.45732602941432615,0.05918710634812262,0.1080431959241209,0.0,0.0,0.0,0.42917659980464923,0.1080431959241209,0.0,0.0,0.0760386491533256,0.0,0.0,-0.004660964155420205,0.0,1.313467491067184,0.0,5.217445735000773,0.0,0.12941491597192098,0.0,86.834812412147,-1.4663058476179092,0.0,-5.176570680383839,0.0,0.12941491597192098,0.0
sim_raptor_glider_3dof,raptor_glider_3dof,0.015,-14.820817321455415,0.0,-0.002374978130536539,11.896081394382177,0.0,-0.36829613676467976,0.0,0.0,0.0,-44.44008709131195,-0.7756258396164235,-0.0325844438627148,0.0,0.0,0.0,0.0,0.0,-0.008452552295403091,-0.4842955726402134,0.0,0.0,11.901781151832763,0.002374978130536539,0.03497540671730807,-0.030949564238567536,-1.7732794086389432,0.0,0.0,0.022497011943164447,1.2889838359987298,-5.540447520843361,0.0,-17.96156185209899,11.898769440623575,0.0,-0.26773192750233893,0.0,17.19247544866026,0.0,0.0,-0.7756258396164235,0.0,-0.19033467788355463,0.3490658503988659,1.0,0.14,0.14,0.75,0.08726646259971647,5.0,0.184,0.175,0.174,0.0,0.0,0.0,0.002507204694699855,0.0,0.008675490197155238,0.0,6.0393918452212425,0.0,-0.5183489316266908,0.0,0.15591809193452572,0.0,-3.6141277699308056,0.0,-0.03628549893696384,0.0,-0.010561187616262674,0.4508544835012885,0.05965159346084397,0.10779715314740157,0.0,0.0,0.0,0.4233038520649116,0.10779715314740157,0.0,0.0,0.07613860154132243,0.0,0.0,-0.004561822140780072,0.0,1.309379148360294,0.0,5.141742811672261,0.0,0.12947653260386044,0.0,86.76210762064056,-1.4678613827550584,0.0,-5.0987621886650585,0.0,0.12947653260386044,0.0
sim_raptor_glider_3dof,raptor_glider_3dof,0.016,-14.808921141255649,0.0,-0.002647054084958685,11.890538603480048,0.0,-0.3860150907697539,0.0,0.0,0.0,-43.454866760857406,-0.758430500992405,-0.03187539191145902,0.0,0.0,0.0,0.0,0.0,-0.009219580964862834,-0.5282430781657917,0.0,0.0,11.896802760874504,0.002647054084958685,0.034960776869359965,-0.03245265671448159,-1.8594002637266878,0.0,0.0,0.023233075749618755,1.331157185560896,-5.544861807452187,0.0,-17.477649427190194,11.893592102131944,0.0,-0.27637445478169653,0.0,17.19771455553639,0.0,0.0,-0.758430500992405,0.0,-0.19033467788355463,0.3490658503988659,1.0,0.14,0.14,0.75,0.08726646259971647,5.0,0.184,0.175,0.174,0.0,0.0,0.0,0.002504041871899991,0.0,0.008683597261846778,0.0,6.039372769269699,0.0,-0.5185117689304177,0.0,0.15417784931118614,0.0,-3.6128187323142114,0.0,-0.035845825543804506,0.0,-0.010424147921838413,0.444541631935001,0.06010315700786995,0.107562207467453,0.0,0.0,0.0,0.41759059958621986,0.107562207467453,0.0,0.0,0.0762255588275306,0.0,0.0,-0.004462554867604263,0.0,1.305432551577058,0.0,5.068103144846521,0.0,0.12951598831774455,0.0,86.68953943114172,-1.4691897306844195,0.0,-5.023077260880189,0.0,0.12951598831774455,0.0
sim_raptor_glider_3dof,raptor_glider_3dof,0.017,-14.797030134933426,0.0,-0.002927637916875369,11.884992194134648,0.0,-0.4032540264484564,0.0,0.0,0.0,-42.469428865931384,-0.741231365152024,-0.03116556829086233,0.0,0.0,0.0,0.0,0.0,-0.0099694120359578,-0.5712052338873073,0.0,0.0,11.891831367139732,0.002927637916875369,0.03494616758394232,-0.0339166725145145,-1.9432821902090422,0.0,0.0,0.023947260478556703,1.3720769563217352,-5.547705707094341,0.0,-17.001510457423393,11.888421718184894,0.0,-0.2847495655451245,0.0,17.200089360205148,0.0,0.0,-0.741231365152024,0.0,-0.19033467788355463,0.3490658503988659,1.0,0.14,0.14,0.75,0.08726646259971647,5.0,0.184,0.175,0.174,0.0,0.0,0.0,0.0025009149652889594,0.0,0.008691448985781332,0.0,6.039344150640298,0.0,-0.5186676718135985,0.0,0.15248218483241002,0.0,-3.61153588116814,0.0,-0.035417866329351594,0.0,-0.01029217570385185,0.4383859466894318,0.06054205964122532,0.10733792667925827,0.0,0.0,0.0,0.4120352037311998,0.10733792667925827,0.0,0.0,0.07629983918074766,0.0,0.0,-0.004363179560720726,0.0,1.3016220431699077,0.0,4.996501426202501,0.0,0.12953387297170496,0.0,86.61710353450559,-1.4703056746477416,0.0,-4.94948963716544,0.0,0.12953387297170496,0.0
sim_raptor_glider_3dof,raptor_glider_3dof,0.018000000000000002,-14.785144295471547,0.0,-0.003216466373385342,11.879443690332572,0.0,-0.42002068279618965,0.0,0.0,0.0,-41.48393507177362,-0.7240312536859999,-0.03045509268399397,0.0,0.0,0.0,0.0,0.0,-0.010702043291882507,-0.6131819127911619,0.0,0.0,11.886866692520739,0.003216466373385342,0.03493157804378835,-0.03534220966193582,-2.0249594522954024,0.0,0.0,0.024640166370053312,1.4117775395042407,-5.549061864592185,0.0,-16.533081267578254,11.88325839204875,0.0,-0.2928647359479169,0.0,17.199676209577234,0.0,0.0,-0.7240312536859999,0.0,-0.19033467788355463,0.3490658503988659,1.0,0.14,0.14,0.75,0.08726646259971647,5.0,0.184,0.175,0.174,0.0,0.0,0.0,0.0024978282525988382,0.0,0.008699046925226068,0.0,6.039306754955956,0.0,-0.5188169151814362,0.0,0.15083046702724107,0.0,-3.6102793207542856,0.0,-0.03500142355143886,0.0,-0.010165098002064075,0.4323858284301336,0.06096855828833513,0.10712389144117672,0.0,0.0,0.0,0.406635957854438,0.10712389144117672,0.0,0.0,0.07636175307435013,0.0,0.0,-0.004263712975759156,0.0,1.2979421427098272,0.0,4.926911628581654,0.0,0.12953076153432616,0.0,86.54479575325213,-1.4712233119387141,0.0,-4.877972321373234,0.0,0.12953076153432616,0.0
sim_raptor_glider_3dof,raptor_glider_3dof,0.019000000000000003,-14.773263615768853,0.0,-0.0035132831542512596,11.873894540359498,0.0,-0.4363227367051342,0.0,0.0,0.0,-40.498543008025706,-0.7068329177505769,-0.029744081897401124,0.0,0.0,0.0,0.0,0.0,-0.011417475115072143,-0.6541731367892777,0.0,0.0,11.88190847827675,0.0035132831542512596,0.03491700748854433,-0.036729861945995416,-2.104466071603706,0.0,0.0,0.025312386830923274,1.4502929348144284,-5.5490100731749035,0.0,-16.072294731801744,11.878102211567542,0.0,-0.3007273477740849,0.0,17.196549635051063,0.0,0.0,-0.7068329177505769,0.0,-0.19033467788355463,0.3490658503988659,1.0,0.14,0.14,0.75,0.08726646259971647,5.0,0.184,0.175,0.174,0.0,0.0,0.0,0.0024947855523470702,0.0,0.008706393255309855,0.0,6.039261313043111,0.0,-0.5189597637798962,0.0,0.14922206549669634,0.0,-3.6090491285385977,0.0,-0.03459630184080435,0.0,-0.010042747861658036,0.42653961207187263,0.06138290442275847,0.1069196950938405,0.0,0.0,0.0,0.4013910924385782,0.1069196950938405,0.0,0.0,0.07641160382189793,0.0,0.0,-0.004164171465636158,0.0,1.2943875462358534,0.0,4.859307078705191,0.0,0.12950721530156956,0.0,86.47261219872973,-1.4719560761982111,0.0,-4.8084976567268924,0.0,0.12950721530156956,0.0
sim_raptor_glider_3dof,raptor_glider_3dof,0.02,-14.761388088644594,0.0,-0.003817839305211615,11.86834611395432,0.0,-0.4521677962741618,0.0,0.0,0.0,-39.51340607749416,-0.6896390347298108,-0.029032649735115764,0.0,0.0,0.0,0.0,0.0,-0.012115710608778786,-0.6941790836849018,0.0,0.0,11.87695647868603,0.003817839305211615,0.034902455196115165,-0.03808021838132339,-2.1818357961863293,0.0,0.0,0.025964507772544602,1.4876567125014277,-5.547627317530438,0.0,-15.619080617250201,11.872953244854015,0.0,-0.3083446806944266,0.0,17.190782340342206,0.0,0.0,-0.6896390347298108,0.0,-0.19033467788355463,0.3490658503988659,1.0,0.14,0.14,0.75,0.08726646259971647,5.0,0.184,0.175,0.174,0.0,0.0,0.0,0.0024917902577540067,0.0,0.008713490699578386,0.0,6.0392085220007745,0.0,-0.5190964724522862,0.0,0.14765635174827307,0.0,-3.607845356786768,0.0,-0.034202308315656356,0.0,-0.009924964187442906,0.42084557528276323,0.061785344088454576,0.10672494358633076,0.0,0.0,0.0,0.3962987836852428,0.10672494358633076,0.0,0.0,0.07644968756434214,0.0,0.0,-0.004064570962916208,0.0,1.2909531231612186,0.0,4.79366055686519,0.0,0.12946378180511717,0.0,86.40054917814804,-1.4725167549478626,0.0,-4.741037429407472,0.0,0.12946378180511717,0.0
sim_raptor_glider_3dof,raptor_glider_3dof,0.02,-14.761388088644594,0.0,-0.003817839305211615,11.86834611395432,0.0,-0.4521677962741618,0.0,0.0,0.0,-39.51340607749416,-0.6896390347298108,-0.029032649735115764,0.0,0.0,0.0,0.0,0.0,-0.012115710608778786,-0.6941790836849018,0.0,0.0,11.87695647868603,0.003817839305211615,0.034902455196115165,-0.03808021838132339,-2.1818357961863293,0.0,0.0,0.025964507772544602,1.4876567125014277,-5.5595437894244775,0.0,-15.591229791952912,11.872953244854015,0.0,-0.3083446806944266,0.0,17.502894516870064,0.0,0.0,-0.6896390347298108,0.0,-0.19249396695984694,0.3490658503988659,1.0,0.14,0.14,0.75,0.08726646259971647,5.0,0.184,0.175,0.174,0.0,0.0,0.0,0.002206316294091059,0.0,0.008956397727297468,0.0,6.038354373828675,0.0,-0.5191327406197642,0.0,0.14764648137945707,0.0,-3.604564594736085,0.0,-0.03410828953170034,0.0,-0.010021797580451124,0.4202196980500052,0.06318668319554395,0.10701976967815087,0.0,0.0,0.0,0.3956763781983431,0.10701976967815087,0.0,0.0,0.07783769178126407,0.0,0.0,-0.004064570962916208,0.0,1.2945193622355613,0.0,4.786131892242043,0.0,0.13181429860654847,0.0,86.40054917814804,-1.4757937847187235,0.0,-4.733378452450717,0.0,0.13181429860654847,0.0
sim_raptor_glider_3dof,raptor_glider_3dof,0.021,-14.749517718606075,0.0,-0.0041298740187828,11.862787955961032,0.0,-0.4675340946066389,0.0,0.0,0.0,-38.51085978808786,-0.6721413010760189,-0.028307843617474626,0.0,0.0,0.0,0.0,0.0,-0.01279657986521852,-0.733190018479109,0.0,0.0,11.871997566446591,0.0041298740187828,0.03488788258969288,-0.03939143558924888,-2.2569630082253878,0.0,0.0,0.02659485572403036,1.5237729897462788,-5.5567224367970285,0.0,-15.142766573760484,11.867799362980856,0.0,-0.3156968446864078,0.0,17.49248311609948,0.0,0.0,-0.6721413010760189,0.0,-0.19249396695984694,0.3490658503988659,1.0,0.14,0.14,0.75,0.08726646259971647,5.0,0.184,0.175,0.174,0.0,0.0,0.0,0.0022018733946821286,0.0,0.00896298440152387,0.0,6.038291163905135,0.0,-0.5192636239795484,0.0,0.14612583220630385,0.0,-3.603378981258139,0.0,-0.03372553824886131,0.0,-0.009908530401143088,0.41468708291311984,0.06357584670792896,0.10683505538162653,0.0,0.0,0.0,0.3907567426352751,0.10683505538162653,0.0,0.0,0.07785639112536202,0.0,0.0,-0.003963098106446448,0.0,1.2912061496058953,0.0,4.722677470314741,0.0,0.13173589034734517,0.0,86.32841566532935,-1.476189444726774,0.0,-4.668164578576444,0.0,0.13173589034734517,0.0
sim_raptor_glider_3dof,raptor_glider_3dof,0.022,-14.737652493210962,0.0,-0.004449153253301782,11.857233131824804,0.0,-0.48245567108447635,0.0,0.0,0.0,-37.50897087780367,-0.6546550408523417,-0.027582901980926892,0.0,0.0,0.0,0.0,0.0,-0.013459976854921772,-0.7711998661307892,0.0,0.0,11.867044325231344,0.004449153253301782,0.03487332664853902,-0.04066629062281784,-2.3300068211398983,0.0,0.0,0.02720631376789607,1.558806955009109,-5.552711666630701,0.0,-14.70179436427847,11.862652700871275,0.0,-0.3228187037903509,0.0,17.479571911658066,0.0,0.0,-0.6546550408523417,0.0,-0.19249396695984694,0.3490658503988659,1.0,0.14,0.14,0.75,0.08726646259971647,5.0,0.184,0.175,0.174,0.0,0.0,0.0,0.0021975301718416135,0.0,0.008969334218803677,0.0,6.038222058665697,0.0,-0.5193888258414635,0.0,0.14464688115151636,0.0,-3.602220351339338,0.0,-0.03335361635392311,0.0,-0.009799543454721853,0.40930403336600785,0.06395352785988355,0.10665903189524996,0.0,0.0,0.0,0.38598679716035333,0.10665903189524996,0.0,0.0,0.07786388458094057,0.0,0.0,-0.003861606277329765,0.0,1.2880032977355889,0.0,4.661136134379948,0.0,0.1316386560666969,0.0,86.25639471666653,-1.4764373046358237,0.0,-4.604918614229778,0.0,0.1316386560666969,0.0
sim_raptor_glider_3dof,raptor_glider_3dof,0.023,-14.72579240972399,0.0,-0.0047754123778958645,11.851683034508733,0.0,-0.4969409990185839,0.0,0.0,0.0,-36.50791044426678,-0.6371832402756811,-0.026857951407232364,0.0,0.0,0.0,0.0,0.0,-0.014105896666734046,-0.8082083452515167,0.0,0.0,11.862096825897508,0.0047754123778958645,0.03485878758087956,-0.04190544721490724,-2.401005264022435,0.0,0.0,0.027799550548173197,1.5927969187709183,-5.547582696453366,0.0,-14.268224427680035,11.857513517837088,0.0,-0.32971848792338265,0.0,17.464237548306766,0.0,0.0,-0.6371832402756811,0.0,-0.19249396695984694,0.3490658503988659,1.0,0.14,0.14,0.75,0.08726646259971647,5.0,0.184,0.175,0.174,0.0,0.0,0.0,0.0021932878262677737,0.0,0.00897545202558797,0.0,6.038147655376449,0.0,-0.5195085822819807,0.0,0.14320890351250073,0.0,-3.6010886032123484,0.0,-0.03299231177028985,0.0,-0.009694684413276014,0.40406831146451166,0.06431998411212951,0.10649132899716673,0.0,0.0,0.0,0.38136419278002043,0.10649132899716673,0.0,0.0,0.07786048489267969,0.0,0.0,-0.003760113197012531,0.0,1.2849060821944862,0.0,4.601474837892915,0.0,0.13152317297629826,0.0,86.18448725856032,-1.476548486768708,0.0,-4.543606374901225,0.0,0.13152317297629826,0.0
sim_raptor_glider_3dof,raptor_glider_3dof,0.024,-14.713937463082738,0.0,-0.005108497372612967,11.846138418955094,0.0,-0.5109952613375701,0.0,0.0,0.0,-35.50777482030915,-0.6197275806711325,-0.026133065205537036,0.0,0.0,0.0,0.0,0.0,-0.01473435026788122,-0.8442160842170477,0.0,0.0,11.857154447765001,0.005108497372612967,0.034844263562740604,-0.043109294994960676,-2.4699806609956902,0.0,0.0,0.02837494472707946,1.6257645767786426,-5.5413999955425055,0.0,-13.84200213615952,11.852381448246277,0.0,-0.33640095633164746,0.0,17.446529631705516,0.0,0.0,-0.6197275806711325,0.0,-0.19249396695984694,0.3490658503988659,1.0,0.14,0.14,0.75,0.08726646259971647,5.0,0.184,0.175,0.174,0.0,0.0,0.0,0.0021891481529538554,0.0,0.008981341594461786,0.0,6.038068537892665,0.0,-0.519623094706741,0.0,0.1418114897909532,0.0,-3.599983860208419,0.0,-0.03264149328810643,0.0,-0.009593828803982428,0.39897878123217545,0.0646753885560573,0.10633162475515467,0.0,0.0,0.0,0.37688772779790036,0.10633162475515467,0.0,0.0,0.07784639437013635,0.0,0.0,-0.0036586291287751854,0.0,1.2819102267935023,0.0,4.543673942061843,0.0,0.13138981465637425,0.0,86.11268417122258,-1.4765331697291497,0.0,-4.484207457290436,0.0,0.13138981465637425,0.0
sim_raptor_glider_3dof,raptor_glider_3dof,0.025,-14.702087644614052,0.0,-0.005448152416952606,11.840600521752153,0.0,-0.5246271725234862,0.0,0.0,0.0,-34.50872446672343,-0.6022908626078483,-0.02540836235624301,0.0,0.0,0.0,0.0,0.0,-0.015345357909319157,-0.8792242433216844,0.0,0.0,11.852217277196168,0.005448152416952606,0.034829754847912564,-0.04427852013134896,-2.536972326611347,0.0,0.0,0.028933162222029803,1.6577480832896625,-5.534229814037341,0.0,-13.423028239626642,11.84725671252434,0.0,-0.34287428222938215,0.0,17.426523498121615,0.0,0.0,-0.6022908626078483,0.0,-0.19249396695984694,0.3490658503988659,1.0,0.14,0.14,0.75,0.08726646259971647,5.0,0.184,0.175,0.174,0.0,0.0,0.0,0.002185111613386669,0.0,0.008987008397703042,0.0,6.037985242896923,0.0,-0.5197325851500638,0.0,0.1404538836223686,0.0,-3.598905950178097,0.0,-0.032300944156087724,0.0,-0.00949683162556934,0.3940330018357069,0.06501999877430792,0.10617956831538665,0.0,0.0,0.0,0.3725548574622627,0.10617956831538665,0.0,0.0,0.0778219216798509,0.0,0.0,-0.0035571707298740216,0.0,1.279011274277339,0.0,4.487698250624461,0.0,0.1312391484643539,0.0,86.04098661552784,-1.4764013852130824,0.0,-4.426685484437231,0.0,0.1312391484643539,0.0
sim_raptor_glider_3dof,raptor_glider_3dof,0.026000000000000002,-14.690242947243823,0.0,-0.00579417899115213,11.835070261861125,0.0,-0.5378436991254815,0.0,0.0,0.0,-33.510884709233416,-0.5848752734323457,-0.024683936830489743,0.0,0.0,0.0,0.0,0.0,-0.015938939246172654,-0.913233948721123,0.0,0.0,11.847285087642591,0.00579417899115213,0.034815260770644424,-0.045413663511986155,-2.6020112514640705,0.0,0.0,0.0294747242658135,1.6887773027429476,-5.5261339469767945,0.0,-13.011221902570359,11.842139240232997,0.0,-0.34914490231479073,0.0,17.40428028896742,0.0,0.0,-0.5848752734323457,0.0,-0.19249396695984694,0.3490658503988659,1.0,0.14,0.14,0.75,0.08726646259971647,5.0,0.184,0.175,0.174,0.0,0.0,0.0,0.00218117887429757,0.0,0.008992457390724058,0.0,6.037898287624122,0.0,-0.5198372539118987,0.0,0.1391354946508517,0.0,-3.5978548101346446,0.0,-0.03197049086105311,0.0,-0.009403564538590769,0.3892290986850142,0.06535402634396066,0.10603483937241648,0.0,0.0,0.0,0.36836362469612516,0.10603483937241648,0.0,0.0,0.07778731726416988,0.0,0.0,-0.0034557511562685645,0.0,1.2762050822923217,0.0,4.433519518218918,0.0,0.13107163485621365,0.0,85.9693912091089,-1.4761624478454827,0.0,-4.37101122831636,0.0,0.13107163485621365,0.0
sim_raptor_glider_3dof,raptor_glider_3dof,0.027,-14.678403363728027,0.0,-0.00614637734743205,11.829548537889636,0.0,-0.5506519707150176,0.0,0.0,0.0,-32.51438213362261,-0.5674830224833335,-0.023959883506110783,0.0,0.0,0.0,0.0,0.0,-0.016515116404812433,-0.946246468163022,0.0,0.0,11.842357713020627,0.00614637734743205,0.03480078084287116,-0.046515280643244214,-2.6651292637244666,0.0,0.0,0.03000016423843178,1.7188827955614445,-5.517172092080963,0.0,-12.60649824581623,11.837028993376837,0.0,-0.3552193872740199,0.0,17.379861506738308,0.0,0.0,-0.5674830224833335,0.0,-0.19249396695984694,0.3490658503988659,1.0,0.14,0.14,0.75,0.08726646259971647,5.0,0.184,0.175,0.174,0.0,0.0,0.0,0.002177350283773531,0.0,0.008997693766648168,0.0,6.03780816109946,0.0,-0.5199372952499752,0.0,0.1378557131124405,0.0,-3.596830341046255,0.0,-0.031649956473354834,0.0,-0.00931390219206532,0.3845650916964958,0.06567768425014425,0.10589712635761236,0.0,0.0,0.0,0.36431196647238945,0.10589712635761236,0.0,0.0,0.07774283328492407,0.0,0.0,-0.00335438369085551,0.0,1.2734876403994755,0.0,4.381108369130599,0.0,0.1308877370072462,0.0,85.89789545232354,-1.4758251891572054,0.0,-4.317154308495991,0.0,0.1308877370072462,0.0
sim_raptor_glider_3dof,raptor_glider_3dof,0.028,-14.666568886865974,0.0,-0.006504554544898165,11.824036187234436,0.0,-0.563059027746305,0.0,0.0,0.0,-31.51933968683902,-0.5501162555898593,-0.023236294682552058,0.0,0.0,0.0,0.0,0.0,-0.01707391378689993,-0.9782631997595949,0.0,0.0,11.837434993517643,0.006504554544898165,0.034786314594956194,-0.04758392055998455,-2.726357820772899,0.0,0.0,0.030510006773084616,1.7480946210133044,-5.507401613298171,0.0,-12.208771471369543,11.831925920478675,0.0,-0.36110419280441736,0.0,17.353327120559207,0.0,0.0,-0.5501162555898593,0.0,-0.19249396695984694,0.3490658503988659,1.0,0.14,0.14,0.75,0.08726646259971647,5.0,0.184,0.175,0.174,0.0,0.0,0.0,0.002173625965949949,0.0,0.009002722821776575,0.0,6.037715326427698,0.0,-0.5200328956288474,0.0,0.13661393445147088,0.0,-3.5958324280568768,0.0,-0.03133916675927554,0.0,-0.009227723839571773,0.38003898809660436,0.06599118078842248,0.10576612902052115,0.0,0.0,0.0,0.36039780954181144,0.10576612902052115,0.0,0.0,0.07768871585825936,0.0,0.0,-0.0032530812555572886,0.0,1.270855088831275,0.0,4.330435409723563,0.0,0.1306879065449314,0.0,85.82649694056178,-1.4753979489773927,0.0,-4.265084335244654,0.0,0.1306879065449314,0.0
sim_raptor_glider_3dof,raptor_glider_3dof,0.029,-14.654739509516821,0.0,-0.006868524444001867,11.818533987499407,0.0,-0.575071819275819,0.0,0.0,0.0,-30.525876708539233,-0.5327770556218591,-0.022513260103079434,0.0,0.0,0.0,0.0,0.0,-0.01761535804492517,-1.0092856705860334,0.0,0.0,11.832516774169552,0.006868524444001867,0.034771861571511214,-0.04862012563024817,-2.785727998009062,0.0,0.0,0.031004767585323004,1.7764423274230288,-5.496877607035673,0.0,-11.81795506064727,11.826829956517857,0.0,-0.3668056578293661,0.0,17.324735590861923,0.0,0.0,-0.5327770556218591,0.0,-0.19249396695984694,0.3490658503988659,1.0,0.14,0.14,0.75,0.08726646259971647,5.0,0.184,0.175,0.174,0.0,0.0,0.0,0.002170005842503898,0.0,0.009007549926443837,0.0,6.037620221750433,0.0,-0.5201242339665723,0.0,0.13540955967912943,0.0,-3.594860941551319,0.0,-0.03103795020388156,0.0,-0.009144913199930847,0.3756487866609516,0.06629471963591416,0.10564155820473174,0.0,0.0,0.0,0.35661907463712844,0.10564155820473174,0.0,0.0,0.07762520515353058,0.0,0.0,-0.003151856414431121,0.0,1.2683037148527008,0.0,4.281471277364629,0.0,0.13047258373478116,0.0,85.75519334342884,-1.474888594724554,0.0,-4.214770959988086,0.0,0.13047258373478116,0.0
sim_raptor_glider_3dof,raptor_glider_3dof,0.03,-14.64291522460661,0.0,-0.0072381067810430655,11.813042666021438,0.0,-0.5866972127770689,0.0,0.0,0.0,-29.534109448749813,-0.5154674515250517,-0.021790867319077745,0.0,0.0,0.0,0.0,0.0,-0.018139477747709062,-1.0393155175152016,0.0,0.0,11.827602912201748,0.0072381067810430655,0.03475742135296878,-0.049624432346086295,-2.843270534163231,0.0,0.0,0.03148495459837723,1.8039550166480294,-5.485652990551692,0.0,-11.43396188817811,11.821741031091282,0.0,-0.3723300183118506,0.0,17.29414402025693,0.0,0.0,-0.5154674515250517,0.0,-0.19249396695984694,0.3490658503988659,1.0,0.14,0.14,0.75,0.08726646259971647,5.0,0.184,0.175,0.174,0.0,0.0,0.0,0.0021664896492711422,0.0,0.009012180502931576,0.0,6.037523261088279,0.0,-0.5202114819608122,0.0,0.13424199457873692,0.0,-3.593915737264869,0.0,-0.030746137748472638,0.0,-0.009065358243878866,0.3713924775352875,0.06658850020577128,0.10552313550341294,0.0,0.0,0.0,0.35297367597073664,0.10552313550341294,0.0,0.0,0.07755253594390708,0.0,0.0,-0.003050721424670885,0.0,1.2658299495765333,0.0,4.234186639018419,0.0,0.13024219861655495,0.0,85.68398251095186,-1.4743045426200667,0.0,-4.16618387387029,0.0,0.13024219861655495,0.0
sim_raptor_glider_3dof,raptor_glider_3dof,0.03,-14.64291522460661,0.0,-0.0072381067810430655,11.813042666021438,0.0,-0.5866972127770689,0.0,0.0,0.0,-29.534109448749813,-0.5154674515250517,-0.021790867319077745,0.0,0.0,0.0,0.0,0.0,-0.018139477747709062,-1.0393155175152016,0.0,0.0,11.827602912201748,0.0072381067810430655,0.03475742135296878,-0.049624432346086295,-2.843270534163231,0.0,0.0,0.03148495459837723,1.8039550166480294,-5.487882707015267,0.0,-11.428756821074074,11.821741031091282,0.0,-0.3723300183118506,0.0,17.352539158192624,0.0,0.0,-0.5154674515250517,0.0,-0.1929020116905652,0.3490658503988659,1.0,0.14,0.14,0.75,0.08726646259971647,5.0,0.184,0.175,0.174,0.0,0.0,0.0,0.0021041950242826797,0.0,0.009058516009887512,0.0,6.03735478162731,0.0,-0.5202196402660502,0.0,0.13424051422090708,0.0,-3.5932762048339333,0.0,-0.030726009818527838,0.0,-0.00908375134370162,0.3712753210201311,0.0668523139287076,0.10558010732224223,0.0,0.0,0.0,0.35285703343948144,0.10558010732224223,0.0,0.0,0.07781439863155457,0.0,0.0,-0.003050721424670885,0.0,1.2665133697024793,0.0,4.232787423493284,0.0,0.13068197240034865,0.0,85.68398251095186,-1.47491771464755,0.0,-4.164752480416681,0.0,0.13068197240034865,0.0
sim_raptor_glider_3dof,raptor_glider_3dof,0.031,-14.631096039790476,0.0,-0.007613126179509872,11.807560769764615,0.0,-0.597936028260742,0.0,0.0,0.0,-28.54083010112635,-0.49813145651696095,-0.021066754727472225,0.0,0.0,0.0,0.0,0.0,-0.018646229168078184,-1.0683502351646121,0.0,0.0,11.822690845386113,0.007613126179509872,0.0347429864097861,-0.05059687646833965,-2.898987478180652,0.0,0.0,0.03195064730026147,1.83063724301604,-5.475970355550037,0.0,-11.050998391830307,11.816656798034392,0.0,-0.377678359247859,0.0,17.31962325276244,0.0,0.0,-0.49813145651696095,0.0,-0.1929020116905652,0.3490658503988659,1.0,0.14,0.14,0.75,0.08726646259971647,5.0,0.184,0.175,0.174,0.0,0.0,0.0,0.0021005618655303665,0.0,0.0090629146981002,0.0,6.037255860587315,0.0,-0.5203029674854543,0.0,0.13310976680767347,0.0,-3.5923560956846354,0.0,-0.030443520326322505,0.0,-0.00900736983147844,0.3671531141820245,0.06713624427746584,0.10546770428007701,0.0,0.0,0.0,0.3493471598001463,0.10546770428007701,0.0,0.0,0.07773134414407976,0.0,0.0,-0.0029493456618461117,0.0,1.2641143686694183,0.0,4.187203726218187,0.0,0.13043408271655393,0.0,85.61282725620457,-1.4742656660410236,0.0,-4.117912204972876,0.0,0.13043408271655393,0.0
sim_raptor_glider_3dof,raptor_glider_3dof,0.032,-14.619281921674723,0.0,-0.00799339657830293,11.802091055889928,0.0,-0.6088014685812079,0.0,0.0,0.0,-27.549485727671538,-0.48082923317905424,-0.02034346194667721,0.0,0.0,0.0,0.0,0.0,-0.01913570952130769,-1.0963953935592354,0.0,0.0,11.817782893574568,0.00799339657830293,0.034728563559242316,-0.05153852257912515,-2.9529398261235693,0.0,0.0,0.03240281305781746,1.856544432564334,-5.463456845537296,0.0,-10.679882595781708,11.811579441334311,0.0,-0.38286240441221747,0.0,17.284823101384486,0.0,0.0,-0.48082923317905424,0.0,-0.1929020116905652,0.3490658503988659,1.0,0.14,0.14,0.75,0.08726646259971647,5.0,0.184,0.175,0.174,0.0,0.0,0.0,0.0020970391987996375,0.0,0.009067129532739918,0.0,6.037155860826605,0.0,-0.5203825303140249,0.0,0.1320146021512788,0.0,-3.5914619484530697,0.0,-0.030170092952301723,0.0,-0.008934028875684846,0.3631605731815868,0.06741081923528623,0.10536091345370846,0.0,0.0,0.0,0.34596624210866284,0.10536091345370846,0.0,0.0,0.07763960696266742,0.0,0.0,-0.00284808467253481,0.0,1.2617861327648985,0.0,4.143238629848166,0.0,0.13017200277652657,0.0,85.54176113077935,-1.4735525903046263,0.0,-4.072735364875851,0.0,0.13017200277652657,0.0
sim_raptor_glider_3dof,raptor_glider_3dof,0.033,-14.607472877528977,0.0,-0.008378771619090893,11.796634132641236,0.0,-0.6192990779845071,0.0,0.0,0.0,-26.560187847981588,-0.4635627278954659,-0.019621073377590056,0.0,0.0,0.0,0.0,0.0,-0.019607905506883513,-1.1234502306357503,0.0,0.0,11.812878912754023,0.008378771619090893,0.03471415237813048,-0.05244979826002094,-3.0051520766118087,0.0,0.0,0.032841892753137425,1.8817018459760582,-5.450388895981358,0.0,-10.31533925348944,11.806508859282765,0.0,-0.3878875649802139,0.0,17.248186326388304,0.0,0.0,-0.4635627278954659,0.0,-0.1929020116905652,0.3490658503988659,1.0,0.14,0.14,0.75,0.08726646259971647,5.0,0.184,0.175,0.174,0.0,0.0,0.0,0.002093626478583924,0.0,0.009071165533362905,0.0,6.0370551383102296,0.0,-0.5204584724982215,0.0,0.13095454722319466,0.0,-3.590593665324788,0.0,-0.029905592281191017,0.0,-0.008863635471746975,0.35929606587544305,0.06767619951203768,0.10525949772468206,0.0,0.0,0.0,0.3427125756159752,0.10525949772468206,0.0,0.0,0.07753938176074036,0.0,0.0,-0.002746950272862608,0.0,1.2595256213371144,0.0,4.100867656349609,0.0,0.1298960912240303,0.0,85.4707819764733,-1.472784629607219,0.0,-4.029196664409881,0.0,0.1298960912240303,0.0
sim_raptor_glider_3dof,raptor_glider_3dof,0.034,-14.595668901463531,0.0,-0.008769113681640506,11.791190469531568,0.0,-0.6294346040788058,0.0,0.0,0.0,-25.573027909215654,-0.4463335367202147,-0.018899658809197476,0.0,0.0,0.0,0.0,0.0,-0.020062849196537,-1.1495165839690047,0.0,0.0,11.807978684329674,0.008769113681640506,0.03469975222407262,-0.05333114956783744,-3.0556497868180297,0.0,0.0,0.033268300371300435,1.9061332028490245,-5.436810901697648,0.0,-9.957290126253934,11.801444870787458,0.0,-0.3927589226844841,0.0,17.209759183569698,0.0,0.0,-0.4463335367202147,0.0,-0.1929020116905652,0.3490658503988659,1.0,0.14,0.14,0.75,0.08726646259971647,5.0,0.184,0.175,0.174,0.0,0.0,0.0,0.002090322860531402,0.0,0.009075028252945186,0.0,6.03695402822705,0.0,-0.5205309339872899,0.0,0.1299291059605631,0.0,-3.589751114057307,0.0,-0.029649877742093253,0.0,-0.008796098360913215,0.3555578591903101,0.06793254875088948,0.10516322592079687,0.0,0.0,0.0,0.33958436719706786,0.10516322592079687,0.0,0.0,0.07743085872807623,0.0,0.0,-0.002645952233287647,0.0,1.2573298589457507,0.0,4.060065301055345,0.0,0.1296066964114634,0.0,85.39988655979569,-1.4719675492155728,0.0,-3.9872697622667155,0.0,0.1296066964114634,0.0
sim_raptor_glider_3dof,raptor_glider_3dof,0.034999999999999996,-14.583869985847686,0.0,-0.00916424718107378,11.785760641223048,0.0,-0.6392155249611229,0.0,0.0,0.0,-24.588123429620897,-0.4291437107336449,-0.018179306980326614,0.0,0.0,0.0,0.0,0.0,-0.02050058449362565,-1.1745969690360896,0.0,0.0,11.803082240650264,0.00916424718107378,0.034685363192131016,-0.05418316918619772,-3.104466915012421,0.0,0.0,0.03368258469257207,1.929869945976331,-5.4227665916066385,0.0,-9.605633980455305,11.796387477784688,0.0,-0.3974831487223532,0.0,17.16959930742686,0.0,0.0,-0.4291437107336449,0.0,-0.1929020116905652,0.3490658503988659,1.0,0.14,0.14,0.75,0.08726646259971647,5.0,0.184,0.175,0.174,0.0,0.0,0.0,0.002087126587656921,0.0,0.009078725033309516,0.0,6.036852831728414,0.0,-0.5206000614387357,0.0,0.12893761020407624,0.0,-3.588934003940741,0.0,-0.02940276580355495,0.0,-0.008731318505244383,0.3519435777071925,0.0681800700470603,0.10507185856276173,0.0,0.0,0.0,0.3365791655919662,0.10507185856276173,0.0,0.0,0.0773142766656283,0.0,0.0,-0.0025451029772457262,0.0,1.2551958340887683,0.0,4.020798454228897,0.0,0.12930425238423168,0.0,85.32907528089538,-1.4711067921997916,0.0,-3.946920520784137,0.0,0.12930425238423168,0.0
sim_raptor_glider_3dof,raptor_glider_3dof,0.036,-14.572076124375657,0.0,-0.009564033369393224,11.78034507400319,0.0,-0.6486479592883271,0.0,0.0,0.0,-23.605568585929017,-0.41199489362980335,-0.01746008976484123,0.0,0.0,0.0,0.0,0.0,-0.020921150374869853,-1.1986936190385826,0.0,0.0,11.798189447439812,0.009564033369393224,0.03467098488771286,-0.05500633632960051,-3.151630918163241,0.0,0.0,0.03408518595473066,1.9529372991246583,-5.408296987469877,0.0,-9.260285899081683,11.791336543284276,0.0,-0.4020656173922209,0.0,17.127754120186694,0.0,0.0,-0.41199489362980335,0.0,-0.1929020116905652,0.3490658503988659,1.0,0.14,0.14,0.75,0.08726646259971647,5.0,0.184,0.175,0.174,0.0,0.0,0.0,0.0020840362338180383,0.0,0.009082262573471007,0.0,6.036751842517627,0.0,-0.5206659867177557,0.0,0.1279795223433859,0.0,-3.588142136889107,0.0,-0.02916410653915424,0.0,-0.008669208578506208,0.3484513083905706,0.06841893164331633,0.10498517744977413,0.0,0.0,0.0,0.3336949963223906,0.10498517744977413,0.0,0.0,0.07718983137518937,0.0,0.0,-0.0024444125670777723,0.0,1.253120763669313,0.0,3.9830396898094906,0.0,0.128989116279126,0.0,85.25834613100619,-1.4702074126929916,0.0,-3.9081206458602864,0.0,0.128989116279126,0.0
sim_raptor_glider_3dof,raptor_glider_3dof,0.037,-14.560287310657744,0.0,-0.009968333439336119,11.774944172590256,0.0,-0.6577381630540711,0.0,0.0,0.0,-22.625458428146292,-0.39488874434425364,-0.016742079716128677,0.0,0.0,0.0,0.0,0.0,-0.02132458863835096,-1.221808928830137,0.0,0.0,11.793300206420382,0.009968333439336119,0.034656617022011754,-0.05580114269952238,-3.197169968689878,0.0,0.0,0.03447655406117142,1.9753610398597408,-5.393441538337996,0.0,-8.921158409276206,11.786291949044205,0.0,-0.4065118087469492,0.0,17.084271549183565,0.0,0.0,-0.39488874434425364,0.0,-0.1929020116905652,0.3490658503988659,1.0,0.14,0.14,0.75,0.08726646259971647,5.0,0.184,0.175,0.174,0.0,0.0,0.0,0.0020810502894580162,0.0,0.009085647245994585,0.0,6.036651332915739,0.0,-0.5207288375305471,0.0,0.12705428886716452,0.0,-3.5873752883691967,0.0,-0.028933747246557114,0.0,-0.00860968306683214,0.3450790682022685,0.06864930392127674,0.10490297166866135,0.0,0.0,0.0,0.3309298145054876,0.10490297166866135,0.0,0.0,0.07705772114821335,0.0,0.0,-0.002343891160258015,0.0,1.2511019682617543,0.0,3.946760856232245,0.0,0.12866164903690144,0.0,85.18769762468769,-1.4692741440312487,0.0,-3.8708411076866436,0.0,0.12866164903690144,0.0
sim_raptor_glider_3dof,raptor_glider_3dof,0.038,-14.548503538406752,0.0,-0.01037701348279997,11.769558306091497,0.0,-0.6664923185088097,0.0,0.0,0.0,-21.64788558691565,-0.3778268795867032,-0.016025347678764335,0.0,0.0,0.0,0.0,0.0,-0.021710942662314284,-1.2439453838011316,0.0,0.0,11.788414428205288,0.01037701348279997,0.03464225933234972,-0.05656807469803363,-3.2411119353781057,0.0,0.0,0.03485713203571934,1.9971665515769739,-5.378238030589749,0.0,-8.58816426241363,11.78125357568894,0.0,-0.41082711258528815,0.0,17.03919855580314,0.0,0.0,-0.3778268795867032,0.0,-0.1929020116905652,0.3490658503988659,1.0,0.14,0.14,0.75,0.08726646259971647,5.0,0.184,0.175,0.174,0.0,0.0,0.0,0.002078167231290978,0.0,0.009088885046116746,0.0,6.036551556692308,0.0,-0.5207887361567737,0.0,0.1261613611351547,0.0,-3.586633224941465,0.0,-0.02871153755175721,0.0,-0.008552659534765139,0.34182488126099536,0.06887135427119599,0.10482503927601201,0.0,0.0,0.0,0.3282815840142461,0.10482503927601201,0.0,0.0,0.07691814049082125,0.0,0.0,-0.002243548675027007,0.0,1.2491368859698933,0.0,3.9119340036408525,0.0,0.12832220432375344,0.0,85.11712840729808,-1.4683114070233332,0.0,-3.835053092297064,0.0,0.12832220432375344,0.0
sim_raptor_glider_3dof,raptor_glider_3dof,0.039,-14.536724801473024,0.0,-0.010789945646421353,11.76418780158087,0.0,-0.6749165094113112,0.0,0.0,0.0,-20.672939674757885,-0.3608108633906908,-0.015309962356847182,0.0,0.0,0.0,0.0,0.0,-0.022080257635375748,-1.2651055730685412,0.0,0.0,11.783532022510911,0.010789945646421353,0.034627911553413,-0.05730761135768931,-3.283484264771579,0.0,0.0,0.03522735372231356,2.0183786917030377,-5.362722617196463,0.0,-8.261216761554257,11.776221294635643,0.0,-0.41501680123837226,0.0,16.99258094373355,0.0,0.0,-0.3608108633906908,0.0,-0.1929020116905652,0.3490658503988659,1.0,0.14,0.14,0.75,0.08726646259971647,5.0,0.184,0.175,0.174,0.0,0.0,0.0,0.0020753855329201823,0.0,0.00909198160881333,0.0,6.0364527501454015,0.0,-0.520845799489447,0.0,0.12530019786433833,0.0,-3.5859157068204817,0.0,-0.02849732995485831,0.0,-0.008498058677668742,0.33868678921726236,0.06908524653946267,0.1047511872279804,0.0,0.0,0.0,0.3257482882049566,0.1047511872279804,0.0,0.0,0.07677127936753748,0.0,0.0,-0.0021433947299586056,0.0,1.2472230690331096,0.0,3.8785315040204624,0.0,0.12797112708725739,0.0,85.04663711343326,-1.46732332257205,0.0,-3.800728124799736,0.0,0.12797112708725739,0.0
sim_raptor_glider_3dof,raptor_glider_3dof,0.04,-14.524951093828859,0.0,-0.011207006892677134,11.758832953667389,0.0,-0.6830167395452662,0.0,0.0,0.0,-19.70070791231399,-0.34384221804357745,-0.014595990762458684,0.0,0.0,0.0,0.0,0.0,-0.02243258016473008,-1.2852921670279187,0.0,0.0,11.778652906795122,0.011207006892677134,0.03461357344263752,-0.0580202258574662,-3.324314068028621,0.0,0.0,0.03558764569273612,2.0390219010007025,-5.346929896220468,0.0,-7.940229675236246,11.771194976691037,0.0,-0.41908605259167026,0.0,16.94446354695729,0.0,0.0,-0.34384221804357745,0.0,-0.1929020116905652,0.3490658503988659,1.0,0.14,0.14,0.75,0.08726646259971647,5.0,0.184,0.175,0.174,0.0,0.0,0.0,0.0020727036617794008,0.0,0.009094942239425335,0.0,6.036355132699203,0.0,-0.5209001393519018,0.0,0.1244702634363328,0.0,-3.585222486958095,0.0,-0.028290979339941874,0.0,-0.00844580410833734,0.3356628462860384,0.06929114151489611,0.10468123094412246,0.0,0.0,0.0,0.3233279245602267,0.10468123094412246,0.0,0.0,0.07661732391703605,0.0,0.0,-0.002043438706744216,0.0,1.2453581799962121,0.0,3.8465259917244468,0.0,0.12760875497213536,0.0,84.97622249159237,-1.4663137273990539,0.0,-3.767838007974375,0.0,0.12760875497213536,0.0
sim_raptor_glider_3dof,raptor_glider_3dof,0.04,-14.524951093828859,0.0,-0.011207006892677134,11.758832953667389,0.0,-0.6830167395452662,0.0,0.0,0.0,-19.70070791231399,-0.34384221804357745,-0.014595990762458684,0.0,0.0,0.0,0.0,0.0,-0.02243258016473008,-1.2852921670279187,0.0,0.0,11.778652906795122,0.011207006892677134,0.03461357344263752,-0.0580202258574662,-3.324314068028621,0.0,0.0,0.03558764569273612,2.0390219010007025,-5.340620776452653,0.0,-7.954973984301439,11.771194976691037,0.0,-0.41908605259167026,0.0,16.77873919492169,0.0,0.0,-0.34384221804357745,0.0,-0.1917306140532655,0.3490658503988659,1.0,0.14,0.14,0.75,0.08726646259971647,5.0,0.184,0.175,0.174,0.0,0.0,0.0,0.0022517888447446334,0.0,0.008963547577872872,0.0,6.036851447710476,0.0,-0.5208762924438435,0.0,0.12447409933677173,0.0,-3.5870932628012464,0.0,-0.028348684349610465,0.0,-0.008393481776918848,0.3359956552301697,0.0685379673652431,0.10451587290555954,0.0,0.0,0.0,0.3236597193150533,0.10451587290555954,0.0,0.0,0.07586797258315257,0.0,0.0,-0.002043438706744216,0.0,1.2433909697896146,0.0,3.850473244811523,0.0,0.12636068487695526,0.0,84.97622249159237,-1.4645787194629047,0.0,-3.7718926929673033,0.0,0.12636068487695526,0.0
sim_raptor_glider_3dof,raptor_glider_3dof,0.041,-14.513182422642068,0.0,-0.011628090758641324,11.75350034507256,0.0,-0.6908138142816687,0.0,0.0,0.0,-18.740756318354144,-0.3270879020692104,-0.01389051713822775,0.0,0.0,0.0,0.0,0.0,-0.02276798876023429,-1.3045096639627205,0.0,0.0,11.773784187236624,0.011628090758641324,0.034599265882737144,-0.05870761579868582,-3.363698610540251,0.0,0.0,0.03593962703845152,2.0591889465775304,-5.324700475002565,0.0,-7.6413200402807995,11.766181161509955,0.0,-0.4230543252957159,0.0,16.730210430694047,0.0,0.0,-0.3270879020692104,0.0,-0.1917306140532655,0.3490658503988659,1.0,0.14,0.14,0.75,0.08726646259971647,5.0,0.184,0.175,0.174,0.0,0.0,0.0,0.0022496290664949688,0.0,0.008966452432825093,0.0,6.036756122041093,0.0,-0.5209280195758568,0.0,0.12367339468952061,0.0,-3.586425882603888,0.0,-0.028149803612957092,0.0,-0.008343427620537535,0.333078424684407,0.06873669557042753,0.1044493597117416,0.0,0.0,0.0,0.3213389116722552,0.1044493597117416,0.0,0.0,0.07571111899664854,0.0,0.0,-0.001944672399351885,0.0,1.2415726365233608,0.0,3.819703642832573,0.0,0.12599521475355688,0.0,84.90598697437423,-1.4635505612053403,0.0,-3.740275161753147,0.0,0.12599521475355688,0.0
sim_raptor_glider_3dof,raptor_glider_3dof,0.042,-14.501418745547577,0.0,-0.01205307398823042,11.74818371148037,0.0,-0.6983011751593743,0.0,0.0,0.0,-17.783616473640752,-0.3103826603769345,-0.013186541214417216,0.0,0.0,0.0,0.0,0.0,-0.023086724048284074,-1.3227718507498596,0.0,0.0,11.768918601550512,0.01205307398823042,0.0345849675322534,-0.05936922372742552,-3.401605952549428,0.0,0.0,0.03628249967914145,2.0788341017995684,-5.308566325061255,0.0,-7.333402099785891,11.761173032672515,0.0,-0.4269121050737213,0.0,16.680272702283034,0.0,0.0,-0.3103826603769345,0.0,-0.1917306140532655,0.3490658503988659,1.0,0.14,0.14,0.75,0.08726646259971647,5.0,0.184,0.175,0.174,0.0,0.0,0.0,0.0022475484833281456,0.0,0.008969228879792544,0.0,6.0366622964854155,0.0,-0.5209772496692701,0.0,0.12290262025025168,0.0,-3.5857819606979313,0.0,-0.02795843119418444,0.0,-0.008295560017360313,0.3302706065389418,0.06892778954929558,0.10438638803155523,0.0,0.0,0.0,0.3191262290751245,0.10438638803155523,0.0,0.0,0.07554755817478757,0.0,0.0,-0.0018461157700184105,0.0,1.2397987585173846,0.0,3.790267199379206,0.0,0.12561913372089353,0.0,84.83582567589468,-1.4625074913471166,0.0,-3.7100267171631938,0.0,0.12561913372089353,0.0
sim_raptor_glider_3dof,raptor_glider_3dof,0.043000000000000003,-14.489660073805592,0.0,-0.012481862006055453,11.742883303740609,0.0,-0.705483452175071,0.0,0.0,0.0,-16.829377143104303,-0.29372804220704696,-0.012484131344356922,0.0,0.0,0.0,0.0,0.0,-0.023388779396258896,-1.3400783473681723,0.0,0.0,11.764056068659432,0.012481862006055453,0.034570678152926713,-0.06000540904967411,-3.4380566865024424,0.0,0.0,0.03661662965341521,2.09797833913427,-5.292248682722393,0.0,-7.031155399570363,11.756170458551336,0.0,-0.4306638318313561,0.0,16.62896257728029,0.0,0.0,-0.29372804220704696,0.0,-0.1917306140532655,0.3490658503988659,1.0,0.14,0.14,0.75,0.08726646259971647,5.0,0.184,0.175,0.174,0.0,0.0,0.0,0.00224554625463341,0.0,0.008971881055389958,0.0,6.036570157839467,0.0,-0.5210240729219267,0.0,0.12216136972785666,0.0,-3.5851613263405553,0.0,-0.027774456813447375,0.0,-0.008249817969273167,0.3275707089226712,0.06911137325396913,0.10432680655159869,0.0,0.0,0.0,0.3170201220618861,0.10432680655159869,0.0,0.0,0.07537744073839334,0.0,0.0,-0.0017477783882099691,0.0,1.2380674158975318,0.0,3.762142217154493,0.0,0.12523271716949788,0.0,84.76573737171344,-1.4614525947205308,0.0,-3.6811250049119417,0.0,0.12523271716949788,0.0
sim_raptor_glider_3dof,raptor_glider_3dof,0.044,-14.477906402594266,0.0,-0.012914363170006653,11.73759927183895,0.0,-0.7123656077489582,0.0,0.0,0.0,-15.878106695879833,-0.27712524082606105,-0.01178334088252305,0.0,0.0,0.0,0.0,0.0,-0.023674199867808273,-1.3564317357745854,0.0,0.0,11.75919646172211,0.012914363170006653,0.03455639737201243,-0.06061656049200009,-3.4730730847910545,0.0,0.0,0.03694236062419182,2.1166413490164686,-5.275776012604482,0.0,-6.734505838618748,11.751173263067763,0.0,-0.4343136732122818,0.0,16.576316349705326,0.0,0.0,-0.27712524082606105,0.0,-0.1917306140532655,0.3490658503988659,1.0,0.14,0.14,0.75,0.08726646259971647,5.0,0.184,0.175,0.174,0.0,0.0,0.0,0.0022436214167459107,0.0,0.008974412997907938,0.0,6.036479874849638,0.0,-0.5210685780654678,0.0,0.12144920182131694,0.0,-3.5845637699923985,0.0,-0.027597762201456315,0.0,-0.008206140329025051,0.32497710797373774,0.06928757801948923,0.10427046753520135,0.0,0.0,0.0,0.31501892196031966,0.10427046753520135,0.0,0.0,0.07520091717386397,0.0,0.0,-0.001649667723553227,0.0,1.236376727797736,0.0,3.7353056252114976,0.0,0.1248362384296308,0.0,84.69572018012671,-1.4603887176857553,0.0,-3.6535462663051974,0.0,0.1248362384296308,0.0
