name,vehicle,t,north,east,down,u,v,w,p_rad,p_deg,p_hat_div_b,q_deg,q_rad,q_hat_div_c,r_rad,r_deg,r_hat_div_b,phi_rad,phi_deg,theta_rad,theta_deg,psi_rad,psi_deg,speed,altitude,mach,alpha_rad,alpha_deg,beta_rad,beta_deg,gamma_rad,gamma_deg,u_dot,v_dot,w_dot,north_dot,east_dot,down_dot,p_rad_dot,q_rad_dot,r_rad_dot,phi_rad_dot,theta_rad_dot,psi_rad_dot,del_tail_alt_rad,del_tail_splay_rad,DIM_b,DIM_c_bar,DIM_S,DIM_wing_position,DIM_wing_incidence_rad,DIM_wing_incidence_deg,DIM_empennage_length,DIM_nose_length,DIM_tail_length,CDp,CDq,CDr,CYp,CYq,CYr,CLp,CLq,CLr,Clp,Clq,Clr,Cmp,Cmq,Cmr,Cnp,Cnq,Cnr,CL_0,Cm_0,CD_0,Cl_0,CY_0,Cn_0,CL,CD,CY,Cl,Cm,Cn,p_hat,q_hat,r_hat,drag_force_wind,side_force_wind,lift_force_wind,roll_moment_wind,pitch_moment_wind,yaw_moment_wind,qbar,X_total,Y_total,Z_total,L_total,M_total,N_total
sim_raptor_glider_3dof,raptor_glider_3dof,0.0,-15.0,0.0,0.0,12.0,0.0,0.0,0.0,0.0,0.0,0.0,0.0,0.0,0.0,0.0,0.0,0.0,0.0,0.0,0.0,0.0,0.0,12.0,-0.0,0.035264039495724236,0.0,0.0,0.0,0.0,0.0,0.0,-10.779100061558605,0.0,-28.742355564435968,12.0,0.0,0.0,0.0,-132.8349689688793,0.0,0.0,0.0,0.0,0.4363323129985824,0.6108652381980153,1.0,0.14,0.14,0.75,0.08726646259971647,5.0,0.184,0.175,0.174,0.0,0.0,0.0,-0.3024317815595607,0.0,0.0852532024492907,0.0,7.33005651232117,0.0,-0.5595621061845162,0.0,0.20649708952411758,0.0,-5.995098195510987,0.0,0.03308667554778354,0.0,-0.0345475477778499,0.8585175399263748,-0.5786824746360089,0.2400592786239603,0.0,0.0,0.0,0.8585175399263748,0.2400592786239603,0.0,0.0,-0.5786824746360089,0.0,0.0,0.0,0.0,2.9642525169286165,0.0,10.600976530219892,0.0,-1.0003801513046302,0.0,88.20001620075907,-2.9642525169286165,0.0,-10.600976530219892,0.0,-1.0003801513046302,0.0
sim_raptor_glider_3dof,raptor_glider_3dof,0.001,-14.98800539486409,0.0,-0.000014239928150024689,11.989203329364585,0.0,-0.02914129276881495,0.0,0.0,0.0,-7.566095614276913,-0.13205327998983502,-0.005507158661071997,0.0,0.0,0.0,0.0,0.0,-0.00006615697397570378,-0.003790515394164649,0.0,0.0,11.989238745132699,0.000014239928150024689,0.03523241571933556,-0.0024306231681957293,-0.1392644491243321,0.0,0.0,0.0023644661942200254,0.13547393373016747,-10.814980018444555,0.0,-29.534909995738907,11.989205231027487,0.0,-0.02834812329297133,0.0,-131.2719689290965,0.0,0.0,-0.13205327998983502,0.0,0.4363323129985824,0.6108652381980153,1.0,0.14,0.14,0.75,0.08726646259971647,5.0,0.184,0.175,0.174,0.0,0.0,0.0,-0.3044380371666877,0.0,0.08464439771670837,0.0,7.327927165673367,0.0,-0.5605379965738345,0.0,0.20357242360164482,0.0,-5.988855088718713,0.0,0.034282649469979484,0.0,-0.03399326086232219,0.8486528294716064,-0.5775178998668075,0.23917122996071302,0.0,0.0,0.0,0.8430029814134664,0.23917122996071302,0.0,0.0,-0.5729004793427636,0.0,0.0,-0.0007710022125500797,0.0,2.9479924195633664,0.0,10.390741391782104,0.0,-0.9886091980050257,0.0,88.04189665548738,-2.973239663195905,0.0,-10.383545246296933,0.0,-0.9886091980050257,0.0
sim_raptor_glider_3dof,raptor_glider_3dof,0.002,-14.97602159842358,0.0,-0.000056431491468085584,11.978368585153119,0.0,-0.059059266348941944,0.0,0.0,0.0,-15.042704936386867,-0.262544729545955,-0.010958985630534332,0.0,0.0,0.0,0.0,0.0,-0.0002635860405793804,-0.01510236766376255,0.0,0.0,11.978514179927526,0.000056431491468085584,0.03520089976175475,-0.00493045337215955,-0.2824941693107868,0.0,0.0,0.0046668673315801695,0.26739180164702425,-10.855226500779768,0.0,-30.29579418440903,11.978383736236962,0.0,-0.05590193358589358,0.0,-129.71134135340725,0.0,0.0,-0.262544729545955,0.0,0.4363323129985824,0.6108652381980153,1.0,0.14,0.14,0.75,0.08726646259971647,5.0,0.184,0.175,0.174,0.0,0.0,0.0,-0.3064956412635138,0.0,0.08400337099256082,0.0,7.325730306209036,0.0,-0.5615324029284862,0.0,0.2005380657966504,0.0,-5.9823937268020275,0.0,0.035570741481510966,0.0,-0.03345849167713382,0.8384550199658897,-0.5762821967447832,0.23825829815769872,0.0,0.0,0.0,0.8272154597236416,0.23825829815769872,0.0,0.0,-0.5671036613804321,0.0,0.0,-0.0015342579882748066,0.0,2.931488173731686,0.0,10.177913449641244,0.0,-0.97685611173251,0.0,87.8844573425155,-2.981634066863078,0.0,-10.16333623336542,0.0,-0.97685611173251,0.0
sim_raptor_glider_3dof,raptor_glider_3dof,0.003,-14.964048634024827,0.0,-0.00012577622045863583,11.967491467456625,0.0,-0.08972247522216092,0.0,0.0,0.0,-22.429971055964497,-0.3914768460536098,-0.016355384316110954,0.0,0.0,0.0,0.0,0.0,-0.000590726659208764,-0.03384614441852506,0.0,0.0,11.967827795644752,0.00012577622045863583,0.035169496005303565,-0.007497042675138883,-0.4295489041149263,0.0,0.0,0.006906316015930119,0.39570275969640123,-10.899700995929967,0.0,-31.025462569443114,11.967542380835788,0.0,-0.0826529437249549,0.0,-128.153356202033,0.0,0.0,-0.3914768460536098,0.0,0.4363323129985824,0.6108652381980153,1.0,0.14,0.14,0.75,0.08726646259971647,5.0,0.184,0.175,0.174,0.0,0.0,0.0,-0.3086020165217676,0.0,0.08333074427780962,0.0,7.3234642980274804,0.0,-0.5625430410103436,0.0,0.19739764788369984,0.0,-5.975719361899775,0.0,0.03694820459382027,0.0,-0.03294511578331399,0.8279304032151751,-0.5749760536892732,0.2373206873409218,0.0,0.0,0.0,0.8111614729784371,0.2373206873409218,0.0,0.0,-0.5612931275471997,0.0,0.0,-0.0022897538042555335,0.0,2.9147443493905083,0.0,9.962588370607227,0.0,-0.9651229255575106,0.0,87.72771867855833,-2.9893516877305073,0.0,-9.940456636972218,0.0,-0.9651229255575106,0.0
sim_raptor_glider_3dof,raptor_glider_3dof,0.004,-14.952086518049361,0.0,-0.00022146713146720877,11.956567826772272,0.0,-0.12109993691634943,0.0,0.0,0.0,-29.72805541244732,-0.5188524471625265,-0.021696269533393077,0.0,0.0,0.0,0.0,0.0,-0.0010460208980095954,-0.05993258273843415,0.0,0.0,11.957181080460686,0.00022146713146720877,0.035138208823241014,-0.010127973010315693,-0.5802901085134966,0.0,0.0,0.009081952112306097,0.5203575257750624,-10.948245550040017,0.0,-31.724372531633342,11.956687958617081,0.0,-0.10859305313048898,0.0,-126.59837740143017,0.0,0.0,-0.5188524471625265,0.0,0.4363323129985824,0.6108652381980153,1.0,0.14,0.14,0.75,0.08726646259971647,5.0,0.184,0.175,0.174,0.0,0.0,0.0,-0.3107546074733051,0.0,0.082627350671427,0.0,7.321126988413349,0.0,-0.5635675703450943,0.0,0.19415525840986914,0.0,-5.968837598324044,0.0,0.03841121822814562,0.0,-0.03245469290625979,0.8170853288764246,-0.5736006230004033,0.23635848196611606,0.0,0.0,0.0,0.7948475686563906,0.23635848196611606,0.0,0.0,-0.5554704116936028,0.0,0.0,-0.0030374777346750307,0.0,2.8977640023693074,0.0,9.744861503017479,0.0,-0.9534123802101706,0.0,87.5717009622916,-2.9963093903568563,0.0,-9.715013739757591,0.0,-0.9534123802101706,0.0
sim_raptor_glider_3dof,raptor_glider_3dof,0.005,-14.940135260228624,0.0,-0.0003426894646750239,11.94559367911851,0.0,-0.15316112167152215,0.0,0.0,0.0,-36.937142881166054,-0.6446747595559322,-0.026981571347783416,0.0,0.0,0.0,0.0,0.0,-0.0016279138076716563,-0.09327259059065753,0.0,0.0,11.946575520867382,0.0003426894646750239,0.03510704258387664,-0.012820855436272626,-0.7345809062457793,0.0,0.0,0.01119294162860097,0.6413083156551217,-11.000684078536684,0.0,-32.392986066805065,11.945827183587642,0.0,-0.13371453042325188,0.0,-125.04686293774726,0.0,0.0,-0.6446747595559322,0.0,0.4363323129985824,0.6108652381980153,1.0,0.14,0.14,0.75,0.08726646259971647,5.0,0.184,0.175,0.174,0.0,0.0,0.0,-0.3129508810216347,0.0,0.08189423760613948,0.0,7.31871570951495,0.0,-0.5646035956894148,0.0,0.1908154490696245,0.0,-5.961754402659113,0.0,0.03995487580318525,0.0,-0.03198846001127823,0.8059262159350572,-0.5721575289412355,0.2353716488895487,0.0,0.0,0.0,0.7782803529223983,0.2353716488895487,0.0,0.0,-0.5496374786929723,0.0,0.0,-0.0037774199886896785,0.0,2.8805487130077863,0.0,9.524827988191094,0.0,-0.9417279247841747,0.0,87.41642439574731,-3.002425069363658,0.0,-9.487115093404098,0.0,-0.9417279247841747,0.0
sim_raptor_glider_3dof,raptor_glider_3dof,0.006,-14.928194863592637,0.0,-0.0004886208782471757,11.934565225590674,0.0,-0.18587596647831958,0.0,0.0,0.0,-44.05744730245485,-0.7689475154517311,-0.03221123924086439,0.0,0.0,0.0,0.0,0.0,-0.002334853919442332,-0.13377727536362394,0.0,0.0,11.936012608856965,0.0004886208782471757,0.03507600167168287,-0.015573331409482315,-0.8922861627218583,0.0,0.0,0.013238477490039983,0.7585088873582343,-11.056823768202486,0.0,-33.03177112341886,11.934966687543278,0.0,-0.15801001874763382,0.0,-123.49936405342734,0.0,0.0,-0.7689475154517311,0.0,0.4363323129985824,0.6108652381980153,1.0,0.14,0.14,0.75,0.08726646259971647,5.0,0.184,0.175,0.174,0.0,0.0,0.0,-0.3151883286081969,0.0,0.08113266807691978,0.0,7.316227281428784,0.0,-0.5656486697084402,0.0,0.18738323530193554,0.0,-5.954476105677233,0.0,0.04157318071485014,0.0,-0.03154732611275317,0.7944595549023822,-0.5706488715409134,0.23436003973825809,0.0,0.0,0.0,0.7614664902800123,0.23436003973825809,0.0,0.0,-0.5437967239257562,0.0,0.0,-0.004509573493721015,0.0,2.863098630763414,0.0,9.302582761667908,0.0,-0.9300737106863614,0.0,87.26190919020603,-3.0076177944949998,0.0,-9.256868531495805,0.0,-0.9300737106863614,0.0
sim_raptor_glider_3dof,raptor_glider_3dof,0.007,-14.916265324580014,0.0,-0.000658431846922711,11.923478867370353,0.0,-0.2192148795855598,0.0,0.0,0.0,-51.0892165685473,-0.8916750413855896,-0.03738524596641254,0.0,0.0,0.0,0.0,0.0,-0.003165293768040672,-0.18135797382779187,0.0,0.0,11.925493845709665,0.000658431846922711,0.03504509049842683,-0.01838307324843562,-1.0532725116152093,0.0,0.0,0.015217779480394947,0.8719145377874173,-11.116456487822859,0.0,-33.64120293943532,11.924113014581788,0.0,-0.1814725310902123,0.0,-121.95652383210188,0.0,0.0,-0.8916750413855896,0.0,0.4363323129985824,0.6108652381980153,1.0,0.14,0.14,0.75,0.08726646259971647,5.0,0.184,0.175,0.174,0.0,0.0,0.0,-0.3174644677094228,0.0,0.08034412064781016,0.0,7.313658019052537,0.0,-0.5667002957260814,0.0,0.18386409467400272,0.0,-5.947009403497592,0.0,0.04325904895453867,0.0,-0.031131869329350245,0.7826919124073973,-0.5690772276511937,0.23332339458615386,0.0,0.0,0.0,0.7444127058534867,0.23332339458615386,0.0,0.0,-0.5379509703471881,0.0,0.0,-0.005233934435297756,0.0,2.845412532524628,0.0,9.078220580336863,0.0,-0.9184545809795593,0.0,87.10817562194374,-3.01180795500553,0.0,-9.024382207534508,0.0,-0.9184545809795593,0.0
sim_raptor_glider_3dof,raptor_glider_3dof,0.008,-14.904346633135566,0.0,-0.0008512860644050707,11.912331221784493,0.0,-0.25314874907106316,0.0,0.0,0.0,-58.03273831681081,-1.0128623575766207,-0.042503591852397146,0.0,0.0,0.0,0.0,0.0,-0.0041176905850922214,-0.23592629186653885,0.0,0.0,11.91502074805822,0.0008512860644050707,0.03501431352099156,-0.021247784920916633,-1.2174083999702348,0.0,0.0,0.017130094335824412,0.9814821081036958,-11.179360242945373,0.0,-34.221765381480125,11.913272618176196,0.0,-0.20409544745330857,0.0,-120.41907505958375,0.0,0.0,-1.0128623575766207,0.0,0.4363323129985824,0.6108652381980153,1.0,0.14,0.14,0.75,0.08726646259971647,5.0,0.184,0.175,0.174,0.0,0.0,0.0,-0.3197768435893425,0.0,0.07953028799818115,0.0,7.311003741557072,0.0,-0.567755930968509,0.0,0.1802639618007342,0.0,-5.939361355153818,0.0,0.04500431867788742,0.0,-0.030742335884852708,0.7706299336442523,-0.5674456488038336,0.23226134648800711,0.0,0.0,0.0,0.7271257849755036,0.23226134648800711,0.0,0.0,-0.5321034620773635,0.0,0.0,-0.005950502859335602,0.0,2.827487891721358,0.0,8.851836019484987,0.0,-0.9068760542737252,0.0,86.95524412094471,-3.0149174111122763,0.0,-8.789764598546126,0.0,-0.9068760542737252,0.0
sim_raptor_glider_3dof,raptor_glider_3dof,0.009000000000000001,-14.892438772797073,0.0,-0.0010663407823958352,11.901119134279686,0.0,-0.2876489515966038,0.0,0.0,0.0,-64.88834461591229,-1.1325152597164048,-0.04756630838286822,0.0,0.0,0.0,0.0,0.0,-0.005190506999015194,-0.2973941445766851,0.0,0.0,11.904594851051113,0.0010663407823958352,0.034983675250671815,-0.02416520283760698,-1.3845641336724408,0.0,0.0,0.018974695838591786,1.0871699890957556,-11.245300652385273,0.0,-34.77395203375447,11.902451855647241,0.0,-0.22587251198903294,0.0,-118.88783755518315,0.0,0.0,-1.1325152597164048,0.0,0.4363323129985824,0.6108652381980153,1.0,0.14,0.14,0.75,0.08726646259971647,5.0,0.184,0.175,0.174,0.0,0.0,0.0,-0.32212303104432405,0.0,0.0786930741576781,0.0,7.308259784591808,0.0,-0.5688129901494,0.0,0.17658922034001392,0.0,-5.931539377519366,0.0,0.04679976621730942,0.0,-0.03037864103052052,0.7582803440770345,-0.5657576561726089,0.23117342694420098,0.0,0.0,0.0,0.7096125726651934,0.23117342694420098,0.0,0.0,-0.5262578558023392,0.0,0.0,-0.006659283173601551,0.0,2.809320956498501,0.0,8.623523463465926,0.0,-0.8953443046280843,0.0,86.80313531687665,-3.0168696475950068,0.0,-8.553124498742491,0.0,-0.8953443046280843,0.0
sim_raptor_glider_3dof,raptor_glider_3dof,0.01,-14.880541720793032,0.0,-0.001302747168380568,11.8898396898363,0.0,-0.3226873625562957,0.0,0.0,0.0,-71.65641679120353,-1.2506404031878517,-0.052573461889410075,0.0,0.0,0.0,0.0,0.0,-0.006382211843688122,-0.36567380260173726,0.0,0.0,11.894217712147366,0.001302747168380568,0.034953180264325624,-0.027133096751099782,-1.5546119289581435,0.0,0.0,0.02075088490741166,1.1889381263564063,-11.314032453231006,0.0,-35.29826724313323,11.891656983575565,0.0,-0.24679783009294004,0.0,-117.36371492364573,0.0,0.0,-1.2506404031878517,0.0,0.4363323129985824,0.6108652381980153,1.0,0.14,0.14,0.75,0.08726646259971647,5.0,0.184,0.175,0.174,0.0,0.0,0.0,-0.32450063621579645,0.0,0.07783459047380277,0.0,7.3054210149468295,0.0,-0.5698688494034582,0.0,0.17284669210554093,0.0,-5.9235512374601385,0.0,0.04863512823113572,0.0,-0.030040371781199844,0.7456499500771785,-0.5640172327383646,0.230059072208333,0.0,0.0,0.0,0.6918799718130221,0.230059072208333,0.0,0.0,-0.5204182094058036,0.0,0.0,-0.0073602846645174115,0.0,2.7909068374541595,0.0,8.393377081352119,0.0,-0.8838661370899761,0.0,86.651870094068,-3.0175899305478646,0.0,-8.31457099411458,0.0,-0.8838661370899761,0.0
sim_raptor_glider_3dof,raptor_glider_3dof,0.01,-14.880541720793032,0.0,-0.001302747168380568,11.8898396898363,0.0,-0.3226873625562957,0.0,0.0,0.0,-71.65641679120353,-1.2506404031878517,-0.052573461889410075,0.0,0.0,0.0,0.0,0.0,-0.006382211843688122,-0.36567380260173726,0.0,0.0,11.894217712147366,0.001302747168380568,0.034953180264325624,-0.027133096751099782,-1.5546119289581435,0.0,0.0,0.02075088490741166,1.1889381263564063,-10.936612843114762,0.0,-34.89662863781061,11.891656983575565,0.0,-0.24679783009294004,0.0,-112.80686194441213,0.0,0.0,-1.2506404031878517,0.0,0.42272602844868884,0.6108652381980153,1.0,0.14,0.14,0.75,0.08726646259971647,5.0,0.184,0.175,0.174,0.0,0.0,0.0,-0.27981350549124984,0.0,0.06996885994024818,0.0,7.32149086052735,0.0,-0.5629302422822383,0.0,0.17177049557065502,0.0,-5.9679608105261055,0.0,0.036424504280665786,0.0,-0.02799143449015526,0.7364348409114518,-0.5441379460917098,0.2217536138298517,0.0,0.0,0.0,0.682546584009308,0.2217536138298517,0.0,0.0,-0.5002120556595536,0.0,0.0,-0.0073602846645174115,0.0,2.6901511473864206,0.0,8.28015131030142,0.0,-0.8495484773033678,0.0,86.651870094068,-2.9137995377658976,0.0,-8.204120377650858,0.0,-0.8495484773033678,0.0
sim_raptor_glider_3dof,raptor_glider_3dof,0.011,-14.868655262891517,0.0,-0.001559447211727655,11.878868326409155,0.0,-0.35781616147455614,0.0,0.0,0.0,-78.07742749743521,-1.362708181317401,-0.057332497712056014,0.0,0.0,0.0,0.0,0.0,-0.007689019266715618,-0.44054835257758,0.0,0.0,11.884256187140155,0.001559447211727655,0.034923906630051293,-0.03011296954300843,-1.7253460634203743,0.0,0.0,0.022423950276292813,1.2847977108427944,-11.00641815751574,0.0,-35.35695609383643,11.881268410999436,0.0,-0.26646963685562486,0.0,-111.33055074144598,0.0,0.0,-1.362708181317401,0.0,0.42272602844868884,0.6108652381980153,1.0,0.14,0.14,0.75,0.08726646259971647,5.0,0.184,0.175,0.174,0.0,0.0,0.0,-0.2818807414382963,0.0,0.06921805529360937,0.0,7.319224069797505,0.0,-0.5638708888651214,0.0,0.16805328938487982,0.0,-5.961395595904205,0.0,0.03814025069462128,0.0,-0.027681070009079538,0.7236401283416092,-0.5423431236666569,0.22064125280488028,0.0,0.0,0.0,0.6648920127286124,0.22064125280488028,0.0,0.0,-0.4944936857558595,0.0,0.0,-0.008026549679687842,0.0,2.672175228920215,0.0,8.052474066993712,0.0,-0.8384303776338297,0.0,86.50678727671047,-2.913411029284827,0.0,-7.968368416940984,0.0,-0.8384303776338297,0.0
sim_raptor_glider_3dof,raptor_glider_3dof,0.012,-14.856779173727233,0.0,-0.001835405103045542,11.867826117260785,0.0,-0.393392732790177,0.0,0.0,0.0,-84.41410878744811,-1.4733041334776478,-0.06203728330651444,0.0,0.0,0.0,0.0,0.0,-0.009107156299476688,-0.521801619325995,0.0,0.0,11.874344385765022,0.001835405103045542,0.03489477911712076,-0.03313570151264916,-1.898535847880055,0.0,0.0,0.024028545213172475,1.3767342285540598,-11.078379718618907,0.0,-35.791625360131746,11.87091659973765,0.0,-0.28529576551788927,0.0,-109.86290991539732,0.0,0.0,-1.4733041334776478,0.0,0.42272602844868884,0.6108652381980153,1.0,0.14,0.14,0.75,0.08726646259971647,5.0,0.184,0.175,0.174,0.0,0.0,0.0,-0.2839691760475909,0.0,0.06845395752136313,0.0,7.316866668787641,0.0,-0.564804370918939,0.0,0.16428666164334263,0.0,-5.954707122587403,0.0,0.03987032373321483,0.0,-0.027391287106802557,0.7105951216397031,-0.5405078361852875,0.21950672336287355,0.0,0.0,0.0,0.647046527377043,0.21950672336287355,0.0,0.0,-0.48878989679730916,0.0,0.0,-0.008685219662912021,0.0,2.6540024305564525,0.0,7.82328226686215,0.0,-0.8273775745728573,0.0,86.36254930069585,-2.9117280607449523,0.0,-7.731061636584577,0.0,-0.8273775745728573,0.0
sim_raptor_glider_3dof,raptor_glider_3dof,0.013000000000000001,-14.844913415568492,0.0,-0.0021297624777299826,11.856710968350674,0.0,-0.42939131338793485,0.0,0.0,0.0,-90.66697393942808,-1.5824372180629136,-0.06668799363544398,0.0,0.0,0.0,0.0,0.0,-0.010635153894355712,-0.6093494326187037,0.0,0.0,11.864483633391728,0.0021297624777299826,0.03486580162035831,-0.03619922441670365,-2.0740627807240384,0.0,0.0,0.02556407052234794,1.464713348105335,-11.152251188269956,0.0,-36.201174868972025,11.860606995754088,0.0,-0.3032714613829804,0.0,-108.40492788121165,0.0,0.0,-1.5824372180629136,0.0,0.42272602844868884,0.6108652381980153,1.0,0.14,0.14,0.75,0.08726646259971647,5.0,0.184,0.175,0.174,0.0,0.0,0.0,-0.28607689119613344,0.0,0.06767882146711156,0.0,7.314412994789028,0.0,-0.5657283988915958,0.0,0.16047763497998066,0.0,-5.947902133548228,0.0,0.04160366107549387,0.0,-0.02712102939715534,0.6973072745920003,-0.538636749054542,0.2183496109351933,0.0,0.0,0.0,0.6290175807779104,0.2183496109351933,0.0,0.0,-0.48310523670685884,0.0,0.0,-0.009336319108962158,0.0,2.6356292220414343,0.0,7.592672640795888,0.0,-0.8163975118734049,0.0,86.21917361771371,-2.908691406148851,0.0,-7.492311627940001,0.0,-0.8163975118734049,0.0
sim_raptor_glider_3dof,raptor_glider_3dof,0.014,-14.833057943548644,0.0,-0.002441665763744835,11.845521089292161,0.0,-0.4657870244394558,0.0,0.0,0.0,-96.83660599379981,-1.6901176110482823,-0.07128485439293931,0.0,0.0,0.0,0.0,0.0,-0.012271552372887724,-0.7031081590402172,0.0,0.0,11.854675340514454,0.002441665763744835,0.03483697828474082,-0.03930153653400658,-2.251812171777791,0.0,0.0,0.027029984161118854,1.5487040127375733,-11.22778371190489,0.0,-36.58615216568829,11.850344972470594,0.0,-0.32039266914586456,0.0,-106.95764072483311,0.0,0.0,-1.6901176110482823,0.0,0.42272602844868884,0.6108652381980153,1.0,0.14,0.14,0.75,0.08726646259971647,5.0,0.184,0.175,0.174,0.0,0.0,0.0,-0.2882020228508109,0.0,0.06689503438772079,0.0,7.311857079025237,0.0,-0.5666406870874993,0.0,0.15663347530787838,0.0,-5.940987551144913,0.0,0.04332852109498956,0.0,-0.02686899955856008,0.6837840004129258,-0.5367348340642036,0.21716943767650834,0.0,0.0,0.0,0.6108125470020842,0.21716943767650834,0.0,0.0,-0.4774444935094954,0.0,0.0,-0.009979879615011506,0.0,2.617051352342775,0.0,7.3607401633598055,0.0,-0.8054979922987182,0.0,86.07667886100354,-2.9042443808339815,0.0,-7.252228492656002,0.0,-0.8054979922987182,0.0
sim_raptor_glider_3dof,raptor_glider_3dof,0.015,-14.821212707572522,0.0,-0.002770261472786554,11.834254951730085,0.0,-0.5025556594902273,0.0,0.0,0.0,-102.92364685976634,-1.796356515862845,-0.07582813437669313,0.0,0.0,0.0,0.0,0.0,-0.01401490956509154,-0.8029951683372734,0.0,0.0,11.844920955980825,0.002770261472786554,0.034808313367953286,-0.04244068502110222,-2.4316721313532486,0.0,0.0,0.02842577545601068,1.6286769630159752,-11.30472660568512,0.0,-36.947115169269786,11.840135783793443,0.0,-0.33665572142428407,0.0,-105.52213106142462,0.0,0.0,-1.796356515862845,0.0,0.42272602844868884,0.6108652381980153,1.0,0.14,0.14,0.75,0.08726646259971647,5.0,0.184,0.175,0.174,0.0,0.0,0.0,-0.2903427493900709,0.0,0.06610511289741465,0.0,7.309192680049152,0.0,-0.5675389513610882,0.0,0.1527616963357,0.0,-5.933970502280415,0.0,0.04503251134504644,0.0,-0.02663367052069551,0.6700327456171538,-0.5348073636060704,0.2159656769498507,0.0,0.0,0.0,0.5924388033552466,0.2159656769498507,0.0,0.0,-0.47181269583727503,0.0,0.0,-0.01061593881273704,0.0,2.5982640074843255,0.0,7.127578979841617,0.0,-0.7946871690235888,0.0,85.93508416245986,-2.8983328786100513,0.0,-7.010921800393765,0.0,-0.7946871690235888,0.0
sim_raptor_glider_3dof,raptor_glider_3dof,0.016,-14.809377652487267,0.0,-0.0031146899153636997,11.822911258918916,0.0,-0.53967346164942,0.0,0.0,0.0,-108.92880029764804,-1.9011662154413376,-0.08031814811040801,0.0,0.0,0.0,0.0,0.0,-0.01586378946115795,-0.9089281832084648,0.0,0.0,11.835221927850796,0.0031146899153636997,0.034779811125365996,-0.04561474728635731,-2.6135325030640986,0.0,0.0,0.02975095782519936,1.7046043198556338,-11.382828303620345,0.0,-37.28463613262524,11.82998452137139,0.0,-0.352057247608472,0.0,-104.09952514851997,0.0,0.0,-1.9011662154413376,0.0,0.42272602844868884,0.6108652381980153,1.0,0.14,0.14,0.75,0.08726646259971647,5.0,0.184,0.175,0.174,0.0,0.0,0.0,-0.2924972795416757,0.0,0.0653116997074316,0.0,7.306413321039049,0.0,-0.56842090735403,0.0,0.14887006395756283,0.0,-5.926858345630131,0.0,0.04670261950599145,0.0,-0.02641329665458024,0.6560610702842731,-0.5328599047735598,0.21473776874515133,0.0,0.0,0.0,0.5739038080657629,0.21473776874515133,0.0,0.0,-0.46621510467283783,0.0,0.0,-0.011244540735457121,0.0,2.579261981813275,0.0,6.893283291578897,0.0,-0.7839735238935039,0.0,85.79440858379883,-2.890905450624813,0.0,-6.768501502129987,0.0,-0.7839735238935039,0.0
sim_raptor_glider_3dof,raptor_glider_3dof,0.017,-14.797552717653517,0.0,-0.003474087874570916,11.811488988241871,0.0,-0.5771173042057068,0.0,0.0,0.0,-114.85284144954646,-2.0045602385656025,-0.08475526276005772,0.0,0.0,0.0,0.0,0.0,-0.017816769971736184,-1.0208257239359024,0.0,0.0,11.825579753321723,0.003474087874570916,0.03475147595674784,-0.04882184610463474,-2.7972857298327893,0.0,0.0,0.031005076132898556,1.7764600058968867,-11.461838074046579,0.0,-37.599300477394124,11.819896156555583,0.0,-0.3665942585682668,0.0,-102.69098619373287,0.0,0.0,-2.0045602385656025,0.0,0.42272602844868884,0.6108652381980153,1.0,0.14,0.14,0.75,0.08726646259971647,5.0,0.184,0.175,0.174,0.0,0.0,0.0,-0.29466386338706047,0.0,0.06451755142501432,0.0,7.303512299831671,0.0,-0.5692842786422333,0.0,0.14496655795085578,0.0,-5.919658622690569,0.0,0.04832526503018908,0.0,-0.02620592293503271,0.641876580895277,-0.530898291784146,0.21348512248669715,0.0,0.0,0.0,0.5552150263291804,0.21348512248669715,0.0,0.0,-0.46065718070190875,0.0,0.0,-0.011865736786408083,0.0,2.5600397353289184,0.0,6.657946523383441,0.0,-0.7733658170250023,0.0,85.65467184080578,-2.8819134455413953,0.0,-6.525077029974768,0.0,-0.7733658170250023,0.0
sim_raptor_glider_3dof,raptor_glider_3dof,0.018000000000000002,-14.785737837675153,0.0,-0.003847589429935125,11.799987359798024,0.0,-0.6148646366776968,0.0,0.0,0.0,-120.69661130150656,-2.106553263211088,-0.08913989445791916,0.0,0.0,0.0,0.0,0.0,-0.019872442840553953,-1.1386071033787106,0.0,0.0,11.815995946716889,0.003847589429935125,0.03472331231219515,-0.05206014521934909,-2.982826601906872,0.0,0.0,0.03218770237879513,1.8442194985281612,-11.541507090019357,0.0,-37.891706383403964,11.80987550459312,0.0,-0.3802640909175582,0.0,-101.29771064464387,0.0,0.0,-2.106553263211088,0.0,0.42272602844868884,0.6108652381980153,1.0,0.14,0.14,0.75,0.08726646259971647,5.0,0.184,0.175,0.174,0.0,0.0,0.0,-0.29684078995985175,0.0,0.06372553094027422,0.0,7.300482715459525,0.0,-0.570126799131177,0.0,0.14105935712883996,0.0,-5.912379051512803,0.0,0.04988634152664061,0.0,-0.026009396277978176,0.6274869479781289,-0.5289286095478599,0.21220712742486403,0.0,0.0,0.0,0.5363799517534193,0.21220712742486403,0.0,0.0,-0.45514457129727104,0.0,0.0,-0.012479585224108683,0.0,2.5405915052771686,0.0,6.42166154154371,0.0,-0.762873058864813,0.0,85.51589383809232,-2.871311093223256,0.0,-6.280757498643067,0.0,-0.762873058864813,0.0
sim_raptor_glider_3dof,raptor_glider_3dof,0.019000000000000003,-14.773932942538401,0.0,-0.0042343262391354615,11.788405830941524,0.0,-0.6528935101449275,0.0,0.0,0.0,-126.46101650821144,-2.2071611134871922,-0.09347250840429909,0.0,0.0,0.0,0.0,0.0,-0.022029414800656247,-1.2621924932206328,0.0,0.0,11.806472037427842,0.0042343262391354615,0.03469532468608493,-0.055327851555168436,-3.1700523836374797,0.0,0.0,0.03329843675451219,1.907859890416847,-11.621602497852196,0.0,-38.16249046006427,11.799927217390415,0.0,-0.3930644156551812,0.0,-99.92080952754895,0.0,0.0,-2.2071611134871922,0.0,0.42272602844868884,0.6108652381980153,1.0,0.14,0.14,0.75,0.08726646259971647,5.0,0.184,0.175,0.174,0.0,0.0,0.0,-0.29902675406713464,0.0,0.06293788063769017,0.0,7.29731882884426,0.0,-0.5709467167261217,0.0,0.13715560652651493,0.0,-5.905026253247551,0.0,0.05137378724514796,0.0,-0.025821133991807695,0.6129005330325743,-0.5269566437674151,0.21090342139086993,0.0,0.0,0.0,0.517406715654455,0.21090342139086993,0.0,0.0,-0.44968257751561475,0.0,0.0,-0.013086151176601874,0.0,2.52091451797944,0.0,6.184527935068581,0.0,-0.7525036165519712,0.0,85.37809463939413,-2.8590591201302007,0.0,-6.035658765553556,0.0,-0.7525036165519712,0.0
sim_raptor_glider_3dof,raptor_glider_3dof,0.02,-14.762137957641373,0.0,-0.00463342780525367,11.77674406277223,0.0,-0.6911826775727552,0.0,0.0,0.0,-132.14701407166294,-2.306400492229796,-0.09775360795282158,0.0,0.0,0.0,0.0,0.0,-0.02428630894679303,-1.3915030026020518,0.0,0.0,11.797009545381306,0.00463342780525367,0.03466751754498018,-0.05862322392734603,-3.35886331248727,0.0,0.0,0.034336914980552996,1.967360309885218,-11.70196528087559,0.0,-38.412437132051956,11.790055751544807,0.0,-0.4049933200471724,0.0,-98.56080699428716,0.0,0.0,-2.306400492229796,0.0,0.42272602844868884,0.6108652381980153,1.0,0.14,0.14,0.75,0.08726646259971647,5.0,0.184,0.175,0.174,0.0,0.0,0.0,-0.3012224668221261,0.0,0.06215305665471614,0.0,7.294021968478815,0.0,-0.5717449954765981,0.0,0.13325606748237553,0.0,-5.897600209963353,0.0,0.05278873327118188,0.0,-0.025637066990794394,0.5981291439790816,-0.5249855299353309,0.20957503868955354,0.0,0.0,0.0,0.49830676903224913,0.20957503868955354,0.0,0.0,-0.44427389210511786,0.0,0.0,-0.013685505113395021,0.0,2.501022651642719,0.0,5.946683940078755,0.0,-0.7422614374739767,0.0,85.24129411325823,-2.8451404114626344,0.0,-5.789934388771844,0.0,-0.7422614374739767,0.0
sim_raptor_glider_3dof,raptor_glider_3dof,0.02,-14.762137957641373,0.0,-0.00463342780525367,11.77674406277223,0.0,-0.6911826775727552,0.0,0.0,0.0,-132.14701407166294,-2.306400492229796,-0.09775360795282158,0.0,0.0,0.0,0.0,0.0,-0.02428630894679303,-1.3915030026020518,0.0,0.0,11.797009545381306,0.00463342780525367,0.03466751754498018,-0.05862322392734603,-3.35886331248727,0.0,0.0,0.034336914980552996,1.967360309885218,-10.571527842443958,0.0,-37.059771458783615,11.790055751544807,0.0,-0.4049933200471724,0.0,-82.9871755245186,0.0,0.0,-2.306400492229796,0.0,0.37591338546350206,0.6108652381980153,1.0,0.14,0.14,0.75,0.08726646259971647,5.0,0.184,0.175,0.174,0.0,0.0,0.0,-0.16927012944901887,0.0,0.04287979428332009,0.0,7.361919662667722,0.0,-0.5499734492858547,0.0,0.1309384320030517,0.0,-6.079711894618353,0.0,0.01626236134207986,0.0,-0.019375088678177634,0.5664150722490413,-0.4572779297386741,0.18539645646109257,0.0,0.0,0.0,0.46566348306119887,0.18539645646109257,0.0,0.0,-0.37407400151690606,0.0,0.0,-0.013685505113395021,0.0,2.2124807421858215,0.0,5.557126108439346,0.0,-0.6249764188751497,0.0,85.24129411325823,-2.5342701158939356,0.0,-5.417951328623052,0.0,-0.6249764188751497,0.0
sim_raptor_glider_3dof,raptor_glider_3dof,0.021,-14.750352263033678,0.0,-0.005043324175441922,11.766134233542793,0.0,-0.7282980023690597,0.0,0.0,0.0,-136.8665418107441,-2.3887717904159667,-0.10131657317510484,0.0,0.0,0.0,0.0,0.0,-0.02663403249252414,-1.5260176532359335,0.0,0.0,11.7886527127574,0.005043324175441922,0.034642959572004466,-0.061818945907309485,-3.541964694436367,0.0,0.0,0.03518491341478534,2.0159470412004334,-10.647987294639314,0.0,-37.16904404533642,11.781356418392964,0.0,-0.41469714828211013,0.0,-81.75902409981742,0.0,0.0,-2.3887717904159667,0.0,0.37591338546350206,0.6108652381980153,1.0,0.14,0.14,0.75,0.08726646259971647,5.0,0.184,0.175,0.174,0.0,0.0,0.0,-0.17051252459077215,0.0,0.042448157311670745,0.0,7.360632183547179,0.0,-0.5504903476193833,0.0,0.1271923063582439,0.0,-6.0765789507462395,0.0,0.017410884981751747,0.0,-0.019170927957161802,0.5519987598862661,-0.4552528024243854,0.18429789393984045,0.0,0.0,0.0,0.4475931957927516,0.18429789393984045,0.0,0.0,-0.3690606605959238,0.0,0.0,-0.01418432024451468,0.0,2.1962558356470026,0.0,5.333914279978739,0.0,-0.6157272104957251,0.0,85.12056946409648,-2.5215875649786295,0.0,-5.188041768713872,0.0,-0.6157272104957251,0.0
sim_raptor_glider_3dof,raptor_glider_3dof,0.022,-14.738575224088523,0.0,-0.0054625073971416825,11.755448070808422,0.0,-0.765514767106323,0.0,0.0,0.0,-141.51615436585485,-2.469922838444715,-0.10483234777566766,0.0,0.0,0.0,0.0,0.0,-0.029063442002263313,-1.6652125648529346,0.0,0.0,11.780346862640815,0.0054625073971416825,0.0346185514197914,-0.06502818294358514,-3.725840432072035,0.0,0.0,0.035964740941321835,2.0606278672191007,-10.72432021124724,0.0,-37.26294417077745,11.7727289648283,0.0,-0.4235857939356341,0.0,-80.54447460129936,0.0,0.0,-2.469922838444715,0.0,0.37591338546350206,0.6108652381980153,1.0,0.14,0.14,0.75,0.08726646259971647,5.0,0.184,0.175,0.174,0.0,0.0,0.0,-0.17175828481834976,0.0,0.04201609613247404,0.0,7.359263580867487,0.0,-0.5509920172837415,0.0,0.12344477903375674,0.0,-6.073391927453729,0.0,0.01852679588095138,0.0,-0.018967755355501117,0.5374866279639819,-0.4532273582160513,0.18319944375240624,0.0,0.0,0.0,0.42947818489245915,0.18319944375240624,0.0,0.0,-0.36409104735570463,0.0,0.0,-0.014676528688593473,0.0,2.180090464430027,0.0,5.110830450064991,0.0,-0.6065804382223855,0.0,85.00066608812632,-2.507596488491775,0.0,-4.958360835327937,0.0,-0.6065804382223855,0.0
sim_raptor_glider_3dof,raptor_glider_3dof,0.023,-14.726806779851554,0.0,-0.005890219544755561,11.744685669395842,0.0,-0.8028189131224923,0.0,0.0,0.0,-146.0965266330611,-2.549865415474502,-0.10830128268356758,0.0,0.0,0.0,0.0,0.0,-0.03157346879838983,-1.8090265067357278,0.0,0.0,11.772092408751268,0.005890219544755561,0.03459429430412668,-0.06824976250624666,-3.9104233443781413,0.0,0.0,0.036676293707856834,2.101396837642414,-10.800438960302417,0.0,-37.34209033902481,11.764175678130405,0.0,-0.43165992895366617,0.0,-79.34369051954397,0.0,0.0,-2.549865415474502,0.0,0.37591338546350206,0.6108652381980153,1.0,0.14,0.14,0.75,0.08726646259971647,5.0,0.184,0.175,0.174,0.0,0.0,0.0,-0.17300846017356988,0.0,0.04158186732220528,0.0,7.357815937765246,0.0,-0.5514796578044456,0.0,0.11969506109808056,0.0,-6.0701484321424335,0.0,0.019613967521786894,0.0,-0.018762801447320582,0.5228890870369689,-0.4512028933497452,0.1821024638050759,0.0,0.0,0.0,0.4113285605036287,0.1821024638050759,0.0,0.0,-0.35916621277045113,0.0,0.0,-0.015162179575699463,0.0,2.1640004929869936,0.0,4.887991019507952,0.0,-0.5975373333026857,0.0,84.88158839533325,-2.492307756127781,0.0,-4.729033346169558,0.0,-0.5975373333026857,0.0
sim_raptor_glider_3dof,raptor_glider_3dof,0.024,-14.71504684909792,0.0,-0.006325577873698557,11.733847293100212,0.0,-0.8401947133931087,0.0,0.0,0.0,-150.6085176170434,-2.6286145139652914,-0.11172386831572777,0.0,0.0,0.0,0.0,0.0,-0.03416280822029089,-1.9573847273375033,0.0,0.0,11.763889639664633,0.006325577873698557,0.03457018907303956,-0.07148236627257484,-4.09563789702684,0.0,0.0,0.03731955805228395,2.1382531696893374,-10.876264843116557,0.0,-37.40716488721526,11.75569851521642,0.0,-0.43892126121590036,0.0,-78.15682643237125,0.0,0.0,-2.6286145139652914,0.0,0.37591338546350206,0.6108652381980153,1.0,0.14,0.14,0.75,0.08726646259971647,5.0,0.184,0.175,0.174,0.0,0.0,0.0,-0.17426407973379585,0.0,0.0411437038499205,0.0,7.356291569405651,0.0,-0.5519545068153318,0.0,0.11594246170524997,0.0,-6.066846214166883,0.0,0.020676381690229503,0.0,-0.01855324181001094,0.5082173663567596,-0.4491807931717283,0.18100838768907698,0.0,0.0,0.0,0.3931550972738271,0.18100838768907698,0.0,0.0,-0.354287179318459,0.0,0.0,-0.01564134156420189,0.0,2.1480025454796783,0.0,4.665519429757634,0.0,-0.5885990598621879,0.0,84.76333898520612,-2.4757354502685187,0.0,-4.500191158730583,0.0,-0.5885990598621879,0.0
sim_raptor_glider_3dof,raptor_glider_3dof,0.025,-14.703295356636112,0.0,-0.006767792172054284,11.722933268432886,0.0,-0.8776288372327967,0.0,0.0,0.0,-155.05290861770857,-2.7061837701729043,-0.11510053923708238,0.0,0.0,0.0,0.0,0.0,-0.036830306183282736,-2.11022110247668,0.0,0.0,11.755738887542252,0.006767792172054284,0.034546236702642605,-0.07472487520249065,-4.281419973744497,0.0,0.0,0.03789456901920791,2.1711988712678165,-10.951728451733683,0.0,-37.45879817166297,11.747299286664205,0.0,-0.44537204853001783,0.0,-76.98402002903791,0.0,0.0,-2.7061837701729043,0.0,0.37591338546350206,0.6108652381980153,1.0,0.14,0.14,0.75,0.08726646259971647,5.0,0.184,0.175,0.174,0.0,0.0,0.0,-0.17552628005831314,0.0,0.0406997753980397,0.0,7.354692856942151,0.0,-0.5524178861583968,0.0,0.11218599511632711,0.0,-6.063482827110378,0.0,0.02171822710620718,0.0,-0.01833618527279367,0.4934819283144916,-0.4471623139060485,0.17991860431823453,0.0,0.0,0.0,0.3749678523884893,0.17991860431823453,0.0,0.0,-0.3494548938783214,0.0,0.0,-0.016114075493191535,0.0,2.1321126375498953,0.0,4.443529893875549,0.0,-0.5797666548386845,0.0,84.64592108308041,-2.4578960472974503,0.0,-4.271956137139658,0.0,-0.5797666548386845,0.0
sim_raptor_glider_3dof,raptor_glider_3dof,0.026000000000000002,-14.691552223909538,0.0,-0.007216052850970175,11.711943982521577,0.0,-0.915108093396405,0.0,0.0,0.0,-159.4305080774832,-2.7825872940794967,-0.11843175319945146,0.0,0.0,0.0,0.0,0.0,-0.03957478835567016,-2.267468347903375,0.0,0.0,11.747640387427722,0.007216052850970175,0.03452243788365136,-0.07797617856486504,-4.467705934325243,0.0,0.0,0.03840139020919488,2.200237586421868,-11.026768489525429,0.0,-37.497624014357555,11.738979524377497,0.0,-0.45101485404457314,0.0,-75.82540120173661,0.0,0.0,-2.7825872940794967,0.0,0.37591338546350206,0.6108652381980153,1.0,0.14,0.14,0.75,0.08726646259971647,5.0,0.184,0.175,0.174,0.0,0.0,0.0,-0.1767962258890945,0.0,0.04024822052921695,0.0,7.353022318220845,0.0,-0.552871166155304,0.0,0.10842461195833944,0.0,-6.060055827388082,0.0,0.022743816011872465,0.0,-0.01810869564535491,0.47869331098524953,-0.44514870191801614,0.17883452050923923,0.0,0.0,0.0,0.35677692556062696,0.17883452050923923,0.0,0.0,-0.3446702768606389,0.0,0.0,-0.016580445447923208,0.0,2.116346871005293,0.0,4.222136352126221,0.0,-0.5710410964502785,0.0,84.52933651331894,-2.4388086631179196,0.0,-4.044449500124905,0.0,-0.5710410964502785,0.0
sim_raptor_glider_3dof,raptor_glider_3dof,0.027,-14.679817370698744,0.0,-0.00766955353196071,11.700879889005098,0.0,-0.9526200143962508,0.0,0.0,0.0,-163.74213265899863,-2.8578393391368637,-0.12171797672185188,0.0,0.0,0.0,0.0,0.0,-0.04239509674284046,-2.4290601154135816,0.0,0.0,11.739594331524078,0.00766955353196071,0.03449879318088712,-0.08123522360197193,-4.654435460194525,0.0,0.0,0.03884012685913146,2.225375344780943,-11.101332173350796,0.0,-37.52426569872169,11.730740530114742,0.0,-0.4558526997567812,0.0,-74.68108869013412,0.0,0.0,-2.8578393391368637,0.0,0.37591338546350206,0.6108652381980153,1.0,0.14,0.14,0.75,0.08726646259971647,5.0,0.184,0.175,0.174,0.0,0.0,0.0,-0.1780751245329767,0.0,0.03978714606040556,0.0,7.351282572125626,0.0,-0.5533157668884593,0.0,0.10465714973479186,0.0,-6.056562730766006,0.0,0.023757583452136383,0.0,-0.017867797607026104,0.46386188181181154,-0.4431411616920676,0.17775754158026952,0.0,0.0,0.0,0.3385922280732476,0.17775754158026952,0.0,0.0,-0.33993420308517386,0.0,0.0,-0.017040516741059265,0.0,2.100721225333371,0.0,4.001449805859261,0.0,-0.5624232789254001,0.0,84.41358648487068,-2.4184948055089173,0.0,-3.817789031770043,0.0,-0.5624232789254001,0.0
sim_raptor_glider_3dof,raptor_glider_3dof,0.028,-14.668090715626422,0.0,-0.008127491010637396,11.689741489764076,0.0,-0.9901527498413074,0.0,0.0,0.0,-167.9886055343034,-2.931954272407562,-0.12495968407198231,0.0,0.0,0.0,0.0,0.0,-0.04529008761139152,-2.59493087391047,0.0,0.0,11.731600852634305,0.008127491010637396,0.034475302984614015,-0.0845010067905673,-4.841551053705816,0.0,0.0,0.039210919179175775,2.2466201797953462,-11.175374924688786,0.0,-37.539336546739136,11.722583362321233,0.0,-0.4598889854729936,0.0,-73.55119116951894,0.0,0.0,-2.931954272407562,0.0,0.37591338546350206,0.6108652381980153,1.0,0.14,0.14,0.75,0.08726646259971647,5.0,0.184,0.175,0.174,0.0,0.0,0.0,-0.1793642178550393,0.0,0.03931463396862979,0.0,7.349476330018433,0.0,-0.5537531510141942,0.0,0.1008823508298443,0.0,-6.053001027375106,0.0,0.024764067873882165,0.0,-0.01761048580436209,0.4489978570065775,-0.4411408605443568,0.1766890718584605,0.0,0.0,0.0,0.3204235033654713,0.1766890718584605,0.0,0.0,-0.33524750709481194,0.0,0.0,-0.017494355770077526,0.0,2.085251560099625,0.0,3.7815785846714918,0.0,-0.5539140206976472,0.0,84.29867135553917,-2.3969782526935326,0.0,-3.592089352599434,0.0,-0.5539140206976472,0.0
sim_raptor_glider_3dof,raptor_glider_3dof,0.029,-14.656372176449192,0.0,-0.008589065559026991,11.678529324240376,0.0,-1.0276950267766467,0.0,0.0,0.0,-172.17075544743204,-3.004946558203652,-0.12815735671662268,0.0,0.0,0.0,0.0,0.0,-0.048258630977350135,-2.765015880081458,0.0,0.0,11.723660019175062,0.008589065559026991,0.03445196749588604,-0.0877725707365332,-5.028997860216828,0.0,0.0,0.03951393975918307,2.2639819801353704,-11.248860158562517,0.0,-37.54343959234073,11.714508833253886,0.0,-0.46312745634491886,0.0,-72.43580765014775,0.0,0.0,-3.004946558203652,0.0,0.37591338546350206,0.6108652381980153,1.0,0.14,0.14,0.75,0.08726646259971647,5.0,0.184,0.175,0.174,0.0,0.0,0.0,-0.18066477672203932,0.0,0.03882874720948931,0.0,7.347606385328746,0.0,-0.5541848177568588,0.0,0.09709887351285268,0.0,-6.049368190677515,0.0,0.02576789455240545,0.0,-0.017333733101178785,0.434111296404881,-0.4391489298437532,0.175630513302595,0.0,0.0,0.0,0.3022803226495735,0.175630513302595,0.0,0.0,-0.33061098464655436,0.0,0.0,-0.01794202994032718,0.0,2.06995359939425,0.0,3.5626283276671087,0.0,-0.5455140674132627,0.0,84.18459056338482,-2.374284922917646,0.0,-3.367461894297736,0.0,-0.5455140674132627,0.0
sim_raptor_glider_3dof,raptor_glider_3dof,0.03,-14.644661670233,0.0,-0.009053481366564768,11.667243964535112,0.0,-1.065236169835315,0.0,0.0,0.0,-176.28941653900725,-3.076830755025423,-0.13131148322265787,0.0,0.0,0.0,0.0,0.0,-0.05129961136814552,-2.939251222056077,0.0,0.0,11.715771840792497,0.009053481366564768,0.034428786743050034,-0.09104900610903428,-5.216723778908514,0.0,0.0,0.03974939474088876,2.2774725568524365,-11.321759150729006,0.0,-37.537166465278915,11.706517515382131,0.0,-0.4655722151909491,0.0,-71.3350272832912,0.0,0.0,-3.076830755025423,0.0,0.37591338546350206,0.6108652381980153,1.0,0.14,0.14,0.75,0.08726646259971647,5.0,0.184,0.175,0.174,0.0,0.0,0.0,-0.18197809772096096,0.0,0.03832753444813563,0.0,7.3456756008602175,0.0,-0.5546122978839074,0.0,0.09330529667555719,0.0,-6.045661680386524,0.0,0.026773761472955338,0.0,-0.01703449789618679,0.4192120763530287,-0.43716646322701413,0.1745832625478847,0.0,0.0,0.0,0.2841720581740266,0.1745832625478847,0.0,0.0,-0.32602539090306243,0.0,0.0,-0.018383607651172102,0.0,2.0548429016057117,0.0,3.3447017088102813,0.0,-0.537224090470466,0.0,84.07134271051856,-2.3504427240108354,0.0,-3.144014610707514,0.0,-0.537224090470466,0.0
sim_raptor_glider_3dof,raptor_glider_3dof,0.03,-14.644661670233,0.0,-0.009053481366564768,11.667243964535112,0.0,-1.065236169835315,0.0,0.0,0.0,-176.28941653900725,-3.076830755025423,-0.13131148322265787,0.0,0.0,0.0,0.0,0.0,-0.05129961136814552,-2.939251222056077,0.0,0.0,11.715771840792497,0.009053481366564768,0.034428786743050034,-0.09104900610903428,-5.216723778908514,0.0,0.0,0.03974939474088876,2.2774725568524365,-10.340616745198847,0.0,-36.13629371491522,11.706517515382131,0.0,-0.4655722151909491,0.0,-54.28923500827113,0.0,0.0,-3.076830755025423,0.0,0.32326654271385025,0.6108652381980153,1.0,0.14,0.14,0.75,0.08726646259971647,5.0,0.184,0.175,0.174,0.0,0.0,0.0,-0.07943332413357788,0.0,0.02501134822946625,0.0,7.418089865998183,0.0,-0.5370374852650787,0.0,0.09107405700702928,0.0,-6.237501778800545,0.0,-0.00016175709942134123,0.0,-0.011853012381561655,0.3858638636614749,-0.3627880951727831,0.15473028666364255,0.0,0.0,0.0,0.24949261004382847,0.15473028666364255,0.0,0.0,-0.24812030974782578,0.0,0.0,-0.018383607651172102,0.0,1.8211736140914225,0.0,2.936525021183106,0.0,-0.4088522288472899,0.0,84.07134271051856,-2.080628562490042,0.0,-2.758774604357499,0.0,-0.4088522288472899,0.0
sim_raptor_glider_3dof,raptor_glider_3dof,0.031,-14.632958674449277,0.0,-0.009519197783232384,11.656870858038976,0.0,-1.1012987509143337,0.0,0.0,0.0,-179.37211395843187,-3.130633974837115,-0.13368746955777802,0.0,0.0,0.0,0.0,0.0,-0.05440349479313679,-3.1170906424086877,0.0,0.0,11.708778635697398,0.009519197783232384,0.034408236021327095,-0.09419676600794594,-5.397077136036678,0.0,0.0,0.03979327121480915,2.2799864936279906,-10.405236620780348,0.0,-35.9890778639609,11.699509407506545,0.0,-0.4658076463838721,0.0,-53.32227822032356,0.0,0.0,-3.130633974837115,0.0,0.32326654271385025,0.6108652381980153,1.0,0.14,0.14,0.75,0.08726646259971647,5.0,0.184,0.175,0.174,0.0,0.0,0.0,-0.08004406372270334,0.0,0.024783754369395703,0.0,7.417633776413202,0.0,-0.53726591660796,0.0,0.08739126299067601,0.0,-6.23655406974315,0.0,0.0007882778791704694,0.0,-0.011617189657287969,0.3716131459921595,-0.36071705961347356,0.1540140692156633,0.0,0.0,0.0,0.23278288943766146,0.1540140692156633,0.0,0.0,-0.2439921810852822,0.0,0.0,-0.018716245738088926,0.0,1.810580316889664,0.0,2.736581923138154,0.0,-0.40157007727725674,0.0,83.97100742207142,-2.0599497126269046,0.0,-2.554151304720049,0.0,-0.40157007727725674,0.0
sim_raptor_glider_3dof,raptor_glider_3dof,0.032,-14.621262639422866,0.0,-0.009984802884793652,11.646433814964729,0.0,-1.1372116471342129,0.0,0.0,0.0,-182.39986716675935,-3.1834782372602515,-0.13602487953528852,0.0,0.0,0.0,0.0,0.0,-0.05756060406456692,-3.2979796791232565,0.0,0.0,11.701823402219485,0.009984802884793652,0.03438779688565484,-0.09733605698901039,-5.576945259915155,0.0,0.0,0.03977545292444347,2.2789655807918985,-10.468722326816074,0.0,-35.83609219782679,11.692567973232983,0.0,-0.46532260643336565,0.0,-52.36761422121984,0.0,0.0,-3.1834782372602515,0.0,0.32326654271385025,0.6108652381980153,1.0,0.14,0.14,0.75,0.08726646259971647,5.0,0.184,0.175,0.174,0.0,0.0,0.0,-0.08065897430799043,0.0,0.02454882172899499,0.0,7.417127713240418,0.0,-0.5374860178843676,0.0,0.0837140000173718,0.0,-6.235543941744971,0.0,0.0017404562581594374,0.0,-0.011372911786169369,0.35742228333659043,-0.35865523958302525,0.153322260046764,0.0,0.0,0.0,0.2161743368197975,0.153322260046764,0.0,0.0,-0.23990876369122516,0.0,0.0,-0.019043483134940396,0.0,1.8003067101127672,0.0,2.538314456179795,0.0,-0.39438050270000663,0.0,83.8712763543954,-2.0384646810767717,0.0,-2.3513413773697263,0.0,-0.39438050270000663,0.0
sim_raptor_glider_3dof,raptor_glider_3dof,0.033,-14.609573511578057,0.0,-0.010449550372594232,11.635933879864249,0.0,-1.1729687432269829,0.0,0.0,0.0,-185.37328890490576,-3.235374236641279,-0.13832408722932305,0.0,0.0,0.0,0.0,0.0,-0.060770063614143444,-3.4818681658319495,0.0,0.0,11.694905426259767,0.010449550372594232,0.03436746723753201,-0.10046633556640587,-5.7562970111001315,0.0,0.0,0.03969627195226243,2.274428845268182,-10.531067029696679,0.0,-35.67772759066442,11.685692255252373,0.0,-0.46412223033901007,0.0,-51.42524658164974,0.0,0.0,-3.235374236641279,0.0,0.32326654271385025,0.6108652381980153,1.0,0.14,0.14,0.75,0.08726646259971647,5.0,0.184,0.175,0.174,0.0,0.0,0.0,-0.08127855292690997,0.0,0.024305837975177394,0.0,7.416573165843951,0.0,-0.5376984191402079,0.0,0.080042039239811,0.0,-6.234470953258528,0.0,0.002696635088078953,0.0,-0.011118902708794945,0.34329791309485275,-0.35660320408001706,0.1526554834575284,0.0,0.0,0.0,0.19967321319997297,0.1526554834575284,0.0,0.0,-0.23587035352460714,0.0,0.0,-0.01936537221210523,0.0,1.790358678283983,0.0,2.341787284522138,0.0,-0.3872835320064042,0.0,83.772138306548,-2.0162059999937525,0.0,-2.1504104837089897,0.0,-0.3872835320064042,0.0
sim_raptor_glider_3dof,raptor_glider_3dof,0.034,-14.597891231553023,0.0,-0.010912791128619337,11.625372093730848,0.0,-1.2085653076148375,0.0,0.0,0.0,-188.29302084588008,-3.2863331722869256,-0.1405854897071108,0.0,0.0,0.0,0.0,0.0,-0.06403101416384789,-3.66870686953088,0.0,0.0,11.688024059714547,0.010912791128619337,0.03434724517239574,-0.10358717511902545,-5.935107946002729,0.0,0.0,0.039556160955177555,2.266401076471849,-10.592270083482813,0.0,-35.51435039533295,11.67888118553428,0.0,-0.46221280233191525,0.0,-50.49515721430748,0.0,0.0,-3.2863331722869256,0.0,0.32326654271385025,0.6108652381980153,1.0,0.14,0.14,0.75,0.08726646259971647,5.0,0.184,0.175,0.174,0.0,0.0,0.0,-0.0819033045982494,0.0,0.02405410113498649,0.0,7.415971616792311,0.0,-0.5379037523167309,0.0,0.07637503344404206,0.0,-6.23333468294251,0.0,0.003658667574947902,0.0,-0.010853907237522253,0.3292460391851966,-0.3545614389554145,0.15201431739814675,0.0,0.0,0.0,0.18328511898908723,0.15201431739814675,0.0,0.0,-0.23187714170804374,0.0,0.0,-0.019681968558995514,0.0,1.7807415656642038,0.0,2.147057167626739,0.0,-0.3802790289809497,0.0,83.67358305187007,-1.993206207555294,0.0,-1.9514159010586636,0.0,-0.3802790289809497,0.0
sim_raptor_glider_3dof,raptor_glider_3dof,0.034999999999999996,-14.586215729448343,0.0,-0.011373756895510545,11.614749695754169,0.0,-1.2439960429191723,0.0,0.0,0.0,-191.15982728222593,-3.336368383618526,-0.14280957680622466,0.0,0.0,0.0,0.0,0.0,-0.06734244191838759,-3.858437704028488,0.0,0.0,11.68117873546245,0.011373756895510545,0.034327129023663486,-0.10669809832429103,-6.113350716053757,0.0,0.0,0.03935565640590344,2.2549130120252694,-10.652336474271838,0.0,-35.3463501223071,11.672133602860114,0.0,-0.45960179155861397,0.0,-49.577305925638356,0.0,0.0,-3.336368383618526,0.0,0.32326654271385025,0.6108652381980153,1.0,0.14,0.14,0.75,0.08726646259971647,5.0,0.184,0.175,0.174,0.0,0.0,0.0,-0.08253364334897322,0.0,0.02379300285996169,0.0,7.415324526849999,0.0,-0.5381026059618318,0.0,0.07271276390747447,0.0,-6.232134836222962,0.0,0.004628226690160944,0.0,-0.010576857429208636,0.3152727378104121,-0.3525304069442658,0.15139931348610675,0.0,0.0,0.0,0.16701562775197473,0.15139931348610675,0.0,0.0,-0.22792921154581935,0.0,0.0,-0.019993340752871458,0.0,1.77146041782644,0.0,1.95418041805195,0.0,-0.37336669092598246,0.0,83.57560154935194,-1.9694983337900411,0.0,-1.754414270183006,0.0,-0.37336669092598246,0.0
sim_raptor_glider_3dof,raptor_glider_3dof,0.036,-14.574546943750502,0.0,-0.011831763820351065,11.60406780132224,0.0,-1.279256605122554,0.0,0.0,0.0,-193.97439090245095,-3.385491785798304,-0.14499678065229643,0.0,0.0,0.0,0.0,0.0,-0.07070344803455789,-4.051009169402702,0.0,0.0,11.674368805183141,0.011831763820351065,0.03430711688613577,-0.1097987092432434,-6.291002635621909,0.0,0.0,0.03909526120868552,2.239993466219206,-10.711262211435493,0.0,-35.174056020453975,11.665448158580462,0.0,-0.4562962402923595,0.0,-48.67150759803048,0.0,0.0,-3.385491785798304,0.0,0.32326654271385025,0.6108652381980153,1.0,0.14,0.14,0.75,0.08726646259971647,5.0,0.184,0.175,0.174,0.0,0.0,0.0,-0.08316913980726101,0.0,0.023522848653860968,0.0,7.4146328240524495,0.0,-0.5382951432973161,0.0,0.06905557460506487,0.0,-6.230871808329325,0.0,0.005605379986937339,0.0,-0.010288668385721548,0.3013830228456981,-0.35050986854175026,0.15081078476428392,0.0,0.0,0.0,0.15086931835679507,0.15081078476428392,0.0,0.0,-0.22402597914066358,0.0,0.0,-0.0202995492913215,0.0,1.7625174535526722,0.0,1.763201532470379,0.0,-0.3665451237207676,0.0,83.47818362059607,-1.945112375457265,0.0,-1.559450308610917,0.0,-0.3665451237207676,0.0
sim_raptor_glider_3dof,raptor_glider_3dof,0.037,-14.562884812999425,0.0,-0.01228612074094231,11.593327554727344,0.0,-1.3143428442133567,0.0,0.0,0.0,-196.73739501241144,-3.43371530476325,-0.14714753600097652,0.0,0.0,0.0,0.0,0.0,-0.07411312626633096,-4.2463693415809285,0.0,0.0,11.66759362093723,0.01228612074094231,0.034287206855732555,-0.11288862749002473,-6.468041910202941,0.0,0.0,0.038775501223693776,2.2216725686220125,-10.769039174983154,0.0,-34.99777284826696,11.658823375976105,0.0,-0.4523034281632825,0.0,-47.777477636008804,0.0,0.0,-3.43371530476325,0.0,0.32326654271385025,0.6108652381980153,1.0,0.14,0.14,0.75,0.08726646259971647,5.0,0.184,0.175,0.174,0.0,0.0,0.0,-0.0838087820962546,0.0,0.023244570844453978,0.0,7.413897082630003,0.0,-0.5384812342301364,0.0,0.06540424270257408,0.0,-6.229546489856306,0.0,0.0065890835912859,0.0,-0.009991608113982153,0.287581337488754,-0.3484991339290702,0.1502488875062357,0.0,0.0,0.0,0.13485020118641733,0.1502488875062357,0.0,0.0,-0.22016639563504595,0.0,0.0,-0.020600655040136712,0.0,1.75391306109932,0.0,1.5741582721729799,0.0,-0.35981218407678234,0.0,83.38131911894372,-1.9200764963503412,0.0,-1.3665619414824954,0.0,-0.35981218407678234,0.0
sim_raptor_glider_3dof,raptor_glider_3dof,0.038,-14.55122927731591,0.0,-0.012736144059964696,11.582530107507209,0.0,-1.3492509175339997,0.0,0.0,0.0,-199.44950588071862,-3.4810505690943327,-0.1492622670638987,0.0,0.0,0.0,0.0,0.0,-0.07757058254001191,-4.444466993913876,0.0,0.0,11.660852530144496,0.012736144059964696,0.03426739701473595,-0.11596749812108416,-6.644448203029427,0.0,0.0,0.03839691558107225,2.199981209115551,-10.825662257533317,0.0,-34.817792289440554,11.652257653913226,0.0,-0.4476307592178534,0.0,-46.894932756582854,0.0,0.0,-3.4810505690943327,0.0,0.32326654271385025,0.6108652381980153,1.0,0.14,0.14,0.75,0.08726646259971647,5.0,0.184,0.175,0.174,0.0,0.0,0.0,-0.08445156661114098,0.0,0.022959099751545115,0.0,7.413117883622538,0.0,-0.5386607501538745,0.0,0.0617595220540895,0.0,-6.228159798396882,0.0,0.007578291622574127,0.0,-0.009687930689704275,0.2738719164676576,-0.34649750496606896,0.1497137602465244,0.0,0.0,0.0,0.11896208708265724,0.1497137602465244,0.0,0.0,-0.21634940980577555,0.0,0.0,-0.02089671738894582,0.0,1.7456474281906975,0.0,1.3870860034915151,0.0,-0.3531657385898255,0.0,83.28499785744704,-1.8944190315343128,0.0,-1.1757844435063156,0.0,-0.3531657385898255,0.0
sim_raptor_glider_3dof,raptor_glider_3dof,0.039,-14.53958027855331,0.0,-0.013181157999785848,11.57167661526354,0.0,-1.3839772822453147,0.0,0.0,0.0,-202.111372806412,-3.527508911197621,-0.1513413874862872,0.0,0.0,0.0,0.0,0.0,-0.08107493483153526,-4.645251590145162,0.0,0.0,11.654144876652605,0.013181157999785848,0.03424768543493081,-0.11903499108063251,-6.820202603297641,0.0,0.0,0.03796005624909725,2.1749510131524787,-10.881129308345859,0.0,-34.63439341699221,11.645749272365338,0.0,-0.44228575741302034,0.0,-46.023593353620605,0.0,0.0,-3.527508911197621,0.0,0.32326654271385025,0.6108652381980153,1.0,0.14,0.14,0.75,0.08726646259971647,5.0,0.184,0.175,0.174,0.0,0.0,0.0,-0.08509651125436873,0.0,0.022667349505757505,0.0,7.412295820530427,0.0,-0.5388335699499377,0.0,0.05812213404373569,0.0,-6.226712666115405,0.0,0.008571980281671143,0.0,-0.009379845446283378,0.260258795472744,-0.344504285856348,0.14920552715030347,0.0,0.0,0.0,0.10320859672144045,0.14920552715030347,0.0,0.0,-0.21257397904477987,0.0,0.0,-0.02118779424808021,0.0,1.7377205825241595,0.0,1.2020178222728646,0.0,-0.3466036815461168,0.0,83.18920962404388,-1.8681684686410112,0.0,-0.9871505664108204,0.0,-0.3466036815461168,0.0
sim_raptor_glider_3dof,raptor_glider_3dof,0.04,-14.527937760269044,0.0,-0.013620493974809042,11.56076823388884,0.0,-1.4185186522386937,0.0,0.0,0.0,-204.72363001905322,-3.57310140046718,-0.15338530176399034,0.0,0.0,0.0,0.0,0.0,-0.08462531168048548,-4.848673199270967,0.0,0.0,11.647469996717843,0.013620493974809042,0.03422807016579342,-0.12209079762191516,-6.995287421121606,0.0,0.0,0.03746548594142968,2.14661422185064,-10.935440916151698,0.0,-34.44784370792767,11.639296393642738,0.0,-0.43627604263530756,0.0,-45.16318386640672,0.0,0.0,-3.57310140046718,0.0,0.32326654271385025,0.6108652381980153,1.0,0.14,0.14,0.75,0.08726646259971647,5.0,0.184,0.175,0.174,0.0,0.0,0.0,-0.085742655648248,0.0,0.022370217357967705,0.0,7.411431498308089,0.0,-0.5389995796777305,0.0,0.0544927713314828,0.0,-6.2252060385718835,0.0,0.00956914777962545,0.0,-0.009069515208222297,0.24674582575506115,-0.34251878631890814,0.14872429890367644,0.0,0.0,0.0,0.08759317379310302,0.14872429890367644,0.0,0.0,-0.20883907137119728,0.0,0.0,-0.02147394224695865,0.0,1.7301324016194395,0.0,1.0189847204341673,0.0,-0.340123937697909,0.0,83.09394412408626,-1.8413534052793896,0.0,-0.8006907171172548,0.0,-0.340123937697909,0.0
sim_raptor_glider_3dof,raptor_glider_3dof,0.04,-14.527937760269044,0.0,-0.013620493974809042,11.56076823388884,0.0,-1.4185186522386937,0.0,0.0,0.0,-204.72363001905322,-3.57310140046718,-0.15338530176399034,0.0,0.0,0.0,0.0,0.0,-0.08462531168048548,-4.848673199270967,0.0,0.0,11.647469996717843,0.013620493974809042,0.03422807016579342,-0.12209079762191516,-6.995287421121606,0.0,0.0,0.03746548594142968,2.14661422185064,-10.15205469925451,0.0,-33.14071447136398,11.639296393642738,0.0,-0.43627604263530756,0.0,-28.232079047803552,0.0,0.0,-3.57310140046718,0.0,0.26835536919061803,0.6108652381980153,1.0,0.14,0.14,0.75,0.08726646259971647,5.0,0.184,0.175,0.174,0.0,0.0,0.0,-0.02423125117462007,0.0,0.01442372201805836,0.0,7.4686475852193,0.0,-0.5278743334957228,0.0,0.0527606175800136,0.0,-6.380273900584442,0.0,-0.005709270216374078,0.0,-0.006118035702678002,0.21504947081271952,-0.2675575855191624,0.1341066183643308,0.0,0.0,0.0,0.05466816390483309,0.1341066183643308,0.0,0.0,-0.1305479522582345,0.0,0.0,-0.02147394224695865,0.0,1.5600826994250212,0.0,0.6359630699624427,0.0,-0.21261578730900857,0.0,83.09394412408626,-1.625922195632663,0.0,-0.44123017706224066,0.0,-0.21261578730900857,0.0
sim_raptor_glider_3dof,raptor_glider_3dof,0.041,-14.516301356601756,0.0,-0.014052734566246729,11.550596775800361,0.0,-1.4514978743228097,0.0,0.0,0.0,-206.3206318743224,-3.6009743410020856,-0.15466189115003937,0.0,0.0,0.0,0.0,0.0,-0.08821246962122817,-5.054202209722361,0.0,0.0,11.641440287021762,0.014052734566246729,0.03421035083905422,-0.12500903938221114,-7.162490357585394,0.0,0.0,0.03679656976098297,2.108288147863033,-10.190523858590936,0.0,-32.820444033774734,11.633559993649468,0.0,-0.42826840935553556,0.0,-27.519888615921197,0.0,0.0,-3.6009743410020856,0.0,0.26835536919061803,0.6108652381980153,1.0,0.14,0.14,0.75,0.08726646259971647,5.0,0.184,0.175,0.174,0.0,0.0,0.0,-0.02446255767801683,0.0,0.014326396837913646,0.0,7.468457114802498,0.0,-0.5278923681383192,0.0,0.04930558368192586,0.0,-6.379967972548827,0.0,-0.004812179148542089,0.0,-0.005949929285271542,0.20228144055849195,-0.26552987814821777,0.1338913376895767,0.0,0.0,0.0,0.04056944236972701,0.1338913376895767,0.0,0.0,-0.12738657045266602,0.0,0.0,-0.02165266476100551,0.0,1.5559660570404306,0.0,0.47146198080943746,0.0,-0.20725228116650254,0.0,83.00793357029639,-1.60260776370377,0.0,-0.27377933765553775,0.0,-0.20725228116650254,0.0
sim_raptor_glider_3dof,raptor_glider_3dof,0.042,-14.504670646108114,0.0,-0.014476706179805258,11.5403878856757,0.0,-1.4841586321662248,0.0,0.0,0.0,-207.87730439951304,-3.6281434019419962,-0.15590926838367059,0.0,0.0,0.0,0.0,0.0,-0.0918270285070018,-5.261301178678701,0.0,0.0,11.6354320674947,0.014476706179805258,0.03419269466482911,-0.12790354471571086,-7.328333296973035,0.0,0.0,0.03607651620870905,2.0670321182943345,-10.227256222238077,0.0,-32.5010701573717,11.627861043887979,0.0,-0.419674804242936,0.0,-26.81823410890878,0.0,0.0,-3.6281434019419962,0.0,0.26835536919061803,0.6108652381980153,1.0,0.14,0.14,0.75,0.08726646259971647,5.0,0.184,0.175,0.174,0.0,0.0,0.0,-0.02469248405500344,0.0,0.0142282176399487,0.0,7.468224394591178,0.0,-0.5279008875488584,0.0,0.045877144585020325,0.0,-6.37960939381739,0.0,-0.003920407686828566,0.0,-0.005787106341299238,0.18966937875296586,-0.2635165574778598,0.13370432051186584,0.0,0.0,0.0,0.026658222544955007,0.13370432051186584,0.0,0.0,-0.12426692483494717,0.0,0.0,-0.021827297573713884,0.0,1.5521892794856227,0.0,0.309478460277197,0.0,-0.20196812107419201,0.0,82.922273862169,-1.5789857548020838,0.0,-0.10896083175955953,0.0,-0.20196812107419201,0.0
sim_raptor_glider_3dof,raptor_glider_3dof,0.043000000000000003,-14.493045617138028,0.0,-0.014891794726396887,11.53014311783156,0.0,-1.5165005312161268,0.0,0.0,0.0,-209.39407321980426,-3.6546160118476685,-0.15712771500402062,0.0,0.0,0.0,0.0,0.0,-0.09546840848988032,-5.4699368833010595,0.0,0.0,11.629444276441472,0.014891794726396887,0.03417509852314635,-0.13077423493979556,-7.492811731102553,0.0,0.0,0.03530582644991524,2.0228748478014937,-10.262278025142791,0.0,-32.18272688367868,11.622196970125936,0.0,-0.4105018470760101,0.0,-26.126994017840648,0.0,0.0,-3.6546160118476685,0.0,0.26835536919061803,0.6108652381980153,1.0,0.14,0.14,0.75,0.08726646259971647,5.0,0.184,0.175,0.174,0.0,0.0,0.0,-0.024920806812560124,0.0,0.014129420602193125,0.0,7.4679505593697035,0.0,-0.5279001147833212,0.0,0.042475528415932426,0.0,-6.379199473411018,0.0,-0.00303423679345673,0.0,-0.005630093536212128,0.17721507858897567,-0.2615175088817803,0.13354516857593793,0.0,0.0,0.0,0.012935997587029374,0.13354516857593793,0.0,0.0,-0.12118864372811083,0.0,0.0,-0.02199788010056289,0.0,1.54874641207545,0.0,0.15002100085811892,0.0,-0.19676239194835793,0.0,82.8369494002101,-1.5550850308976931,0.0,0.053219322552739395,0.0,-0.19676239194835793,0.0
sim_raptor_glider_3dof,raptor_glider_3dof,0.044,-14.481426239959688,0.0,-0.01529749275645838,11.519863967875098,0.0,-1.5485245307133086,0.0,0.0,0.0,-210.87146102522627,-3.6804012933810957,-0.15831758490101316,0.0,0.0,0.0,0.0,0.0,-0.09913599919093292,-5.6800743514528005,0.0,0.0,11.623475988729357,0.01529749275645838,0.034157559695346194,-0.13362114737398578,-7.655927798224968,0.0,0.0,0.03448514818305286,1.975853446772168,-10.295620445402665,0.0,-31.865536799957724,11.616565206939434,0.0,-0.40075784894626604,0.0,-25.44601911565918,0.0,0.0,-3.6804012933810957,0.0,0.26835536919061803,0.6108652381980153,1.0,0.14,0.14,0.75,0.08726646259971647,5.0,0.184,0.175,0.174,0.0,0.0,0.0,-0.02514732187311841,0.0,0.014030228128760994,0.0,7.467636723492557,0.0,-0.5278902717559069,0.0,0.03910082078161615,0.0,-6.378739497984894,0.0,-0.0021539010448919926,0.0,-0.005479381281175109,0.1649196913793201,-0.2595325475374908,0.13341347067545753,0.0,0.0,0.0,-0.000596458158083818,0.13341347067545753,0.0,0.0,-0.11815121905277703,0.0,0.0,-0.022164461886141844,0.0,1.5456314154407944,0.0,-0.006910130307403001,0.0,-0.1916339699600293,0.0,82.75194656214434,-1.530933015331675,0.0,0.21276354214442894,0.0,-0.1916339699600293,0.0
