name,vehicle,t,north,east,down,u,v,w,p_rad,p_deg,p_hat_div_b,q_deg,q_rad,q_hat_div_c,r_rad,r_deg,r_hat_div_b,phi_rad,phi_deg,theta_rad,theta_deg,psi_rad,psi_deg,speed,altitude,mach,alpha_rad,alpha_deg,beta_rad,beta_deg,gamma_rad,gamma_deg,u_dot,v_dot,w_dot,north_dot,east_dot,down_dot,p_rad_dot,q_rad_dot,r_rad_dot,phi_rad_dot,theta_rad_dot,psi_rad_dot,del_tail_alt_rad,del_tail_splay_rad,DIM_b,DIM_c_bar,DIM_S,DIM_wing_position,DIM_wing_incidence_rad,DIM_wing_incidence_deg,DIM_empennage_length,DIM_nose_length,DIM_tail_length,CDp,CDq,CDr,CYp,CYq,CYr,CLp,CLq,CLr,Clp,Clq,Clr,Cmp,Cmq,Cmr,Cnp,Cnq,Cnr,CL_0,Cm_0,CD_0,Cl_0,CY_0,Cn_0,CL,CD,CY,Cl,Cm,Cn,p_hat,q_hat,r_hat,drag_force_wind,side_force_wind,lift_force_wind,roll_moment_wind,pitch_moment_wind,yaw_moment_wind,qbar,X_total,Y_total,Z_total,L_total,M_total,N_total
sim_raptor_glider_3dof,raptor_glider_3dof,0.0,-15.0,0.0,0.0,12.0,0.0,0.0,0.0,0.0,0.0,0.0,0.0,0.0,0.0,0.0,0.0,0.0,0.0,0.0,0.0,0.0,0.0,12.0,-0.0,0.035264039495724236,0.0,0.0,0.0,0.0,0.0,0.0,-6.494562826622778,0.0,-21.690129085158667,12.0,0.0,0.0,0.0,-52.3302502880832,0.0,0.0,0.0,0.0,0.25152249010403305,0.3490658503988659,1.0,0.14,0.14,0.75,0.08726646259971647,5.0,0.184,0.175,0.174,0.0,0.0,0.0,-0.0018505751517819608,0.0,0.018031561300311718,0.0,6.069527449286317,0.0,-0.5148047816188706,0.0,0.1945849705503329,0.0,-3.6858353523651846,0.0,-0.046011067189805174,0.0,-0.016833097162273162,0.7014587510070976,-0.22797158737714865,0.14463916822677841,0.0,0.0,0.0,0.7014587510070976,0.14463916822677841,0.0,0.0,-0.22797158737714865,0.0,0.0,0.0,0.0,1.7860047773212642,0.0,8.661614248418633,0.0,-0.39409911491955457,0.0,88.20001620075907,-1.7860047773212642,0.0,-8.661614248418633,0.0,-0.39409911491955457,0.0
sim_raptor_glider_3dof,raptor_glider_3dof,0.001,-14.98800325103903,0.0,-0.000010769239043032369,11.993493606020408,0.0,-0.02177432605501233,0.0,0.0,0.0,-2.985436716892951,-0.05210570031971181,-0.0021722450588306484,0.0,0.0,0.0,0.0,0.0,-0.000026090648935668703,-0.00149488406877131,0.0,0.0,11.993513371774242,0.000010769239043032369,0.03524497743622863,-0.001815509546009765,-0.10402103465207169,0.0,0.0,0.0017894188970740963,0.10252615058330038,-6.518350745124844,0.0,-21.85705100116603,11.993494170044587,0.0,-0.021461408016449836,0.0,-51.88144307264969,0.0,0.0,-0.05210570031971181,0.0,0.25152249010403305,0.3490658503988659,1.0,0.14,0.14,0.75,0.08726646259971647,5.0,0.184,0.175,0.174,0.0,0.0,0.0,-0.0019038140665547589,0.0,0.017998545204123174,0.0,6.07073647368467,0.0,-0.5150703011376762,0.0,0.19250763132292922,0.0,-3.6872204787744964,0.0,-0.04546367986944927,0.0,-0.016603562397511457,0.6941153457908107,-0.2273822850630123,0.14404984079660554,0.0,0.0,0.0,0.6922691479676313,0.14404984079660554,0.0,0.0,-0.2262609485577951,0.0,0.0,-0.0003041143082362908,0.0,1.7768052896655324,0.0,8.538902071526088,0.0,-0.39071914778012484,0.0,88.1046885200922,-1.7923048111317565,0.0,-8.535662193906802,0.0,-0.39071914778012484,0.0
sim_raptor_glider_3dof,raptor_glider_3dof,0.002,-14.976013018518648,0.0,-0.00004277016976799999,11.986963058492066,0.0,-0.04371123171540779,0.0,0.0,0.0,-5.945208837596608,-0.10376346893472566,-0.00432815128158323,0.0,0.0,0.0,0.0,0.0,-0.00010406251483432503,-0.005962342905524345,0.0,0.0,11.987042756135958,0.00004277016976799999,0.03522596243244279,-0.003646548150238387,-0.20893181879989683,0.0,0.0,0.003542485635404062,0.20296947589437248,-6.542863030609173,0.0,-22.015328621868804,11.986967542289303,0.0,-0.04246383795989168,0.0,-51.43438723726506,0.0,0.0,-0.10376346893472566,0.0,0.25152249010403305,0.3490658503988659,1.0,0.14,0.14,0.75,0.08726646259971647,5.0,0.184,0.175,0.174,0.0,0.0,0.0,-0.0019577541832879563,0.0,0.01796678117147743,0.0,6.071939973187891,0.0,-0.5153343174196874,0.0,0.19041187676437502,0.0,-3.6886048603936237,0.0,-0.04491251160499718,0.0,-0.016374494565787195,0.6866805298950073,-0.22678859634926676,0.14346194865008002,0.0,0.0,0.0,0.6830012914262763,0.14346194865008002,0.0,0.0,-0.22455351876973942,0.0,0.0,-0.0006059411794216524,0.0,1.7676449745254634,0.0,8.415498407377761,0.0,-0.3873523702838432,0.0,88.00964751371858,-1.7983206742144133,0.0,-8.408996667453007,0.0,-0.3873523702838432,0.0
sim_raptor_glider_3dof,raptor_glider_3dof,0.003,-14.964029321990257,0.0,-0.00009554315976536751,11.980407651753016,0.0,-0.06580216133887729,0.0,0.0,0.0,-8.879417207520822,-0.15497506592947893,-0.00646775689499841,0.0,0.0,0.0,0.0,0.0,-0.00023346888993181376,-0.013376782040697286,0.0,0.0,11.98058835895045,0.00009554315976536751,0.03520699508933689,-0.005492425764744626,-0.31469281560878065,0.0,0.0,0.005258956874812812,0.30131603356808334,-6.568061696569193,0.0,-22.165132441128037,11.980422687998072,0.0,-0.0630051070955391,0.0,-50.98910379475252,0.0,0.0,-0.15497506592947893,0.0,0.25152249010403305,0.3490658503988659,1.0,0.14,0.14,0.75,0.08726646259971647,5.0,0.184,0.175,0.174,0.0,0.0,0.0,-0.002012356870489217,0.0,0.017936204317612243,0.0,6.073137137291444,0.0,-0.5155966252474216,0.0,0.18829842382345233,0.0,-3.6899877050751466,0.0,-0.044357727784226746,0.0,-0.016146032728505545,0.6791572028712386,-0.22619064234615657,0.14287590606832778,0.0,0.0,0.0,0.6736580624280804,0.14287590606832778,0.0,0.0,-0.2228494102670823,0.0,0.0,-0.0009054859652997775,0.0,1.7585288556497607,0.0,8.291440972940192,0.0,-0.3839989406782813,0.0,87.91489582219174,-1.8040422262351634,0.0,-8.281657369745789,0.0,-0.3839989406782813,0.0
sim_raptor_glider_3dof,raptor_glider_3dof,0.004,-14.95205217839055,0.0,-0.00016862599819040738,11.973826718835362,0.0,-0.08803872819621052,0.0,0.0,0.0,-11.788163927545146,-0.20574227330048905,-0.008591101118814778,0.0,0.0,0.0,0.0,0.0,-0.00041386450906665077,-0.02371268965977288,0.0,0.0,11.97415037112688,0.00016862599819040738,0.035188075967929944,-0.0073524649919192685,-0.421265213054663,0.0,0.0,0.006938600482852618,0.3975525233948901,-6.5939086317177695,0.0,-22.306633399550567,11.973862129477899,0.0,-0.08308317888123269,0.0,-50.54561115234719,0.0,0.0,-0.20574227330048905,0.0,0.25152249010403305,0.3490658503988659,1.0,0.14,0.14,0.75,0.08726646259971647,5.0,0.184,0.175,0.174,0.0,0.0,0.0,-0.0020675823962234803,0.0,0.017906742106062835,0.0,6.074327186360261,0.0,-0.5158570256119482,0.0,0.18616797313991956,0.0,-3.6913682487438204,0.0,-0.043799485754624064,0.0,-0.015918310818271154,0.6715482859745486,-0.22558853359983744,0.14229211647138093,0.0,0.0,0.0,0.6642423637023985,0.14229211647138093,0.0,0.0,-0.22114872509499378,0.0,0.0,-0.0012027541566340689,0.0,1.7494617963367338,0.0,8.16676754568818,0.0,-0.3806589975883267,0.0,87.82043586113124,-1.8094598411758478,0.0,-8.153684063374014,0.0,-0.3806589975883267,0.0
sim_raptor_glider_3dof,raptor_glider_3dof,0.005,-14.940081602170762,0.0,-0.00026155451510954464,11.967219630726595,0.0,-0.11041271584923776,0.0,0.0,0.0,-14.671552078638495,-0.25606689015005973,-0.010698223983391427,0.0,0.0,0.0,0.0,0.0,-0.0006448058889869569,-0.03694465604413372,0.0,0.0,11.967728968265833,0.00026155451510954464,0.03516920558425411,-0.009226001234602111,-0.5286109325251879,0.0,0.0,0.008581195345615154,0.49166627648105415,-6.620365694597379,0.0,-22.440002692447873,11.967288337657962,0.0,-0.1026961597378656,0.0,-50.10392520035988,0.0,0.0,-0.25606689015005973,0.0,0.25152249010403305,0.3490658503988659,1.0,0.14,0.14,0.75,0.08726646259971647,5.0,0.184,0.175,0.174,0.0,0.0,0.0,-0.002123390001601645,0.0,0.01787831467370808,0.0,6.0755093715259045,0.0,-0.5161153257441662,0.0,0.18402120902581626,0.0,-3.6927457553145318,0.0,-0.04323793496284551,0.0,-0.015691457656341116,0.6638567189948612,-0.2249823703766903,0.14171097235569438,0.0,0.0,0.0,0.6547571165850923,0.14171097235569438,0.0,0.0,-0.2194515554081201,0.0,0.0,-0.0014977513576747998,0.0,1.7404484995604654,0.0,8.04151592635141,0.0,-0.3773326606839103,0.0,87.72626981668523,-1.8145644107387207,0.0,-8.025116533276393,0.0,-0.3773326606839103,0.0
sim_raptor_glider_3dof,raptor_glider_3dof,0.006,-14.928117605336059,0.0,-0.00037386272090053917,11.960585796560418,0.0,-0.13291607922873708,0.0,0.0,0.0,-17.529685580032325,-0.305950730210936,-0.012789166243111324,0.0,0.0,0.0,0.0,0.0,-0.0009258513549621497,-0.05304737509579985,0.0,0.0,11.961324311337785,0.00037386272090053917,0.03515038441134851,-0.011112382820937504,-0.636692635973399,0.0,0.0,0.010186531465975354,0.5836452608775992,-6.647394807109708,0.0,-22.56541160847061,11.960703730763806,0.0,-0.12184229927704188,0.0,-49.664059401640166,0.0,0.0,-0.305950730210936,0.0,0.25152249010403305,0.3490658503988659,1.0,0.14,0.14,0.75,0.08726646259971647,5.0,0.184,0.175,0.174,0.0,0.0,0.0,-0.002179737975436446,0.0,0.017850835166239327,0.0,6.076682974523852,0.0,-0.5163713391332221,0.0,0.18185879947695247,0.0,-3.694119516556126,0.0,-0.042673217107501736,0.0,-0.015465596979971385,0.6560854570927929,-0.22437224296372105,0.14113285525592803,0.0,0.0,0.0,0.6452052578652911,0.14113285525592803,0.0,0.0,-0.2177579837570389,0.0,0.0,-0.0017904832740355855,0.0,1.7314935086953736,0.0,7.9157239024465325,0.0,-0.3740200313537521,0.0,87.6323996561108,-1.819347346989118,0.0,-7.895994547960455,0.0,-0.3740200313537521,0.0
sim_raptor_glider_3dof,raptor_glider_3dof,0.007,-14.91616019752863,0.0,-0.0005050829690492864,11.953924663067506,0.0,-0.15554094269502186,0.0,0.0,0.0,-20.362669042685717,-0.35539561928878755,-0.014863969285871312,0.0,0.0,0.0,0.0,0.0,-0.001256561032874929,-0.07199564388433291,0.0,0.0,11.954936546680122,0.0005050829690492864,0.03513161287925041,-0.01301097087733064,-0.7454737186386716,0.0,0.0,0.011754409844455712,0.6734780747543387,-6.674958038523339,0.0,-22.683031408915824,11.95411067240637,0.0,-0.1405199879310059,0.0,-49.22602489541542,0.0,0.0,-0.35539561928878755,0.0,0.25152249010403305,0.3490658503988659,1.0,0.14,0.14,0.75,0.08726646259971647,5.0,0.184,0.175,0.174,0.0,0.0,0.0,-0.0022365837228941806,0.0,0.017824210085322718,0.0,6.077847307336198,0.0,-0.5166248855025637,0.0,0.17968139647390238,0.0,-3.6954888517412634,0.0,-0.04210546637195328,0.0,-0.015240847505791622,0.6482374685948578,-0.22375823205659312,0.1405581357982141,0.0,0.0,0.0,0.6355897375967933,0.1405581357982141,0.0,0.0,-0.21606808346619444,0.0,0.0,-0.0020809557000219837,0.0,1.7226012091569984,0.0,7.789429222964457,0.0,-0.37072119348737353,0.0,87.53882712833868,-1.8238005829669242,0.0,-7.76635783227449,0.0,-0.37072119348737353,0.0
sim_raptor_glider_3dof,raptor_glider_3dof,0.008,-14.904209386040828,0.0,-0.0006547460622118062,11.94723571500246,0.0,-0.17827960268558196,0.0,0.0,0.0,-23.170607658159422,-0.4044033933226947,-0.016922675066259524,0.0,0.0,0.0,0.0,0.0,-0.0016364968888639348,-0.09376436491819319,0.0,0.0,11.948565807098527,0.0006547460622118062,0.03511289137823188,-0.014921139583578163,-0.8549183236646194,0.0,0.0,0.013284642694714228,0.7611539587464262,-6.703017691844104,0.0,-22.79303314410469,11.947511470813144,0.0,-0.15872775860717428,0.0,-48.789830579828724,0.0,0.0,-0.4044033933226947,0.0,0.25152249010403305,0.3490658503988659,1.0,0.14,0.14,0.75,0.08726646259971647,5.0,0.184,0.175,0.174,0.0,0.0,0.0,-0.0022938838467372585,0.0,0.017798339636520936,0.0,6.079001712037786,0.0,-0.5168757908302348,0.0,0.17748963584506863,0.0,-3.69685310754695,0.0,-0.041534809546336635,0.0,-0.015017322952742688,0.6403157311513662,-0.22314040902862844,0.13998717364952734,0.0,0.0,0.0,0.625913515253359,0.13998717364952734,0.0,0.0,-0.2143819188816892,0.0,0.0,-0.0023691745092763337,0.0,1.7137758290768785,0.0,7.6626695544215,0.0,-0.36743621409669014,0.0,87.44555378069835,-1.8279165741676622,0.0,-7.636246020818704,0.0,-0.36743621409669014,0.0
sim_raptor_glider_3dof,raptor_glider_3dof,0.009000000000000001,-14.892265175884312,0.0,-0.0008223814047762812,11.94051847467164,0.0,-0.20112452652884866,0.0,0.0,0.0,-25.953607067669953,-0.45297589609971145,-0.01896532602394425,0.0,0.0,0.0,0.0,0.0,-0.0020652227290607382,-0.11832854612967021,0.0,0.0,11.942212212113223,0.0008223814047762812,0.03509422025952341,-0.01684227610799168,-0.9649913383819456,0.0,0.0,0.014777053378930944,0.8466627922522755,-6.731536379371846,0.0,-22.895587520879417,11.940908377308121,0.0,-0.17646428499533437,0.0,-48.355483213001975,0.0,0.0,-0.45297589609971145,0.0,0.25152249010403305,0.3490658503988659,1.0,0.14,0.14,0.75,0.08726646259971647,5.0,0.184,0.175,0.174,0.0,0.0,0.0,-0.002351594219876334,0.0,0.017773118086774595,0.0,6.080145560408649,0.0,-0.5171238873178203,0.0,0.17528413749598915,0.0,-3.698211657694437,0.0,-0.040961366248226286,0.0,-0.0147951321086459,0.632323229159146,-0.22251883630637903,0.13942031757877546,0.0,0.0,0.0,0.6161795571634797,0.13942031757877546,0.0,0.0,-0.21269954573525734,0.0,0.0,-0.002655145643352195,0.0,1.705021441087714,0.0,7.535482451688253,0.0,-0.36416514407711786,0.0,87.35258096307747,-1.8316882976751754,0.0,-7.505698626672286,0.0,-0.36416514407711786,0.0
sim_raptor_glider_3dof,raptor_glider_3dof,0.01,-14.880327569850934,0.0,-0.0010075171512835355,11.9337725015735,0.0,-0.22406835201870348,0.0,0.0,0.0,-28.711773234820374,-0.5011149770335985,-0.020991965003614915,0.0,0.0,0.0,0.0,0.0,-0.0025423042068147385,-0.1456633012888389,0.0,0.0,11.935875868393078,0.0010075171512835355,0.03507559983658961,-0.01877378060561635,-1.0756583942063755,0.0,0.0,0.01623147639880161,0.9299950929175366,-6.760477094619351,0.0,-22.990864758682484,11.934303585054955,0.0,-0.19372838055550837,0.0,-47.92298751075413,0.0,0.0,-0.5011149770335985,0.0,0.25152249010403305,0.3490658503988659,1.0,0.14,0.14,0.75,0.08726646259971647,5.0,0.184,0.175,0.174,0.0,0.0,0.0,-0.0024096700603336747,0.0,0.017748434124109896,0.0,6.081278253557608,0.0,-0.5173690133613287,0.0,0.17306550556538727,0.0,-3.699563902612664,0.0,-0.040385249126245165,0.0,-0.014574378893539242,0.6242629508897343,-0.22189356772639449,0.13885790550983607,0.0,0.0,0.0,0.6063908336511047,0.13885790550983607,0.0,0.0,-0.211021011490275,0.0,0.0,-0.0029388751005060883,0.0,1.6963419640494881,0.0,7.407905325667301,0.0,-0.3609080189434894,0.0,87.25990983481243,-1.8351092507650795,0.0,-7.374755006832543,0.0,-0.3609080189434894,0.0
sim_raptor_glider_3dof,raptor_glider_3dof,0.01,-14.880327569850934,0.0,-0.0010075171512835355,11.9337725015735,0.0,-0.22406835201870348,0.0,0.0,0.0,-28.711773234820374,-0.5011149770335985,-0.020991965003614915,0.0,0.0,0.0,0.0,0.0,-0.0025423042068147385,-0.1456633012888389,0.0,0.0,11.935875868393078,0.0010075171512835355,0.03507559983658961,-0.01877378060561635,-1.0756583942063755,0.0,0.0,0.01623147639880161,0.9299950929175366,-4.800518537839693,0.0,-19.118512023591208,11.934303585054955,0.0,-0.19372838055550837,0.0,-2.4169714268485967,0.0,0.0,-0.5011149770335985,0.0,-0.06226774645919808,0.3490658503988659,1.0,0.14,0.14,0.75,0.08726646259971647,5.0,0.184,0.175,0.174,0.0,0.0,0.0,-0.011685336865035645,0.0,0.0021646449657383854,0.0,6.076876177518997,0.0,-0.5182108367229359,0.0,0.1710899443551739,0.0,-3.7693901001860723,0.0,-0.03614139806647348,0.0,-0.008759339165045753,0.5362675709879257,-0.021720503770158335,0.09638195603255435,0.0,0.0,0.0,0.5184083909009565,0.09638195603255435,0.0,0.0,-0.010642737060627338,0.0,0.0,-0.0029388751005060883,0.0,1.177439311034497,0.0,6.333077722667873,0.0,-0.018202211815596784,0.0,87.25990983481243,-1.2961206476506735,0.0,-6.309858004682441,0.0,-0.018202211815596784,0.0
sim_raptor_glider_3dof,raptor_glider_3dof,0.011,-14.868395595021646,0.0,-0.0012077621210881046,11.928963349573271,0.0,-0.24303757814864305,0.0,0.0,0.0,-28.846405216332858,-0.5034647483894755,-0.021098241094548786,0.0,0.0,0.0,0.0,0.0,-0.0030446025522041856,-0.17444287653605872,0.0,0.0,11.93143888472194,0.0012077621210881046,0.0350625610059712,-0.020370920085362686,-1.1671677456895606,0.0,0.0,0.0173263175331585,0.9927248691535019,-4.817645013727686,0.0,-18.82042971271946,11.929648012916143,0.0,-0.20671755556947619,0.0,-2.2829574726208146,0.0,0.0,-0.5034647483894755,0.0,-0.06226774645919808,0.3490658503988659,1.0,0.14,0.14,0.75,0.08726646259971647,5.0,0.184,0.175,0.174,0.0,0.0,0.0,-0.011761811118486681,0.0,0.0021532185898602754,0.0,6.077126511552579,0.0,-0.5184211930492517,0.0,0.16924226516432758,0.0,-3.768641544758487,0.0,-0.035652625167117896,0.0,-0.00858808529991971,0.5296122386383872,-0.021191745710615658,0.09604321053147956,0.0,0.0,0.0,0.5116619033959938,0.09604321053147956,0.0,0.0,-0.01006010660318103,0.0,0.0,-0.0029537537532368305,0.0,1.1724289125953469,0.0,6.246013702534535,0.0,-0.017192952726307355,0.0,87.19504675532524,-1.2994139031738825,0.0,-6.220835975620728,0.0,-0.017192952726307355,0.0
sim_raptor_glider_3dof,raptor_glider_3dof,0.012,-14.856468275266147,0.0,-0.0014208391590686553,11.924137608006006,0.0,-0.26171023669483057,0.0,0.0,0.0,-28.973435907058185,-0.5056818521937151,-0.021199021526407225,0.0,0.0,0.0,0.0,0.0,-0.0035491859862276545,-0.20335337771782133,0.0,0.0,11.927009262285917,0.0014208391590686553,0.03504954380759328,-0.021944415139413715,-1.257322371371394,0.0,0.0,0.01839522915318606,1.0539689936535726,-4.833670573872612,0.0,-18.525350442466888,11.924991361920991,0.0,-0.2193876951058162,0.0,-2.151666803404681,0.0,0.0,-0.5056818521937151,0.0,-0.06226774645919808,0.3490658503988659,1.0,0.14,0.14,0.75,0.08726646259971647,5.0,0.184,0.175,0.174,0.0,0.0,0.0,-0.011837009531889958,0.0,0.002141672875772413,0.0,6.077361340811689,0.0,-0.5186253688472051,0.0,0.16742091553056604,0.0,-3.767894731469474,0.0,-0.03517151407367183,0.0,-0.00842104558801767,0.5230426463359547,-0.02067119914718804,0.09571436198440772,0.0,0.0,0.0,0.5050058703916875,0.09571436198440772,0.0,0.0,-0.009488603734155955,0.0,0.0,-0.0029678630136970117,0.0,1.1675471559731776,0.0,6.1601849033024445,0.0,-0.016204202696440653,0.0,87.13031534414985,-1.3024368522884975,0.0,-6.1330826384532955,0.0,-0.016204202696440653,0.0
sim_raptor_glider_3dof,raptor_glider_3dof,0.013000000000000001,-14.844545612375265,0.0,-0.001646435686939838,11.91929635378271,0.0,-0.2800892635865355,0.0,0.0,0.0,-29.093017858254953,-0.5077689509680579,-0.02129441203781084,0.0,0.0,0.0,0.0,0.0,-0.004055924217212638,-0.23238733967118633,0.0,0.0,11.922586781603826,0.001646435686939838,0.03503654759647308,-0.023494484725548194,-1.3461348166084899,0.0,0.0,0.019438560508335555,1.1137474769373035,-4.84862639207963,0.0,-18.233298706598564,11.920334332310576,0.0,-0.2317433295956338,0.0,-2.023060184260064,0.0,0.0,-0.5077689509680579,0.0,-0.06226774645919808,0.3490658503988659,1.0,0.14,0.14,0.75,0.08726646259971647,5.0,0.184,0.175,0.174,0.0,0.0,0.0,-0.011910954666054956,0.0,0.002130022819365403,0.0,6.077581231103553,0.0,-0.5188235354873196,0.0,0.16562569708215963,0.0,-3.7671499680839533,0.0,-0.0346979729546401,0.0,-0.008258131236502653,0.5165589253341167,-0.020158777164763456,0.09539518004385723,0.0,0.0,0.0,0.4984403326841429,0.09539518004385723,0.0,0.0,-0.008928083056758662,0.0,0.0,-0.002981217685293518,0.0,1.1627909017487719,0.0,6.075588762904938,0.0,-0.015235666247662545,0.0,87.0657122758933,-1.305199687193152,0.0,-6.046595345620325,0.0,-0.015235666247662545,0.0
sim_raptor_glider_3dof,raptor_glider_3dof,0.014,-14.83262760641798,0.0,-0.0018842277792021815,11.914440682238677,0.0,-0.29817780612135575,0.0,0.0,0.0,-29.20530946207747,-0.5097288091771058,-0.021384522717244843,0.0,0.0,0.0,0.0,0.0,-0.004564683699966556,-0.2615371108202446,0.0,0.0,11.918171284834237,0.0018842277792021815,0.035023571908766746,-0.025021365658174758,-1.433618649866991,0.0,0.0,0.0204566819582082,1.1720815390467463,-4.86254359143367,0.0,-17.944294225623572,11.91567763844654,0.0,-0.24378923534975278,0.0,-1.8970967590914305,0.0,0.0,-0.5097288091771058,0.0,-0.06226774645919808,0.3490658503988659,1.0,0.14,0.14,0.75,0.08726646259971647,5.0,0.184,0.175,0.174,0.0,0.0,0.0,-0.01198366925215848,0.0,0.0021182825959366884,0.0,6.077786735640551,0.0,-0.519015862300577,0.0,0.16385638867209157,0.0,-3.7664075427286257,0.0,-0.03423190556980216,0.0,-0.008099252813405145,0.510161073326094,-0.019654387183680438,0.09508543395083803,0.0,0.0,0.0,0.4919651937334515,0.09508543395083803,0.0,0.0,-0.008378391311296871,0.0,0.0,-0.002993833180414278,0.0,1.158157027523772,0.0,5.992221129411684,0.0,-0.014287035692717564,0.0,87.00123513003602,-1.3077124151709678,0.0,-5.9613698093121394,0.0,-0.014287035692717564,0.0
sim_raptor_glider_3dof,raptor_glider_3dof,0.015,-14.820714256722793,0.0,-0.002133912826011873,11.909571599975138,0.0,-0.31597887504377337,0.0,0.0,0.0,-29.310458670825916,-0.511564009075633,-0.021469456289910514,0.0,0.0,0.0,0.0,0.0,-0.005075340513314991,-0.29079559100470975,0.0,0.0,11.913762560350458,0.002133912826011873,0.035010616122573265,-0.02652528366105733,-1.519786804165906,0.0,0.0,0.02144994314774234,1.228991213161196,-4.875452503331369,0.0,-17.65835414575681,11.911021903993596,0.0,-0.25552993365366766,0.0,-1.7737375709672316,0.0,0.0,-0.511564009075633,0.0,-0.06226774645919808,0.3490658503988659,1.0,0.14,0.14,0.75,0.08726646259971647,5.0,0.184,0.175,0.174,0.0,0.0,0.0,-0.012055174839367992,0.0,0.00210646579864791,0.0,6.077978391097368,0.0,-0.5192025129410694,0.0,0.16211277995937126,0.0,-3.7656677378808974,0.0,-0.0337732200808944,0.0,-0.007944323315586007,0.5038490780847614,-0.019157940537325474,0.09478489857093092,0.0,0.0,0.0,0.48558035328894544,0.09478489857093092,0.0,0.0,-0.007839383091219057,0.0,0.0,-0.003005723880587472,0.0,1.1536424787534538,0.0,5.9100777744993795,0.0,-0.013358017646954223,0.0,86.93688070469383,-1.309984763338735,0.0,-5.877401652876576,0.0,-0.013358017646954223,0.0
sim_raptor_glider_3dof,raptor_glider_3dof,0.016,-14.808805562045864,0.0,-0.0023951877440777963,11.904690101304823,0.0,-0.3334955414682607,0.0,0.0,0.0,-29.4086136527807,-0.5132771366879797,-0.021549315767531024,0.0,0.0,0.0,0.0,0.0,-0.0055877712023498305,-0.3201557067793868,0.0,0.0,11.909360422973363,0.0023951877440777963,0.03499767969371231,-0.02800646974338412,-1.604652515356748,0.0,0.0,0.02241869854103429,1.2844968085773611,-4.887383091810689,0.0,-17.375492319490846,11.90636773769109,0.0,-0.2669699967280965,0.0,-1.6529434522383055,0.0,0.0,-0.5132771366879797,0.0,-0.06226774645919808,0.3490658503988659,1.0,0.14,0.14,0.75,0.08726646259971647,5.0,0.184,0.175,0.174,0.0,0.0,0.0,-0.012125492604912514,0.0,0.002094585338359813,0.0,6.07815672020626,0.0,-0.5193836475703849,0.0,0.1603946525068146,0.0,-3.7649308226690006,0.0,-0.03332182401324497,0.0,-0.007793256455870692,0.49762285153879127,-0.01866934706270123,0.0944933510482478,0.0,0.0,0.0,0.4792856349560341,0.0944933510482478,0.0,0.0,-0.007310911423016576,0.0,0.0,-0.003016904207454344,0.0,1.1492442433901366,0.0,5.8291535944318955,0.0,-0.01244831713880668,0.0,86.87264618856914,-1.3120262337852484,0.0,-5.794685592877577,0.0,-0.01244831713880668,0.0
sim_raptor_glider_3dof,raptor_glider_3dof,0.017,-14.796901520532773,0.0,-0.0026677541318137097,11.899797150041724,0.0,-0.35073088929556967,0.0,0.0,0.0,-29.49992028133524,-0.5148707379851518,-0.021624202642043795,0.0,0.0,0.0,0.0,0.0,-0.006101854947615088,-0.34961053569936457,0.0,0.0,11.904964694145347,0.0026677541318137097,0.034984762097462006,-0.02946515625550446,-1.688229096133902,0.0,0.0,0.023363301307889373,1.3386185604345373,-4.898364830692023,0.0,-17.095719636656575,11.901715716066109,0.0,-0.2781139744641213,0.0,-1.534675526780126,0.0,0.0,-0.5148707379851518,0.0,-0.06226774645919808,0.3490658503988659,1.0,0.14,0.14,0.75,0.08726646259971647,5.0,0.184,0.175,0.174,0.0,0.0,0.0,-0.012194643193298266,0.0,0.002082653494392156,0.0,6.078322231418596,0.0,-0.5195594224302137,0.0,0.1587017844070964,0.0,-3.7641970548966133,0.0,-0.03287762542791666,0.0,-0.007645967091558127,0.4914822487026238,-0.01818851640971106,0.09421057166113415,0.0,0.0,0.0,0.4730808066708068,0.09421057166113415,0.0,0.0,-0.006792830023757423,0.0,0.0,-0.0030273883698861315,0.0,1.1449593582010014,0.0,5.749442840993565,0.0,-0.01155764139218113,0.0,86.80852887108675,-1.3138460894303794,0.0,-5.713215676575907,0.0,-0.01155764139218113,0.0
sim_raptor_glider_3dof,raptor_glider_3dof,0.018000000000000002,-14.78500212973289,0.0,-0.0029513183995683785,11.894893678988016,0.0,-0.36768801268338047,0.0,0.0,0.0,-29.584522076773478,-0.5163473178686478,-0.021694216840686318,0.0,0.0,0.0,0.0,0.0,-0.00661747360971831,-0.3791533088760613,0.0,0.0,11.900575200766562,0.0029513183995683785,0.03497186282513903,-0.03090157668873543,-1.7705299245643897,0.0,0.0,0.02428410307901712,1.3913766156883285,-4.908426685001957,0.0,-16.819044163205405,11.897066383511918,0.0,-0.28896639149004427,0.0,-1.4188952286082135,0.0,0.0,-0.5163473178686478,0.0,-0.06226774645919808,0.3490658503988659,1.0,0.14,0.14,0.75,0.08726646259971647,5.0,0.184,0.175,0.174,0.0,0.0,0.0,-0.012262646733472514,0.0,0.0020706819370672853,0.0,6.078475419118096,0.0,-0.5197299898982416,0.0,0.15703395057294808,0.0,-3.7634666812865185,0.0,-0.032440532950222443,0.0,-0.007502371254816166,0.485427070877241,-0.017715358111595032,0.09393634389437001,0.0,0.0,0.0,0.46696558394480286,0.09393634389437001,0.0,0.0,-0.006284993395681133,0.0,0.0,-0.003037190357696085,0.0,1.1407849091876,0.0,5.670939161452012,0.0,-0.010685699966648456,0.0,86.74452612523548,-1.3154533534391488,0.0,-5.632985323684584,0.0,-0.010685699966648456,0.0
sim_raptor_glider_3dof,raptor_glider_3dof,0.019000000000000003,-14.773107386701428,0.0,-0.0032455912031137805,11.889980593993357,0.0,-0.3843700116723576,0.0,0.0,0.0,-29.662560489575696,-0.517709345115077,-0.021759456923421,0.0,0.0,0.0,0.0,0.0,-0.007134511384400385,-0.4087773912141802,0.0,0.0,11.896191778523564,0.0032455912031137805,0.03495898139388041,-0.03231596530777885,-1.8515684230269147,0.0,0.0,0.025181453923378467,1.4427910318127344,-4.917597102022312,0.0,-16.545471387370768,11.892420256783382,0.0,-0.2995317469984366,0.0,-1.3055643049465864,0.0,0.0,-0.517709345115077,0.0,-0.06226774645919808,0.3490658503988659,1.0,0.14,0.14,0.75,0.08726646259971647,5.0,0.184,0.175,0.174,0.0,0.0,0.0,-0.012329522847260608,0.0,0.0020586817512730613,0.0,6.078616763824338,0.0,-0.5198954985255582,0.0,0.1553909232209987,0.0,-3.7627399378174546,0.0,-0.0320104558497913,0.0,-0.007362386197005314,0.4794570694768135,-0.017249781709783182,0.09367045453596459,0.0,0.0,0.0,0.4609396335291146,0.09367045453596459,0.0,0.0,-0.005787256847046722,0.0,0.0,-0.00304632396927894,0.0,1.1367180331670628,0.0,5.593635647756881,0.0,-0.009832204780552743,0.0,86.68063545591573,-1.3168568098153304,0.0,-5.553987377481761,0.0,-0.009832204780552743,0.0
sim_raptor_glider_3dof,raptor_glider_3dof,0.02,-14.761217287989117,0.0,-0.003550287695460349,11.885058772646858,0.0,-0.400779990591398,0.0,0.0,0.0,-29.734174782037385,-0.5189592503100197,-0.02182001999572837,0.0,0.0,0.0,0.0,0.0,-0.007652854924340105,-0.43847628839059694,0.0,0.0,11.891814269913926,0.003550287695460349,0.034946117340838474,-0.03370855702836558,-1.9313580512013957,0.0,0.0,0.026055702104025476,1.4928817628107989,-4.925903996791949,0.0,-16.275004320693625,11.887777824235755,0.0,-0.3098145118245238,0.0,-1.1946448333810786,0.0,0.0,-0.5189592503100197,0.0,-0.06226774645919808,0.3490658503988659,1.0,0.14,0.14,0.75,0.08726646259971647,5.0,0.184,0.175,0.174,0.0,0.0,0.0,-0.012395290668618495,0.0,0.002046663457617167,0.0,6.078746732430819,0.0,-0.5200560931046705,0.0,0.15377247207020098,0.0,-3.76201704994457,0.0,-0.03158730404661099,0.0,-0.0072259304056378005,0.4735719487436255,-0.01679169679723917,0.09341269371957278,0.0,0.0,0.0,0.45500257620854023,0.09341269371957278,0.0,0.0,-0.005299476581670548,0.0,0.0,-0.0030548027994019723,0.0,1.132755917670207,0.0,5.517524869828477,0.0,-0.008996870240192904,0.0,86.61685447091438,-1.318065003894906,0.0,-5.476214139686299,0.0,-0.008996870240192904,0.0
sim_raptor_glider_3dof,raptor_glider_3dof,0.02,-14.761217287989117,0.0,-0.003550287695460349,11.885058772646858,0.0,-0.400779990591398,0.0,0.0,0.0,-29.734174782037385,-0.5189592503100197,-0.02182001999572837,0.0,0.0,0.0,0.0,0.0,-0.007652854924340105,-0.43847628839059694,0.0,0.0,11.891814269913926,0.003550287695460349,0.034946117340838474,-0.03370855702836558,-1.9313580512013957,0.0,0.0,0.026055702104025476,1.4928817628107989,-4.930488043937724,0.0,-16.259760302127475,11.887777824235755,0.0,-0.3098145118245238,0.0,-1.0200378714672778,0.0,0.0,-0.5189592503100197,0.0,-0.06360354183339562,0.3490658503988659,1.0,0.14,0.14,0.75,0.08726646259971647,5.0,0.184,0.175,0.174,0.0,0.0,0.0,-0.012483065834242663,0.0,0.0021037453467626977,0.0,6.078481645693808,0.0,-0.5200838288215122,0.0,0.15376725271622518,0.0,-3.7610536150914724,0.0,-0.03156012125630901,0.0,-0.00724898744354372,0.4732291370372062,-0.01601419251891402,0.09352824199080889,0.0,0.0,0.0,0.45466057428982726,0.09352824199080889,0.0,0.0,-0.004524915406831682,0.0,0.0,-0.0030548027994019723,0.0,1.13415709756137,0.0,5.513377631569406,0.0,-0.007681905210020069,0.0,86.61685447091438,-1.319325616859994,0.0,-5.472022034580608,0.0,-0.007681905210020069,0.0
sim_raptor_glider_3dof,raptor_glider_3dof,0.021,-14.74933183669179,0.0,-0.0038651166958542406,11.880124557621246,0.0,-0.41690491334903346,0.0,0.0,0.0,-29.78953229772212,-0.5199254212244426,-0.02186869219111855,0.0,0.0,0.0,0.0,0.0,-0.0081723018456563,-0.4682384046630791,0.0,0.0,11.887437453520837,0.0038651166958542406,0.034933255321992526,-0.0350782434258265,-2.0098353010323846,0.0,0.0,0.0269059415801702,1.5415968963693054,-4.9378710675108834,0.0,-15.990861849155948,11.883134878624634,0.0,-0.31980410845489426,0.0,-0.9126873387590146,0.0,0.0,-0.5199254212244426,0.0,-0.06360354183339562,0.3490658503988659,1.0,0.14,0.14,0.75,0.08726646259971647,5.0,0.184,0.175,0.174,0.0,0.0,0.0,-0.012548034070922129,0.0,0.0020917433360496816,0.0,6.078596327803458,0.0,-0.520239722518781,0.0,0.15217473181904967,0.0,-3.7603244712044033,0.0,-0.03114417913097923,0.0,-0.007116123611098752,0.4674345408524064,-0.01556436045666992,0.09327904263612471,0.0,0.0,0.0,0.4488242075658547,0.09327904263612471,0.0,0.0,-0.0040516874807399565,0.0,0.0,-0.0030616169067565974,0.0,1.1303027346650665,0.0,5.438598155156227,0.0,-0.006873448348194139,0.0,86.55310704021552,-1.320344744578051,0.0,-5.395611542793381,0.0,-0.006873448348194139,0.0
sim_raptor_glider_3dof,raptor_glider_3dof,0.022,-14.737451021247736,0.0,-0.004189794088172353,11.875183357070815,0.0,-0.4327627229290282,0.0,0.0,0.0,-29.83880966151011,-0.5207854734692461,-0.021912924779440308,0.0,0.0,0.0,0.0,0.0,-0.008692663107774251,-0.49805290880453845,0.0,0.0,11.883066243121284,0.004189794088172353,0.03492040977731136,-0.03642649410576178,-2.08708437471832,0.0,0.0,0.027733830997987527,1.5890314659137812,-4.944442224683764,0.0,-15.725104449446034,11.878496514446905,0.0,-0.3295207044805436,0.0,-0.8076734062453772,0.0,0.0,-0.5207854734692461,0.0,-0.06360354183339562,0.3490658503988659,1.0,0.14,0.14,0.75,0.08726646259971647,5.0,0.184,0.175,0.174,0.0,0.0,0.0,-0.012611920137186466,0.0,0.00207974278754207,0.0,6.078700605188921,0.0,-0.5203909682600208,0.0,0.15060644887222202,0.0,-3.759599851384584,0.0,-0.030735017427563648,0.0,-0.006986638376563144,0.461724585563902,-0.015121874130314125,0.0930375721244948,0.0,0.0,0.0,0.44307629028734796,0.0930375721244948,0.0,0.0,-0.003588138106128175,0.0,0.0,-0.0030678094691216433,0.0,1.1265477731618339,0.0,5.36500036239234,0.0,-0.006082588422433936,0.0,86.48946468133674,-1.32118539196302,0.0,-5.320414263358574,0.0,-0.006082588422433936,0.0
sim_raptor_glider_3dof,raptor_glider_3dof,0.023,-14.725574841550943,0.0,-0.004524047211255501,11.87023599777402,0.0,-0.44835641908780605,0.0,0.0,0.0,-29.882139268542566,-0.5215417177755578,-0.021952810273907764,0.0,0.0,0.0,0.0,0.0,-0.009213829981906639,-0.5279135711143501,0.0,0.0,11.878700523263792,0.004524047211255501,0.03490758036752121,-0.0377535358512419,-2.1631182659720047,0.0,0.0,0.028539705869335262,1.6352046948576546,-4.950227990770303,0.0,-15.46248616176272,11.873863162862511,0.0,-0.3389685988467151,0.0,-0.70495980061218,0.0,0.0,-0.5215417177755578,0.0,-0.06360354183339562,0.3490658503988659,1.0,0.14,0.14,0.75,0.08726646259971647,5.0,0.184,0.175,0.174,0.0,0.0,0.0,-0.01267474153007606,0.0,0.0020677527299705696,0.0,6.078794905488191,0.0,-0.5205376993987402,0.0,0.14906217824734297,0.0,-3.7588799554178065,0.0,-0.030332550739718172,0.0,-0.006860454656048726,0.4560988889046782,-0.014686646144791241,0.09280363149240459,0.0,0.0,0.0,0.4374163605290931,0.09280363149240459,0.0,0.0,-0.0031341291542757634,0.0,0.0,-0.003073393438347087,0.0,1.1228895654230753,0.0,5.292575937867861,0.0,-0.005309052258410328,0.0,86.42592562424032,-1.321855408805969,0.0,-5.246421572123641,0.0,-0.005309052258410328,0.0
sim_raptor_glider_3dof,raptor_glider_3dof,0.024,-14.713703292953458,0.0,-0.0048676349835186416,11.865283177198542,0.0,-0.463688837828187,0.0,0.0,0.0,-29.919639347843912,-0.5221962176291253,-0.02198843111857152,0.0,0.0,0.0,0.0,0.0,-0.009735709569575434,-0.5578150689017997,0.0,0.0,11.874340074860461,0.0048676349835186416,0.03489476644879503,-0.03905958229660121,-2.2379492151391567,0.0,0.0,0.029323872727025777,1.680134146237357,-4.95525384536504,0.0,-15.203003022097526,11.869235130439108,0.0,-0.3481517367288375,0.0,-0.6045125911182712,0.0,0.0,-0.5221962176291253,0.0,-0.06360354183339562,0.3490658503988659,1.0,0.14,0.14,0.75,0.08726646259971647,5.0,0.184,0.175,0.174,0.0,0.0,0.0,-0.012736514689376447,0.0,0.002055781839600958,0.0,6.078879643032688,0.0,-0.5206800444051108,0.0,0.1475417081140614,0.0,-3.7581649809231488,0.0,-0.029936698383146648,0.0,-0.0067374978659732465,0.4505570880350637,-0.014258593706871872,0.0925770274607781,0.0,0.0,0.0,0.4318439843518162,0.0925770274607781,0.0,0.0,-0.002689532452735989,0.0,0.0,-0.003078380356600013,0.0,1.1193255210187214,0.0,5.22131684329773,0.0,-0.0045525843237117,0.0,86.36248659396811,-1.3223623809290648,0.0,-5.173625124959483,0.0,-0.0045525843237117,0.0
sim_raptor_glider_3dof,raptor_glider_3dof,0.025,-14.70183636944349,0.0,-0.0052202699436284476,11.860325716252726,0.0,-0.47876340138469886,0.0,0.0,0.0,-29.95145093667078,-0.5227514345944447,-0.022019886331807143,0.0,0.0,0.0,0.0,0.0,-0.010258191667847522,-0.5877510880039298,0.0,0.0,11.869984856355597,0.0052202699436284476,0.034881967899014356,-0.04034489624292776,-2.3115922796129724,0.0,0.0,0.03008670457508024,1.7238411916090426,-4.9595457174576545,0.0,-14.946644920288106,11.864612848344244,0.0,-0.3570748507188409,0.0,-0.5062925019447437,0.0,0.0,-0.5227514345944447,0.0,-0.06360354183339562,0.3490658503988659,1.0,0.14,0.14,0.75,0.08726646259971647,5.0,0.184,0.175,0.174,0.0,0.0,0.0,-0.012797257965182543,0.0,0.002043837882482813,0.0,6.078955222970518,0.0,-0.5208181336929589,0.0,0.14604476792992035,0.0,-3.75745508926919,0.0,-0.02954736548593662,0.0,-0.006617690079743856,0.44509857681866044,-0.013837618207221252,0.09235756169893479,0.0,0.0,0.0,0.42635847039502656,0.09235756169893479,0.0,0.0,-0.0022541954524603544,0.0,0.0,-0.0030827840864530004,0.0,1.1158530298367366,0.0,5.151212117722399,0.0,-0.0038128888321458656,0.0,86.29914690179662,-1.3227137532243258,0.0,-5.102013582204298,0.0,-0.0038128888321458656,0.0
sim_raptor_glider_3dof,raptor_glider_3dof,0.026000000000000002,-14.689974065206112,0.0,-0.0055816997731609865,11.855364320017443,0.0,-0.49358316546961206,0.0,0.0,0.0,-29.97769787678711,-0.5232095301180485,-0.022047262624617467,0.0,0.0,0.0,0.0,0.0,-0.010781180252215526,-0.617716126621738,0.0,0.0,11.865634728137287,0.0055816997731609865,0.034869184307905865,-0.04160971027442629,-2.384060785486765,0.0,0.0,0.03082853002221076,1.7663446588650267,-4.963128337355712,0.0,-14.693402630760852,11.859996635375172,0.0,-0.36574213657610277,0.0,-0.4102641204288542,0.0,0.0,-0.5232095301180485,0.0,-0.06360354183339562,0.3490658503988659,1.0,0.14,0.14,0.75,0.08726646259971647,5.0,0.184,0.175,0.174,0.0,0.0,0.0,-0.012856987882176298,0.0,0.002031928452840562,0.0,6.079022036084809,0.0,-0.5209520909742469,0.0,0.1445711208837322,0.0,-3.7567504489728103,0.0,-0.029164467030666844,0.0,-0.006500957540708202,0.4397228442376215,-0.013423631247677667,0.09214504472240245,0.0,0.0,0.0,0.42095923289136566,0.09214504472240245,0.0,0.0,-0.0018279823207662266,0.0,0.0,-0.0030866167674464457,0.0,1.1124695779137586,0.0,5.082252024993615,0.0,-0.003089699090949701,0.0,86.2359044347033,-1.3229166869675368,0.0,-5.031576854891331,0.0,-0.003089699090949701,0.0
sim_raptor_glider_3dof,raptor_glider_3dof,0.027,-14.678116374025214,0.0,-0.00595167062240524,11.850399686380381,0.0,-0.5081512408016342,0.0,0.0,0.0,-29.998504791680485,-0.5235726792901201,-0.02207064737465994,0.0,0.0,0.0,0.0,0.0,-0.011304579215075066,-0.6477046781951142,0.0,0.0,11.861289576200916,0.00595167062240524,0.0348564153404476,-0.04285426187904979,-2.455368339817926,0.0,0.0,0.031549682663974725,1.8076636616228117,-4.966025974880474,0.0,-14.443264878001298,11.855386805956828,0.0,-0.37415784321222373,0.0,-0.3163917956819943,0.0,0.0,-0.5235726792901201,0.0,-0.06360354183339562,0.3490658503988659,1.0,0.14,0.14,0.75,0.08726646259971647,5.0,0.184,0.175,0.174,0.0,0.0,0.0,-0.012915720821922865,0.0,0.002020060671120351,0.0,6.0790804615000456,0.0,-0.5210820372100057,0.0,0.14312052307021433,0.0,-3.756051216783656,0.0,-0.028787917178026968,0.0,-0.0063872273236486215,0.4344293271580218,-0.013016543123276474,0.09193928971280561,0.0,0.0,0.0,0.41564563338610844,0.09193928971280561,0.0,0.0,-0.0014107556535252475,0.0,0.0,-0.0030898906324523918,0.0,1.1091726958185355,0.0,5.014426249410754,0.0,-0.0023827466132810993,0.0,86.1727574548147,-1.3229781286768079,0.0,-4.962304258202208,0.0,-0.0023827466132810993,0.0
sim_raptor_glider_3dof,raptor_glider_3dof,0.028,-14.666263289369638,0.0,-0.006329933000362537,11.845432488524569,0.0,-0.5224707257499159,0.0,0.0,0.0,-30.013994211738787,-0.523843020669362,-0.022090126549168174,0.0,0.0,0.0,0.0,0.0,-0.011828294673149354,-0.6777113636085315,0.0,0.0,11.856949291426485,0.006329933000362537,0.034843660675971916,-0.04407878784286904,-2.525528509448958,0.0,0.0,0.03225049316971969,1.8478171458404267,-4.968262323355456,0.0,-14.196218891040866,11.850783653113906,0.0,-0.3823261782133769,0.0,-0.22464029034021904,0.0,0.0,-0.523843020669362,0.0,-0.06360354183339562,0.3490658503988659,1.0,0.14,0.14,0.75,0.08726646259971647,5.0,0.184,0.175,0.174,0.0,0.0,0.0,-0.012973472776955208,0.0,0.0020082412511885856,0.0,6.079130866572343,0.0,-0.5212080900775213,0.0,0.14169273006245425,0.0,-3.7553575409257225,0.0,-0.028417630940346272,0.0,-0.00627642785549661,0.42921743572552346,-0.012616264658066449,0.0917401134783742,0.0,0.0,0.0,0.4104170079043082,0.0917401134783742,0.0,0.0,-0.0010023793937673376,0.0,0.0,-0.003092617716883545,0.0,1.1059599661407546,0.0,4.947724206515583,0.0,-0.0016917660265521896,0.0,86.10970429772495,-1.3229048033680801,0.0,-4.894184830150164,0.0,-0.0016917660265521896,0.0
sim_raptor_glider_3dof,raptor_glider_3dof,0.029,-14.654414804410475,0.0,-0.006716241817003157,11.840463375006145,0.0,-0.5365447046179318,0.0,0.0,0.0,-30.02428655737687,-0.5240226559884997,-0.022105784690424613,0.0,0.0,0.0,0.0,0.0,-0.012352234972882766,-0.7077309315000754,0.0,0.0,11.852613768908336,0.006716241817003157,0.0348309200061957,-0.04528352411022377,-2.594554812994729,0.0,0.0,0.03293128913734101,1.8868238814946534,-4.96986050080756,0.0,-13.952250498964913,11.84618744883544,0.0,-0.39025130617221315,0.0,-0.13497478949636108,0.0,0.0,-0.5240226559884997,0.0,-0.06360354183339562,0.3490658503988659,1.0,0.14,0.14,0.75,0.08726646259971647,5.0,0.184,0.175,0.174,0.0,0.0,0.0,-0.013030259362724107,0.0,0.0019964765173334583,0.0,6.079173607151355,0.0,-0.5213303640370112,0.0,0.14028749712139493,0.0,-3.7546695613617644,0.0,-0.02805352419874447,0.0,-0.006168488917484821,0.4240865555119062,-0.01222270724858388,0.09154733645463721,0.0,0.0,0.0,0.40527266911215026,0.09154733645463721,0.0,0.0,-0.0006027188815822919,0.0,0.0,-0.003094809856659446,0.0,1.1028290231621958,0.0,4.882135069137219,0.0,-0.0010164951396970953,0.0,86.04674336262723,-1.322703218200352,0.0,-4.827207358731423,0.0,-0.0010164951396970953,0.0
sim_raptor_glider_3dof,raptor_glider_3dof,0.03,-14.642570912073202,0.0,-0.007110355897612622,11.835492972863788,0.0,-0.5503762474605611,0.0,0.0,0.0,-30.02950037606343,-0.5241136542911823,-0.022117705082475722,0.0,0.0,0.0,0.0,0.0,-0.012876310428241514,-0.7377582432385283,0.0,0.0,11.848282910383128,0.007110355897612622,0.03481819304235542,-0.04646870576100184,-2.6624607195406598,0.0,0.0,0.03359239533276032,1.9247024763021312,-4.97084306035206,0.0,-13.711344257180537,11.841598447363955,0.0,-0.39793735168297795,0.0,-0.04736087978955464,0.0,0.0,-0.5241136542911823,0.0,-0.06360354183339562,0.3490658503988659,1.0,0.14,0.14,0.75,0.08726646259971647,5.0,0.184,0.175,0.174,0.0,0.0,0.0,-0.013086095834318063,0.0,0.001984772419658718,0.0,6.079209027845427,0.0,-0.5214489704093916,0.0,0.13890457926749727,0.0,-3.7539874099914106,0.0,-0.02769551368566503,0.0,-0.006063341635595483,0.41903604909711467,-0.011835782868768767,0.09136078268306026,0.0,0.0,0.0,0.4002119077593494,0.09136078268306026,0.0,0.0,-0.00021164077031640173,0.0,0.0,-0.003096478711546601,0.0,1.0997775528418945,0.0,4.817647787242228,0.0,-0.000356674785695136,0.0,85.98387314743549,-1.3223796669618846,0.0,-4.761360402664413,0.0,-0.000356674785695136,0.0
sim_raptor_glider_3dof,raptor_glider_3dof,0.03,-14.642570912073202,0.0,-0.007110355897612622,11.835492972863788,0.0,-0.5503762474605611,0.0,0.0,0.0,-30.02950037606343,-0.5241136542911823,-0.022117705082475722,0.0,0.0,0.0,0.0,0.0,-0.012876310428241514,-0.7377582432385283,0.0,0.0,11.848282910383128,0.007110355897612622,0.03481819304235542,-0.04646870576100184,-2.6624607195406598,0.0,0.0,0.03359239533276032,1.9247024763021312,-4.974953726353814,0.0,-13.697741033043117,11.841598447363955,0.0,-0.39793735168297795,0.0,0.10833519462667243,0.0,0.0,-0.5241136542911823,0.0,-0.06481025504032001,0.3490658503988659,1.0,0.14,0.14,0.75,0.08726646259971647,5.0,0.184,0.175,0.174,0.0,0.0,0.0,-0.013156565676671481,0.0,0.002035913946182159,0.0,6.078931780759358,0.0,-0.5214740677222027,0.0,0.1388998433696253,0.0,-3.7530133939314205,0.0,-0.02767401628832798,0.0,-0.006084310015920262,0.4187291251090769,-0.011137010408625622,0.09146902428310044,0.0,0.0,0.0,0.39990584226101145,0.09146902428310044,0.0,0.0,0.0004841156698322784,0.0,0.0,-0.003096478711546601,0.0,1.101080537322893,0.0,4.813963449664483,0.0,0.0008158723507334701,0.0,85.98387314743549,-1.323510100112367,0.0,-4.757619516026622,0.0,0.0008158723507334701,0.0
sim_raptor_glider_3dof,raptor_glider_3dof,0.031,-14.630731617785345,0.0,-0.007512030703366186,11.830517868086034,0.0,-0.5639537865095763,0.0,0.0,0.0,-30.02085916543611,-0.5239628367143772,-0.022119426041027998,0.0,0.0,0.0,0.0,0.0,-0.013400348493706492,-0.767783412693872,0.0,0.0,11.843951912280858,0.007512030703366186,0.03480546566834423,-0.04763334988727592,-2.729189912610866,0.0,0.0,0.034233001393569426,1.9614064999169938,-4.975250648160081,0.0,-13.458521624335456,11.83701263594227,0.0,-0.4053748351396373,0.0,0.19287693117471458,0.0,0.0,-0.5239628367143772,0.0,-0.06481025504032001,0.3490658503988659,1.0,0.14,0.14,0.75,0.08726646259971647,5.0,0.184,0.175,0.174,0.0,0.0,0.0,-0.013211640787298678,0.0,0.002024297327736972,0.0,6.078957013436227,0.0,-0.5215891458885289,0.0,0.13754043380645112,0.0,-3.752329616564705,0.0,-0.027322366020593753,0.0,-0.005982015259527899,0.41376381764477194,-0.010757376464420598,0.09128904234592565,0.0,0.0,0.0,0.3949389920356312,0.09128904234592565,0.0,0.0,0.0008625363765020749,0.0,0.0,-0.00309671964574392,0.0,1.098110718280866,0.0,4.750698759419337,0.0,0.0014525561686767755,0.0,85.9210238836572,-1.323071314689399,0.0,-4.693023348396832,0.0,0.0014525561686767755,0.0
sim_raptor_glider_3dof,raptor_glider_3dof,0.032,-14.618896894226802,0.0,-0.007921009344151053,11.825542755441727,0.0,-0.5772942257580869,0.0,0.0,0.0,-30.007442912899215,-0.5237286789343293,-0.022117620294533485,0.0,0.0,0.0,0.0,0.0,-0.013924194256510668,-0.7977975640183624,0.0,0.0,11.83962541991401,0.007921009344151053,0.03479275153520235,-0.04877884241502125,-2.7948217999144456,0.0,0.0,0.03485464815851058,1.997024235896083,-4.97497442201484,0.0,-13.222356831219209,11.832434484207477,0.0,-0.4125824291116743,0.0,0.2754384617659062,0.0,0.0,-0.5237286789343293,0.0,-0.06481025504032001,0.3490658503988659,1.0,0.14,0.14,0.75,0.08726646259971647,5.0,0.184,0.175,0.174,0.0,0.0,0.0,-0.013265789005070385,0.0,0.002012751792956234,0.0,6.078975648507916,0.0,-0.5217007635838263,0.0,0.13620292466818004,0.0,-3.7516520956009862,0.0,-0.026976666589733897,0.0,-0.005882382404948706,0.40887782729772976,-0.01038421834959129,0.0911149428835194,0.0,0.0,0.0,0.39005448077345184,0.0911149428835194,0.0,0.0,0.0012326479642857952,0.0,0.0,-0.0030964668412346887,0.0,1.0952159014290952,0.0,4.688516024346026,0.0,0.0020743270555590395,0.0,85.85826294699386,-1.322522895925568,0.0,-4.629537079562628,0.0,0.0020743270555590395,0.0
sim_raptor_glider_3dof,raptor_glider_3dof,0.033,-14.607066744896988,0.0,-0.008337082383580888,11.820568195221904,0.0,-0.5904000209744726,0.0,0.0,0.0,-29.989352120207315,-0.5234129350375599,-0.022112358295714833,0.0,0.0,0.0,0.0,0.0,-0.014447765083832814,-0.8277959627000943,0.0,0.0,11.835303318574402,0.008337082383580888,0.03478005030584032,-0.04990536752707824,-2.8593669343508132,0.0,0.0,0.03545760244324543,2.0315709716507193,-4.9741456181223915,0.0,-12.989234573644243,11.827864180353997,0.0,-0.41956355151180424,0.0,0.35604848872675043,0.0,0.0,-0.5234129350375599,0.0,-0.06481025504032001,0.3490658503988659,1.0,0.14,0.14,0.75,0.08726646259971647,5.0,0.184,0.175,0.174,0.0,0.0,0.0,-0.013319022386426113,0.0,0.0020012827668797785,0.0,6.0789879979864985,0.0,-0.521809018789168,0.0,0.13488712697263636,0.0,-3.7509809675688426,0.0,-0.026636851674127902,0.0,-0.005785350545255472,0.40407066154557,-0.010017465285517226,0.09094656729764607,0.0,0.0,0.0,0.3852517550494141,0.09094656729764607,0.0,0.0,0.0015945596306232834,0.0,0.0,-0.0030957301614000766,0.0,1.092393998177998,0.0,4.627406151858277,0.0,0.0026814011686011577,0.0,85.79558860273708,-1.321870510583004,0.0,-4.56715126690174,0.0,0.0026814011686011577,0.0
sim_raptor_glider_3dof,raptor_glider_3dof,0.034,-14.595241162846424,0.0,-0.008760052222410641,11.815594664902065,0.0,-0.6032738390843183,0.0,0.0,0.0,-29.9666843582075,-0.5230173079566047,-0.022103708535887084,0.0,0.0,0.0,0.0,0.0,-0.014970989975250988,-0.8577745407145464,0.0,0.0,11.830985445438841,0.008760052222410641,0.03476736150177449,-0.05101312778972295,-2.922836922112659,0.0,0.0,0.036042137814471964,2.0650623813981124,-4.972784289819909,0.0,-12.759137695674152,11.823301841046424,0.0,-0.4263216927320083,0.0,0.43473664500265136,0.0,0.0,-0.5230173079566047,0.0,-0.06481025504032001,0.3490658503988659,1.0,0.14,0.14,0.75,0.08726646259971647,5.0,0.184,0.175,0.174,0.0,0.0,0.0,-0.01337135359845158,0.0,0.001989895178327456,0.0,6.078994364697456,0.0,-0.5219140087074644,0.0,0.13359282924209526,0.0,-3.7503163508486157,0.0,-0.026302849891951488,0.0,-0.00569085827510622,0.39934172828875447,-0.009657040776706467,0.09078375721476181,0.0,0.0,0.0,0.3805301635407543,0.09078375721476181,0.0,0.0,0.0019483851584076572,0.0,0.0,-0.003094519195024192,0.0,1.0896429199568476,0.0,4.567358867416227,0.0,0.0032740016735149677,0.0,85.73299842135094,-1.3211196364152626,0.0,-4.505855259887487,0.0,0.0032740016735149677,0.0
sim_raptor_glider_3dof,raptor_glider_3dof,0.034999999999999996,-14.583420138758708,0.0,-0.009189662234272446,11.810622773924974,0.0,-0.6159191748767098,0.0,0.0,0.0,-29.93956640470686,-0.5225440103816158,-0.02209176079236624,0.0,0.0,0.0,0.0,0.0,-0.015493777199705863,-0.8877280422591692,0.0,0.0,11.826671836908982,0.009189662234272446,0.034754685229977315,-0.0521023953433497,-2.9852473556960115,0.0,0.0,0.036608618143643835,2.0975193134368424,-4.970911099455166,0.0,-12.532040830796973,11.818747722834829,0.0,-0.43286141191221233,0.0,0.5115399156591565,0.0,0.0,-0.5225440103816158,0.0,-0.06481025504032001,0.3490658503988659,1.0,0.14,0.14,0.75,0.08726646259971647,5.0,0.184,0.175,0.174,0.0,0.0,0.0,-0.01342279834886841,0.0,0.0019785929283663026,0.0,6.078995041893508,0.0,-0.5220158344527738,0.0,0.13231973766336147,0.0,-3.7496583143875006,0.0,-0.025974569370853066,0.0,-0.005598839457029159,0.39469011818032324,-0.009302845986214404,0.09062634736891724,0.0,0.0,0.0,0.3758887195750344,0.09062634736891724,0.0,0.0,0.002294271648623421,0.0,0.0,-0.0030928465109312745,0.0,1.0869605383670848,0.0,4.508360061475079,0.0,0.0038524071048291076,0.0,85.67049286311689,-1.3202756035875503,0.0,-4.445634486374512,0.0,0.0038524071048291076,0.0
sim_raptor_glider_3dof,raptor_glider_3dof,0.036,-14.571603664614386,0.0,-0.009625704048079855,11.805653004659277,0.0,-0.6283389085066928,0.0,0.0,0.0,-29.908101333622174,-0.521994841291814,-0.02207658773072815,0.0,0.0,0.0,0.0,0.0,-0.01601605294610315,-0.9176522382697786,0.0,0.0,11.822362397184582,0.009625704048079855,0.03474202120892351,-0.053173391266881705,-3.0466109019901113,0.0,0.0,0.037157338320778555,2.128958663720333,-4.968545348852989,0.0,-12.30792290796406,11.814201958665791,0.0,-0.43918644129955325,0.0,0.5864893396641987,0.0,0.0,-0.521994841291814,0.0,-0.06481025504032001,0.3490658503988659,1.0,0.14,0.14,0.75,0.08726646259971647,5.0,0.184,0.175,0.174,0.0,0.0,0.0,-0.013473369552579391,0.0,0.0019673800757103194,0.0,6.07899031224134,0.0,-0.5221145892378383,0.0,0.131067617389298,0.0,-3.7490069503126073,0.0,-0.025651934094324313,0.0,-0.0055092332127587886,0.3901151206877258,-0.00895479927509018,0.09047418341504791,0.0,0.0,0.0,0.37132664987578384,0.09047418341504791,0.0,0.0,0.002632340042745842,0.0,0.0,-0.003090722282301941,0.0,1.0843448377697231,0.0,4.450398121550356,0.0,0.00441685121701108,0.0,85.60807047301311,-1.3193435174963506,0.0,-4.386476929192395,0.0,0.00441685121701108,0.0
sim_raptor_glider_3dof,raptor_glider_3dof,0.037,-14.559791731999132,0.0,-0.010067965144683125,11.800685839539163,0.0,-0.64053600421258,0.0,0.0,0.0,-29.872394342091404,-0.5213716367236203,-0.022058263643032667,0.0,0.0,0.0,0.0,0.0,-0.016537742354862637,-0.9475428396083725,0.0,0.0,11.818057059271322,0.010067965144683125,0.034729369241738875,-0.05422634400538174,-3.1069406499329055,0.0,0.0,0.0376886016505191,2.1593978103245326,-4.965705952154541,0.0,-12.08676121502334,11.809664687243036,0.0,-0.4453006075423294,0.0,0.6596159986432646,0.0,0.0,-0.5213716367236203,0.0,-0.06481025504032001,0.3490658503988659,1.0,0.14,0.14,0.75,0.08726646259971647,5.0,0.184,0.175,0.174,0.0,0.0,0.0,-0.013523079058145041,0.0,0.0019562598135616205,0.0,6.078980446488858,0.0,-0.5222103613200464,0.0,0.12983622668350697,0.0,-3.7483623411670832,0.0,-0.025334866165673653,0.0,-0.005421976580665529,0.38561597592575064,-0.008612819183704047,0.0903271131411423,0.0,0.0,0.0,0.3668431304540218,0.0903271131411423,0.0,0.0,0.002962711881446969,0.0,0.0,-0.003088156910024574,0.0,1.0817938392637467,0.0,4.393460885673214,0.0,0.004967568085782426,0.0,85.54573021513244,-1.3183283040972575,0.0,-4.328370010434125,0.0,0.004967568085782426,0.0
sim_raptor_glider_3dof,raptor_glider_3dof,0.038,-14.547984332363816,0.0,-0.010516236325196639,11.795721744087928,0.0,-0.6525134079886563,0.0,0.0,0.0,-29.8325490974239,-0.5206762060129096,-0.02203686179436568,0.0,0.0,0.0,0.0,0.0,-0.01705877218569828,-0.9773956499156701,0.0,0.0,11.813755762311734,0.010516236325196639,0.034716729149583396,-0.05526148080765384,-3.166249619921765,0.0,0.0,0.03820270862195556,2.1888539700060945,-4.962411307508588,0.0,-11.868532348477917,11.805136035839995,0.0,-0.4512076981454279,0.0,0.7309504055774344,0.0,0.0,-0.5206762060129096,0.0,-0.06481025504032001,0.3490658503988659,1.0,0.14,0.14,0.75,0.08726646259971647,5.0,0.184,0.175,0.174,0.0,0.0,0.0,-0.013571937997831497,0.0,0.0019452348792347682,0.0,6.0789657051521635,0.0,-0.5223032351805771,0.0,0.12862532528906961,0.0,-3.747724563838351,0.0,-0.025023288438020708,0.0,-0.005337006865228837,0.3811919121715325,-0.008276825794621403,0.09018498773392122,0.0,0.0,0.0,0.3624373263779347,0.09018498773392122,0.0,0.0,0.0032855065613103165,0.0,0.0,-0.003085160651211195,0.0,1.0793056115186224,0.0,4.337536102323788,0.0,0.005504787504403659,0.0,85.48347114385517,-1.3172347090797112,0.0,-4.271301062113688,0.0,0.005504787504403659,0.0
sim_raptor_glider_3dof,raptor_glider_3dof,0.039,-14.536181457020914,0.0,-0.01097031265901007,11.79076116322825,0.0,-0.6642740390820064,0.0,0.0,0.0,-29.788667296799428,-0.5199103241103089,-0.02201245410411183,0.0,0.0,0.0,0.0,0.0,-0.017579071233939533,-1.0072065894645674,0.0,0.0,11.809458446825152,0.01097031265901007,0.034704100757663024,-0.05627902702625973,-3.2245507237073787,0.0,0.0,0.038699955792320204,2.2173441342428113,-4.958679290627441,0.0,-11.653212296018397,11.80061611678782,0.0,-0.45691144820138896,0.0,0.800522690351737,0.0,0.0,-0.5199103241103089,0.0,-0.06481025504032001,0.3490658503988659,1.0,0.14,0.14,0.75,0.08726646259971647,5.0,0.184,0.175,0.174,0.0,0.0,0.0,-0.013619957402561406,0.0,0.0019343078389128022,0.0,6.078946340066971,0.0,-0.5223932931820963,0.0,0.12743467385122584,0.0,-3.7470936889945836,0.0,-0.024717124763834017,0.0,-0.005254263075684849,0.37684214978803804,-0.007946739738591085,0.09004766186304239,0.0,0.0,0.0,0.35810839596434646,0.09004766186304239,0.0,0.0,0.0036008421608009662,0.0,0.0,-0.0030817435745756567,0.0,1.0768782707298263,0.0,4.282611477091472,0.0,0.006028736381038931,0.0,85.42129233482247,-1.3160673019625602,0.0,-4.215257374157674,0.0,0.006028736381038931,0.0
sim_raptor_glider_3dof,raptor_glider_3dof,0.04,-14.524383097187034,0.0,-0.011429992640513018,11.785804525673228,0.0,-0.6758207941541186,0.0,0.0,0.0,-29.740849053737126,-0.5190757383263528,-0.021985111421366305,0.0,0.0,0.0,0.0,0.0,-0.01809856991725935,-1.0369716714813964,0.0,0.0,11.805165058701665,0.011429992640513018,0.0346914839069666,-0.05727920645009005,-3.2818567834486823,0.0,0.0,0.0391806365328307,2.244885111967286,-4.954527277049723,0.0,-11.44077649868636,11.796105031866245,0.0,-0.46241554944710267,0.0,0.8683626563143717,0.0,0.0,-0.5190757383263528,0.0,-0.06481025504032001,0.3490658503988659,1.0,0.14,0.14,0.75,0.08726646259971647,5.0,0.184,0.175,0.174,0.0,0.0,0.0,-0.013667148222141868,0.0,0.00192348109190636,0.0,6.0789225946115355,0.0,-0.5224806156493705,0.0,0.12626403357819752,0.0,-3.7464697810702576,0.0,-0.024416299876579547,0.0,-0.005173685863955854,0.372565900746657,-0.007622482095228293,0.089914993587911,0.0,0.0,0.0,0.3538554900676416,0.089914993587911,0.0,0.0,0.003908835685077309,0.0,0.0,-0.003077915598991283,0.0,1.0745099800551332,0.0,4.2286746670702255,0.0,0.006539639164703534,0.0,85.35919294265513,-1.3148304814334155,0.0,-4.160226188833143,0.0,0.006539639164703534,0.0
sim_raptor_glider_3dof,raptor_glider_3dof,0.04,-14.524383097187034,0.0,-0.011429992640513018,11.785804525673228,0.0,-0.6758207941541186,0.0,0.0,0.0,-29.740849053737126,-0.5190757383263528,-0.021985111421366305,0.0,0.0,0.0,0.0,0.0,-0.01809856991725935,-1.0369716714813964,0.0,0.0,11.805165058701665,0.011429992640513018,0.0346914839069666,-0.05727920645009005,-3.2818567834486823,0.0,0.0,0.0391806365328307,2.244885111967286,-4.958123231955857,0.0,-11.42899111760432,11.796105031866245,0.0,-0.46241554944710267,0.0,1.0033485016866655,0.0,0.0,-0.5190757383263528,0.0,-0.06586945835100083,0.3490658503988659,1.0,0.14,0.14,0.75,0.08726646259971647,5.0,0.184,0.175,0.174,0.0,0.0,0.0,-0.01372106925387494,0.0,0.0019680592054362287,0.0,6.078652295909981,0.0,-0.5225022849758205,0.0,0.12625984590296982,0.0,-3.7455399704454413,0.0,-0.024400010935639177,0.0,-0.005192312267403028,0.3722990456525804,-0.007011996793905577,0.09001313391483502,0.0,0.0,0.0,0.35358946693015486,0.09001313391483502,0.0,0.0,0.004516459107773795,0.0,0.0,-0.003077915598991283,0.0,1.075682785129324,0.0,4.225495614225434,0.0,0.007556217566202278,0.0,85.35919294265513,-1.3158193690326023,0.0,-4.156985209035581,0.0,0.007556217566202278,0.0
sim_raptor_glider_3dof,raptor_glider_3dof,0.041,-14.51258926563171,0.0,-0.011895080973106298,11.780848743916804,0.0,-0.6871434456669977,0.0,0.0,0.0,-29.68147524940213,-0.5180394699512723,-0.021949204306551794,0.0,0.0,0.0,0.0,0.0,-0.018617123077660565,-1.0666825790255563,0.0,0.0,11.80087129164492,0.011895080973106298,0.03467886594271039,-0.05826115023463947,-3.3381180180224677,0.0,0.0,0.03964402715697891,2.271435438996911,-4.953477897584852,0.0,-11.218248294182182,11.791599092998391,0.0,-0.46771152644421704,0.0,1.068582267301432,0.0,0.0,-0.5180394699512723,0.0,-0.06586945835100083,0.3490658503988659,1.0,0.14,0.14,0.75,0.08726646259971647,5.0,0.184,0.175,0.174,0.0,0.0,0.0,-0.01376753805012531,0.0,0.0019573515203815655,0.0,6.078622148583165,0.0,-0.522586952817255,0.0,0.12511026845821174,0.0,-3.7449177753774214,0.0,-0.02410476325661649,0.0,-0.005113954972487429,0.3681004396058529,-0.006694112706199264,0.08988538990227035,0.0,0.0,0.0,0.34942151088403134,0.08988538990227035,0.0,0.0,0.0048136024446202436,0.0,0.0,-0.003072888602917252,0.0,1.073374966804672,0.0,4.17265033899032,0.0,0.008047493055047084,0.0,85.29711065325361,-1.3145196721120795,0.0,-4.1030699119646155,0.0,0.008047493055047084,0.0
sim_raptor_glider_3dof,raptor_glider_3dof,0.042,-14.50079991501256,0.0,-0.012365344961257173,11.77589778192691,0.0,-0.6982577477048151,0.0,0.0,0.0,-29.618428939858788,-0.5169391042685094,-0.02191054710044251,0.0,0.0,0.0,0.0,0.0,-0.019134612369134132,-1.096332531370207,0.0,0.0,11.796581388377774,0.012365344961257173,0.0346662593328566,-0.05922615283746869,-3.393408594383721,0.0,0.0,0.04009154046833456,2.297076063013514,-4.948445884468959,0.0,-11.010355829597044,11.787102149050153,0.0,-0.4728164342302118,0.0,1.1321489481676357,0.0,0.0,-0.5169391042685094,0.0,-0.06586945835100083,0.3490658503988659,1.0,0.14,0.14,0.75,0.08726646259971647,5.0,0.184,0.175,0.174,0.0,0.0,0.0,-0.013813196965844597,0.0,0.0019467480191554195,0.0,6.078588134104389,0.0,-0.5226690386560341,0.0,0.12398024703445719,0.0,-3.7443027825956188,0.0,-0.02381471115694903,0.0,-0.005037650068887072,0.363973823265352,-0.006381902326525337,0.08976202379057463,0.0,0.0,0.0,0.34532789643904405,0.08976202379057463,0.0,0.0,0.00510365882016776,0.0,0.0,-0.0030674765940619515,0.0,1.0711225956035795,0.0,4.12076841795709,0.0,0.008526213728650464,0.0,85.23510678338874,-1.3131591400994924,0.0,-4.05014185455501,0.0,0.008526213728650464,0.0
sim_raptor_glider_3dof,raptor_glider_3dof,0.043000000000000003,-14.489015056810306,0.0,-0.01284061972458595,11.770952037385747,0.0,-0.7091655743022272,0.0,0.0,0.0,-29.551787630484572,-0.5157759940020892,-0.021869194346723415,0.0,0.0,0.0,0.0,0.0,-0.019650969950406025,-1.1259176414966698,0.0,0.0,11.792295267597869,0.01284061972458595,0.034653663838484436,-0.06017435239677028,-3.4477364272678668,0.0,0.0,0.04052338244636425,2.3218187857711965,-4.9430426962988205,0.0,-10.805299765192476,11.78261426595216,0.0,-0.47773291491346354,0.0,1.1940700421700896,0.0,0.0,-0.5157759940020892,0.0,-0.06586945835100083,0.3490658503988659,1.0,0.14,0.14,0.75,0.08726646259971647,5.0,0.184,0.175,0.174,0.0,0.0,0.0,-0.013858052875309407,0.0,0.0019362515863459542,0.0,6.078550474558366,0.0,-0.5227486102515911,0.0,0.12286963969357537,0.0,-3.7436950894977166,0.0,-0.02352980628392998,0.0,-0.004963349163329272,0.3599187343655213,-0.006075314352569995,0.08964291358338393,0.0,0.0,0.0,0.3413081141310934,0.08964291358338393,0.0,0.0,0.005386709015623961,0.0,0.0,-0.0030616872085412784,0.0,1.0689240832366649,0.0,4.069841646316578,0.0,0.008992541487582946,0.0,85.17318009768792,-1.3117417222682475,0.0,-3.998192513608732,0.0,0.008992541487582946,0.0
