name,vehicle,t,north,east,down,u,v,w,p_rad,p_deg,p_hat_div_b,q_deg,q_rad,q_hat_div_c,r_rad,r_deg,r_hat_div_b,phi_rad,phi_deg,theta_rad,theta_deg,psi_rad,psi_deg,speed,altitude,mach,alpha_rad,alpha_deg,beta_rad,beta_deg,gamma_rad,gamma_deg,u_dot,v_dot,w_dot,north_dot,east_dot,down_dot,p_rad_dot,q_rad_dot,r_rad_dot,phi_rad_dot,theta_rad_dot,psi_rad_dot,del_tail_alt_rad,del_tail_splay_rad,DIM_b,DIM_c_bar,DIM_S,DIM_wing_position,DIM_wing_incidence_rad,DIM_wing_incidence_deg,DIM_empennage_length,DIM_nose_length,DIM_tail_length,CDp,CDq,CDr,CYp,CYq,CYr,CLp,CLq,CLr,Clp,Clq,Clr,Cmp,Cmq,Cmr,Cnp,Cnq,Cnr,CL_0,Cm_0,CD_0,Cl_0,CY_0,Cn_0,CL,CD,CY,Cl,Cm,Cn,p_hat,q_hat,r_hat,drag_force_wind,side_force_wind,lift_force_wind,roll_moment_wind,pitch_moment_wind,yaw_moment_wind,qbar,X_total,Y_total,Z_total,L_total,M_total,N_total
sim_raptor_glider_3dof,raptor_glider_3dof,0.0,-15.0,0.0,0.0,12.0,0.0,0.0,0.0,0.0,0.0,0.0,0.0,0.0,0.0,0.0,0.0,0.0,0.0,0.0,0.0,0.0,0.0,12.0,-0.0,0.035264039495724236,0.0,0.0,0.0,0.0,0.0,0.0,-7.487178041450953,0.0,-25.024054441263395,12.0,0.0,0.0,0.0,-89.41363838472799,0.0,0.0,0.0,0.0,0.4363323129985824,0.3490658503988659,1.0,0.14,0.14,0.75,0.08726646259971647,5.0,0.184,0.175,0.174,0.0,0.0,0.0,-0.053153656886407115,0.0,0.055671173493162154,0.0,6.024209384397437,0.0,-0.5269202128147928,0.0,0.19813275846416445,0.0,-3.4552995296441478,0.0,-0.03588346466142729,0.0,-0.029845922084054996,0.7757079658211316,-0.38952171953159265,0.1667455120831285,0.0,0.0,0.0,0.7757079658211316,0.1667455120831285,0.0,0.0,-0.38952171953159265,0.0,0.0,0.0,0.0,2.0589739613990123,0.0,9.578443721347433,0.0,-0.6733741106753866,0.0,88.20001620075907,-2.0589739613990123,0.0,-9.578443721347433,0.0,-0.6733741106753866,0.0
sim_raptor_glider_3dof,raptor_glider_3dof,0.001,-14.988003746590733,0.0,-0.000012415174634177188,11.992502827180262,0.0,-0.02526770405029525,0.0,0.0,0.0,-5.103039651887635,-0.0890648437852645,-0.0037133468875430262,0.0,0.0,0.0,0.0,0.0,-0.000044590487564095195,-0.0025548467438532376,0.0,0.0,11.992529446150822,0.000012415174634177188,0.03524208600355821,-0.002106955238988487,-0.12071964281701804,0.0,0.0,0.002062364751424392,0.1181647960731648,-7.507675599275719,0.0,-25.508550485583747,11.99250394195709,0.0,-0.024732952477174667,0.0,-88.71856693472195,0.0,0.0,-0.0890648437852645,0.0,0.4363323129985824,0.3490658503988659,1.0,0.14,0.14,0.75,0.08726646259971647,5.0,0.184,0.175,0.174,0.0,0.0,0.0,-0.053430186057496054,0.0,0.0554080780660455,0.0,6.0240249874908525,0.0,-0.5274002219771142,0.0,0.1957017793236076,0.0,-3.453669819760639,0.0,-0.03525814560644711,0.0,-0.029499655008724115,0.7671435812705255,-0.38877083359862435,0.165760584735996,0.0,0.0,0.0,0.7640118800492363,0.165760584735996,0.0,0.0,-0.386975379228011,0.0,0.0,-0.0005198685642560238,0.0,2.0442643995802876,0.0,9.422277857722193,0.0,-0.6681395275853911,0.0,88.09023322213056,-2.064112165078258,0.0,-9.417949773357746,0.0,-0.6681395275853911,0.0
sim_raptor_glider_3dof,raptor_glider_3dof,0.002,-14.976014997218163,0.0,-0.000049270492086499364,11.984983638081903,0.0,-0.051011581957007696,0.0,0.0,0.0,-10.166686259086081,-0.1774421492383174,-0.0074026192836820276,0.0,0.0,0.0,0.0,0.0,-0.00017790069037163533,-0.010192958730758345,0.0,0.0,11.985092197667264,0.000049270492086499364,0.03522023038486956,-0.004256265628603735,-0.24386605700559036,0.0,0.0,0.0040783649382321,0.233673098274832,-7.5312069778045,0.0,-25.97647568606275,11.984992523423195,0.0,-0.04887944429772272,0.0,-88.03854836579413,0.0,0.0,-0.1774421492383174,0.0,0.4363323129985824,0.3490658503988659,1.0,0.14,0.14,0.75,0.08726646259971647,5.0,0.184,0.175,0.174,0.0,0.0,0.0,-0.05371000072613438,0.0,0.05518325282971427,0.0,6.023796383437123,0.0,-0.5278990096560925,0.0,0.1932332307470952,0.0,-3.4519868033346692,0.0,-0.03462545852853912,0.0,-0.029153229463314653,0.758374006898808,-0.388063512765844,0.16478068235403653,0.0,0.0,0.0,0.7521311449211472,0.16478068235403653,0.0,0.0,-0.38448598859501065,0.0,0.0,-0.001036366699715484,0.0,2.0296598650783366,0.0,9.264255835778041,0.0,-0.6630183077427956,0.0,87.98100758981425,-2.069072495287059,0.0,-9.25553317577674,0.0,-0.6630183077427956,0.0
sim_raptor_glider_3dof,raptor_glider_3dof,0.003,-14.964033765483153,0.0,-0.00010997650410396534,11.977439408842296,0.0,-0.07721526894416839,0.0,0.0,0.0,-15.191799193026208,-0.2651469152201249,-0.011068367643203196,0.0,0.0,0.0,0.0,0.0,-0.0003992506169425001,-0.022875375318799577,0.0,0.0,11.97768829909372,0.00010997650410396534,0.035198472770559576,-0.006446636600632963,-0.3693650692708328,0.0,0.0,0.006047385983690463,0.3464896939520332,-7.557751963901034,0.0,-26.428240508352538,11.977469282477013,0.0,-0.07243326284374174,0.0,-87.37346069275941,0.0,0.0,-0.2651469152201249,0.0,0.4363323129985824,0.3490658503988659,1.0,0.14,0.14,0.75,0.08726646259971647,5.0,0.184,0.175,0.174,0.0,0.0,0.0,-0.0539933342342998,0.0,0.0549956890768542,0.0,6.023523849844041,0.0,-0.5284156910211553,0.0,0.1907277346999606,0.0,-3.450251759098094,0.0,-0.033984927296559594,0.0,-0.028807107836358457,0.7494038488665931,-0.387399686775176,0.16380724554970857,0.0,0.0,0.0,0.7400699681597184,0.16380724554970857,0.0,0.0,-0.38205327508479314,0.0,0.0,-0.0015495714700484477,0.0,2.015177614704102,0.0,9.104435082498677,0.0,-0.6580095324771711,0.0,87.87233904709669,-2.0738283182350847,0.0,-9.09125486919839,0.0,-0.6580095324771711,0.0
sim_raptor_glider_3dof,raptor_glider_3dof,0.004,-14.95206006146447,0.0,-0.00019393750269191865,11.969867139046595,0.0,-0.10386280993339823,0.0,0.0,0.0,-20.179227607931264,-0.35219396226773997,-0.01471113674262299,0.0,0.0,0.0,0.0,0.0,-0.0007079751977142588,-0.040563990828967035,0.0,0.0,11.970317740549529,0.00019393750269191865,0.03517681313159225,-0.008676805031272569,-0.49714430794979647,0.0,0.0,0.00796882983355831,0.4565803171208294,-7.587282867422961,0.0,-26.864252771312174,11.96993767151242,0.0,-0.09538841555743248,0.0,-86.72306067972036,0.0,0.0,-0.35219396226773997,0.0,0.4363323129985824,0.3490658503988659,1.0,0.14,0.14,0.75,0.08726646259971647,5.0,0.184,0.175,0.174,0.0,0.0,0.0,-0.054280487125545326,0.0,0.054843901706905056,0.0,6.023207997132767,0.0,-0.5289492506950555,0.0,0.18818569052618506,0.0,-3.4484661334741316,0.0,-0.033335929119057396,0.0,-0.028461722112779208,0.7402377623774763,-0.38677875516894367,0.16284159593212236,0.0,0.0,0.0,0.727832609270965,0.16284159593212236,0.0,0.0,-0.37967643521108574,0.0,0.0,-0.0020595591439672187,0.0,2.000833340210975,0.0,8.942873240625298,0.0,-0.6531113699789741,0.0,87.76422654166264,-2.078352616244555,0.0,-8.925175978978858,0.0,-0.6531113699789741,0.0
sim_raptor_glider_3dof,raptor_glider_3dof,0.005,-14.94009389182307,0.0,-0.0003005518855746,11.962263859629724,0.0,-0.13093865674169305,0.0,0.0,0.0,-25.12980322664479,-0.4385978066832464,-0.01833146045868009,0.0,0.0,0.0,0.0,0.0,-0.0011034240774344013,-0.06322154265010774,0.0,0.0,11.962980463882431,0.0003005518855746,0.035155251297077285,-0.010945539172903748,-0.6271331991024985,0.0,0.0,0.009842115095469346,0.5639116564523908,-7.619764933048298,0.0,-27.284916404279006,11.96240105817221,0.0,-0.11773912974501546,0.0,-86.08698535636344,0.0,0.0,-0.4385978066832464,0.0,0.4363323129985824,0.3490658503988659,1.0,0.14,0.14,0.75,0.08726646259971647,5.0,0.184,0.175,0.174,0.0,0.0,0.0,-0.05457182683161292,0.0,0.05472593032343835,0.0,6.022849768199583,0.0,-0.529498543215881,0.0,0.18560727572066893,0.0,-3.446631540314975,0.0,-0.03267769521599154,0.0,-0.028117473742245224,0.7308804509402165,-0.3861995880247053,0.16188493539638366,0.0,0.0,0.0,0.7154233824078116,0.16188493539638366,0.0,0.0,-0.37735413745313595,0.0,0.0,-0.002566404464215213,0.0,1.9866411722863777,0.0,8.779628219436473,0.0,-0.6483210867187731,0.0,87.65666831823584,-2.0826180146542357,0.0,-8.757357879177162,0.0,-0.6483210867187731,0.0
sim_raptor_glider_3dof,raptor_glider_3dof,0.006,-14.92813525992473,0.0,-0.0004292124397594923,11.954626639550906,0.0,-0.15842765930436845,0.0,0.0,0.0,-30.04433358782197,-0.5243725426750143,-0.02192985685369944,0.0,0.0,0.0,0.0,0.0,-0.0015849610904613313,-0.09081158117588696,0.0,0.0,11.955676367913814,0.0004292124397594923,0.03513378696968413,-0.01325163807797221,-0.7592629335026617,0.0,0.0,0.01166667698751088,0.6684513523267749,-7.65515672930522,0.0,-27.690630360815796,11.954862725505864,0.0,-0.13947985016959272,0.0,-85.46475387002384,0.0,0.0,-0.5243725426750143,0.0,0.4363323129985824,0.3490658503988659,1.0,0.14,0.14,0.75,0.08726646259971647,5.0,0.184,0.175,0.174,0.0,0.0,0.0,-0.05486778710977721,0.0,0.05463934182373924,0.0,6.022450437086101,0.0,-0.5300622937916623,0.0,0.18299244783751023,0.0,-3.444749760445701,0.0,-0.03200931203935526,0.0,-0.02777473367758559,0.7213366671206888,-0.3856605284654083,0.16093834608201854,0.0,0.0,0.0,0.7028466604815571,0.16093834608201854,0.0,0.0,-0.37508452678533377,0.0,0.0,-0.003070179959517922,0.0,1.9726136922696764,0.0,8.61475825857789,0.0,-0.6436350613951496,0.0,87.54966199755503,-2.0865968109073574,0.0,-8.58786227075033,0.0,-0.6436350613951496,0.0
sim_raptor_glider_3dof,raptor_glider_3dof,0.007,-14.916184165882276,0.0,-0.0005793064854676666,11.946952592434664,0.0,-0.18631506489291877,0.0,0.0,0.0,-34.923595341205655,-0.6095317253381911,-0.025506823267053384,0.0,0.0,0.0,0.0,0.0,-0.00215196395569408,-0.12329845232554847,0.0,0.0,11.94840531406963,0.0005793064854676666,0.03511241974218939,-0.015593931681301612,-0.8934664713539263,0.0,0.0,0.013441967725607532,0.7701680190283778,-7.693410528399182,0.0,-28.081787400130356,11.947325872576652,0.0,-0.1606052419691676,0.0,-84.85576962259707,0.0,0.0,-0.6095317253381911,0.0,0.4363323129985824,0.3490658503988659,1.0,0.14,0.14,0.75,0.08726646259971647,5.0,0.184,0.175,0.174,0.0,0.0,0.0,-0.05516886739682447,0.0,0.05458123429015566,0.0,6.022011606567932,0.0,-0.5306390995932566,0.0,0.18034094615955698,0.0,-3.442822740123928,0.0,-0.031329722669104235,0.0,-0.027433842397851762,0.7116112100401488,-0.3851593965008954,0.16000279048359145,0.0,0.0,0.0,0.6901068760336266,0.16000279048359145,0.0,0.0,-0.3728652305367967,0.0,0.0,-0.0035709552573874744,0.0,1.9587619456352325,0.0,8.448321951825605,0.0,-0.6390488010277785,0.0,87.4432046606849,-2.090261009781001,0.0,-8.416751218395161,0.0,-0.6390488010277785,0.0
sim_raptor_glider_3dof,raptor_glider_3dof,0.008,-14.904240606651282,0.0,-0.0007502161182813057,11.939238882633015,0.0,-0.21458650998107728,0.0,0.0,0.0,-39.768327695755914,-0.6940882563029905,-0.02906283149078703,0.0,0.0,0.0,0.0,0.0,-0.0028038236298313884,-0.16064726048838937,0.0,0.0,11.941167131685324,0.0007502161182813057,0.035091149113066274,-0.017971280258754233,-1.0296785112733915,0.0,0.0,0.015167456628922844,0.8690312507850021,-7.734472659743328,0.0,-28.458772998507442,11.939793614875626,0.0,-0.18111019026309105,0.0,-84.25932271685393,0.0,0.0,-0.6940882563029905,0.0,0.4363323129985824,0.3490658503988659,1.0,0.14,0.14,0.75,0.08726646259971647,5.0,0.184,0.175,0.174,0.0,0.0,0.0,-0.05547563193059443,0.0,0.054548242134604644,0.0,6.021535204946049,0.0,-0.5312274312413525,0.0,0.17765229454057654,0.0,-3.440852589499303,0.0,-0.030637728722487007,0.0,-0.027095110104628704,0.7017089249620452,-0.38469349440195466,0.1590791122370665,0.0,0.0,0.0,0.6772085241452388,0.1590791122370665,0.0,0.0,-0.37069336574289874,0.0,0.0,-0.004068796408710184,0.0,1.9450954633896698,0.0,8.280378294547667,0.0,-0.634556959380627,0.0,87.33729292823296,-2.0935823601488033,0.0,-8.244087212286694,0.0,-0.634556959380627,0.0
sim_raptor_glider_3dof,raptor_glider_3dof,0.009000000000000001,-14.892304576113405,0.0,-0.0009413184291606596,11.931482731000013,0.0,-0.24322801242629782,0.0,0.0,0.0,-44.57922600410458,-0.7780542717623,-0.03259832301805841,0.0,0.0,0.0,0.0,0.0,-0.0035399435977275817,-0.2028238278641469,0.0,0.0,11.933961623290918,0.0009413184291606596,0.03506997450201568,-0.020382573901800104,-1.1678354601866447,0.0,0.0,0.01684263030407252,0.9650116323224979,-7.778283843616755,0.0,-28.821964269395146,11.932268984822977,0.0,-0.20098980076623565,0.0,-83.67459264387269,0.0,0.0,-0.7780542717623,0.0,0.4363323129985824,0.3490658503988659,1.0,0.14,0.14,0.75,0.08726646259971647,5.0,0.184,0.175,0.174,0.0,0.0,0.0,-0.055788708736007504,0.0,0.0545365423304085,0.0,6.021023482042527,0.0,-0.531825634606743,0.0,0.17492580464570248,0.0,-3.4388415806117196,0.0,-0.029931992558805562,0.0,-0.02675881698380161,0.6916347024036031,-0.3842596132891834,0.15816803727685969,0.0,0.0,0.0,0.6641561648322319,0.15816803727685969,0.0,0.0,-0.3685655476778038,0.0,0.0,-0.004563765222528177,0.0,1.9316222876944662,0.0,8.110986723910683,0.0,-0.6301533572010052,0.0,87.23192303897322,-2.096532395351765,0.0,-8.0699332223392,0.0,-0.6301533572010052,0.0
sim_raptor_glider_3dof,raptor_glider_3dof,0.01,-14.88037606515921,0.0,-0.0011519857253842968,11.923681420343334,0.0,-0.27222596258209436,0.0,0.0,0.0,-49.356935507178044,-0.8614410332947542,-0.03611370438294382,0.0,0.0,0.0,0.0,0.0,-0.004359739052099519,-0.24979464746366856,0.0,0.0,11.926788569792983,0.0011519857253842968,0.03504889526519434,-0.022826731891997996,-1.3078753974881616,0.0,0.0,0.01846699283989848,1.058080750024493,-7.824779502619,0.0,-29.171728920063018,11.924754932281528,0.0,-0.22023940058925584,0.0,-83.10065118556057,0.0,0.0,-0.8614410332947542,0.0,0.4363323129985824,0.3490658503988659,1.0,0.14,0.14,0.75,0.08726646259971647,5.0,0.184,0.175,0.174,0.0,0.0,0.0,-0.05610878847395166,0.0,0.05454186162840115,0.0,6.020479004498773,0.0,-0.5324319328652451,0.0,0.17216057968112747,0.0,-3.4367921450673697,0.0,-0.02921103978427371,0.0,-0.02642521354291394,0.6813934773072167,-0.3838540408424605,0.15727017538811427,0.0,0.0,0.0,0.6509544254455103,0.15727017538811427,0.0,0.0,-0.3664778994650984,0.0,0.0,-0.0050559186136121355,0.0,1.9183490019530007,0.0,7.940207158086878,0.0,-0.6258310040784566,0.0,87.12709092666549,-2.099082476605616,0.0,-7.894352751368246,0.0,-0.6258310040784566,0.0
sim_raptor_glider_3dof,raptor_glider_3dof,0.01,-14.88037606515921,0.0,-0.0011519857253842968,11.923681420343334,0.0,-0.27222596258209436,0.0,0.0,0.0,-49.356935507178044,-0.8614410332947542,-0.03611370438294382,0.0,0.0,0.0,0.0,0.0,-0.004359739052099519,-0.24979464746366856,0.0,0.0,11.926788569792983,0.0011519857253842968,0.03504889526519434,-0.022826731891997996,-1.3078753974881616,0.0,0.0,0.01846699283989848,1.058080750024493,-7.612166702297808,0.0,-16.05037440971801,11.924754932281528,0.0,-0.22023940058925584,0.0,66.12533730633037,0.0,0.0,-0.8614410332947542,0.0,-0.4363323129985824,0.3490658503988659,1.0,0.14,0.14,0.75,0.08726646259971647,5.0,0.184,0.175,0.174,0.0,0.0,0.0,-0.7053507282225941,0.0,0.14024112382929724,0.0,5.983684139745125,0.0,-0.6093857227888235,0.0,0.17540147379810928,0.0,-3.3636131955025412,0.0,0.16958039102989914,0.0,-0.053779545377791824,0.38535334696349544,0.27460978793110297,0.15923011282214325,0.0,0.0,0.0,0.35510032694338234,0.15923011282214325,0.0,0.0,0.29161594249523565,0.0,0.0,-0.0050559186136121355,0.0,1.9422559125365313,0.0,4.33144018631586,0.0,0.497989915253974,0.0,87.12709092666549,-2.040613956517288,0.0,-4.2859802610233695,0.0,0.497989915253974,0.0
sim_raptor_glider_3dof,raptor_glider_3dof,0.011,-14.868454984811294,0.0,-0.0013750998963309728,11.916077614215562,0.0,-0.28779860179719613,0.0,0.0,0.0,-45.57820310447498,-0.7954897113157895,-0.03336910953143795,0.0,0.0,0.0,0.0,0.0,-0.00518817417417885,-0.29726048355921936,0.0,0.0,11.919552581502614,0.0013750998963309728,0.03502763108378916,-0.02414743094454653,-1.383545879206119,0.0,0.0,0.01895925677036768,1.0862853956468999,-7.595231621538993,0.0,-15.097083638041603,11.917410383718163,0.0,-0.22597231965911088,0.0,65.77765024940312,0.0,0.0,-0.7954897113157895,0.0,-0.4363323129985824,0.3490658503988659,1.0,0.14,0.14,0.75,0.08726646259971647,5.0,0.184,0.175,0.174,0.0,0.0,0.0,-0.7087172812812736,0.0,0.13962979498068814,0.0,5.97935278742316,0.0,-0.6103273647254828,0.0,0.17398641397127093,0.0,-3.352957067435901,0.0,0.1708132668545285,0.0,-0.05332050375109557,0.38004285708487673,0.2747710060117205,0.15896827032984123,0.0,0.0,0.0,0.3521092621521882,0.15896827032984123,0.0,0.0,0.29043493284096733,0.0,0.0,-0.004671675334401313,0.0,1.936709866140612,0.0,4.289745875417145,0.0,0.495371484028255,0.0,87.02140290198241,-2.0397215230954577,0.0,-4.241733241198219,0.0,0.495371484028255,0.0
sim_raptor_glider_3dof,raptor_glider_3dof,0.012,-14.85654123980352,0.0,-0.00160387021993988,11.908491915793192,0.0,-0.3024279123378293,0.0,0.0,0.0,-41.81932877868518,-0.7298849781620754,-0.030635689439055595,0.0,0.0,0.0,0.0,0.0,-0.005950848099427122,-0.34095848062062134,0.0,0.0,11.912331524545177,0.00160387021993988,0.035006410780643496,-0.02539052988744338,-1.454770202151283,0.0,0.0,0.01943968178801626,1.1138117215306615,-7.5759964214671145,0.0,-14.163018649735536,11.910080753071442,0.0,-0.23155734924638144,0.0,65.4319641521821,0.0,0.0,-0.7298849781620754,0.0,-0.4363323129985824,0.3490658503988659,1.0,0.14,0.14,0.75,0.08726646259971647,5.0,0.184,0.175,0.174,0.0,0.0,0.0,-0.71188072879581,0.0,0.13904441935374293,0.0,5.975269446724542,0.0,-0.61121526562615,0.0,0.17265090857197696,0.0,-3.3429280562925743,0.0,0.17196912377217163,0.0,-0.052886262520920796,0.3750427188656649,0.2749211513979678,0.15872666815821246,0.0,0.0,0.0,0.34941480899383065,0.15872666815821246,0.0,0.0,0.2892589582029237,0.0,0.0,-0.004288996521467784,0.0,1.9314241237664413,0.0,4.251763103974727,0.0,0.4927681220300834,0.0,86.91599690469486,-2.0387445021228094,0.0,-4.201358053445552,0.0,0.4927681220300834,0.0
sim_raptor_glider_3dof,raptor_glider_3dof,0.013000000000000001,-14.84463481844049,0.0,-0.001838167227408414,11.900926338527592,0.0,-0.3161313067461401,0.0,0.0,0.0,-38.08021566669826,-0.6646251432534122,-0.027913406090325915,0.0,0.0,0.0,0.0,0.0,-0.006648065725390059,-0.3809061079904285,0.0,0.0,11.90512438902529,0.001838167227408414,0.03498523138800814,-0.026557342897946087,-1.5216236631340416,0.0,0.0,0.019909277172556028,1.1407175551436133,-7.5547048451350935,0.0,-13.24788845671096,11.902764994421199,0.0,-0.2370067630809313,0.0,65.08810654577846,0.0,0.0,-0.6646251432534122,0.0,-0.4363323129985824,0.3490658503988659,1.0,0.14,0.14,0.75,0.08726646259971647,5.0,0.184,0.175,0.174,0.0,0.0,0.0,-0.7148453428745692,0.0,0.13848655854922673,0.0,5.971431500285224,0.0,-0.6120499035658734,0.0,0.1713940006591184,0.0,-3.333515258652601,0.0,0.17305016934149886,0.0,-0.052477208682966514,0.37034817872777953,0.2750603680901631,0.15850398356521903,0.0,0.0,0.0,0.34701255979065593,0.15850398356521903,0.0,0.0,0.2880873352073926,0.0,0.0,-0.003907876852645629,0.0,1.9263813491542967,0.0,4.217424118100814,0.0,0.49017853039625764,0.0,86.81085781047153,-2.0376924709933877,0.0,-4.164783390281518,0.0,0.49017853039625764,0.0
sim_raptor_glider_3dof,raptor_glider_3dof,0.014,-14.832735705815033,0.0,-0.002077848448390954,11.893383034461346,0.0,-0.3289293518264635,0.0,0.0,0.0,-34.36075241872689,-0.5997082631693895,-0.025202208652010397,0.0,0.0,0.0,0.0,0.0,-0.007280203418315716,-0.41712492986620553,0.0,0.0,11.89793068238784,0.002077848448390954,0.03496409145842616,-0.02764945224519281,-1.584196919498066,0.0,0.0,0.020369248826877094,1.1670719896318607,-7.531594724119629,0.0,-12.35134763368357,11.895462504542868,0.0,-0.24233515205316136,0.0,64.74594022006437,0.0,0.0,-0.5997082631693895,0.0,-0.4363323129985824,0.3490658503988659,1.0,0.14,0.14,0.75,0.08726646259971647,5.0,0.184,0.175,0.174,0.0,0.0,0.0,-0.7176160058098014,0.0,0.13795735441709228,0.0,5.967835157210356,0.0,-0.6128320360257293,0.0,0.1702144595522874,0.0,-3.324705667668265,0.0,0.174058731421612,0.0,-0.052093436918633475,0.36595329465701143,0.27518891780635846,0.15829898665380174,0.0,0.0,0.0,0.34489692690041684,0.15829898665380174,0.0,0.0,0.28691950743839206,0.0,0.0,-0.0035283092112814557,0.0,1.9215655851787885,0.0,4.186647553311099,0.0,0.4876016757973048,0.0,86.70597807161099,-2.036574883754798,0.0,-4.131923859009075,0.0,0.4876016757973048,0.0
sim_raptor_glider_3dof,raptor_glider_3dof,0.015,-14.82084388938958,0.0,-0.002322802579058901,11.885863658071663,0.0,-0.34084004691783776,0.0,0.0,0.0,-30.660848174657197,-0.5351327521018615,-0.022502061207921094,0.0,0.0,0.0,0.0,0.0,-0.00784759547539516,-0.4496341000661035,0.0,0.0,11.890749633048861,0.002322802579058901,0.03494298872446695,-0.028668229461340212,-1.6425685542473996,0.0,0.0,0.020820633985945053,1.192934454181296,-7.50689283991108,0.0,-11.473089182624243,11.888172413306688,0.0,-0.24755505922010723,0.0,64.40534352463473,0.0,0.0,-0.5351327521018615,0.0,-0.4363323129985824,0.3490658503988659,1.0,0.14,0.14,0.75,0.08726646259971647,5.0,0.184,0.175,0.174,0.0,0.0,0.0,-0.7201969947504068,0.0,0.13745778967243655,0.0,5.964477067585702,0.0,-0.6135623446960756,0.0,0.16911128578863008,0.0,-3.3164880270693913,0.0,0.17499682800802388,0.0,-0.05173494934944305,0.361852879535955,0.27530710337109604,0.15811061592510745,0.0,0.0,0.0,0.3430630556092273,0.15811061592510745,0.0,0.0,0.28575499769235946,0.0,0.0,-0.0031502885691089533,0.0,1.9169629039227793,0.0,4.1593611375266,0.0,0.4850366420840242,0.0,86.60134609407119,-2.035400399954803,0.0,-4.10270362800513,0.0,0.4850366420840242,0.0
sim_raptor_glider_3dof,raptor_glider_3dof,0.016,-14.808959357188973,0.0,-0.002572927638988157,11.878369688568672,0.0,-0.35188149500092675,0.0,0.0,0.0,-26.980416176003168,-0.47089709582959316,-0.019812929834317893,0.0,0.0,0.0,0.0,0.0,-0.008350582077878256,-0.4784531095400094,0.0,0.0,11.883580564999384,0.002572927638988157,0.03492192119956326,-0.02961505875414294,-1.6968178766443522,0.0,0.0,0.02126447667626468,1.2183647671043427,-7.480817263150468,0.0,-10.612802267829498,11.880893919580398,0.0,-0.2526790780982875,0.0,64.06621336014618,0.0,0.0,-0.47089709582959316,0.0,-0.4363323129985824,0.3490658503988659,1.0,0.14,0.14,0.75,0.08726646259971647,5.0,0.184,0.175,0.174,0.0,0.0,0.0,-0.7225925522847823,0.0,0.1369886122510987,0.0,5.961353624443259,0.0,-0.6142415836381853,0.0,0.16808346220737477,0.0,-3.3088510208649096,0.0,0.1758663875909697,0.0,-0.05140160587402089,0.35804161750400565,0.27541527887436074,0.15793792010842078,0.0,0.0,0.0,0.3415059541529945,0.15793792010842078,0.0,0.0,0.2845934035095658,0.0,0.0,-0.0027738101768045053,0.0,1.9125608106743428,0.0,4.135491363167205,0.0,0.48248265281526087,0.0,86.49695170289573,-2.034177082595004,0.0,-4.077045654147513,0.0,0.48248265281526087,0.0
sim_raptor_glider_3dof,raptor_glider_3dof,0.017,-14.797082097960116,0.0,-0.0028281331885893633,11.870902406838681,0.0,-0.3620715317121964,0.0,0.0,0.0,-23.319374709078065,-0.40699986817970707,-0.017134783481103193,0.0,0.0,0.0,0.0,0.0,-0.008789502442870665,-0.5036013939964161,0.0,0.0,11.876422851463516,0.0028281331885893633,0.0349008870418276,-0.030491305884108054,-1.7470231390018047,0.0,0.0,0.02170180344123739,1.2434217450053886,-7.453576978463193,0.0,-9.7701785925238,11.87362625204771,0.0,-0.2577195635729379,0.0,63.728460623858396,0.0,0.0,-0.40699986817970707,0.0,-0.4363323129985824,0.3490658503988659,1.0,0.14,0.14,0.75,0.08726646259971647,5.0,0.184,0.175,0.174,0.0,0.0,0.0,-0.7248068095852592,0.0,0.13655037695328717,0.0,5.958461098121986,0.0,-0.614870546870691,0.0,0.16712997995527712,0.0,-3.3017835174299957,0.0,0.17666923177683297,0.0,-0.05109316017490148,0.3545142024254324,0.2755138313132126,0.15778005076027893,0.0,0.0,0.0,0.3402206307138669,0.15778005076027893,0.0,0.0,0.28343437970738194,0.0,0.0,-0.002398869687354447,0.0,1.9083481306097534,0.0,4.1149651143421355,0.0,0.4799390369582776,0.0,86.39278546369668,-2.0329123036957486,0.0,-4.054873369827591,0.0,0.4799390369582776,0.0
sim_raptor_glider_3dof,raptor_glider_3dof,0.018000000000000002,-14.785212101320061,0.0,-0.003088342607482395,11.863462862075345,0.0,-0.3714276465673044,0.0,0.0,0.0,-19.67764754736684,-0.34343973874853817,-0.014467594427581866,0.0,0.0,0.0,0.0,0.0,-0.009164694222060404,-0.5250982994519925,0.0,0.0,11.8692758657163,0.003088342607482395,0.03487988440952217,-0.0312983115805495,-1.7932611594509151,0.0,0.0,0.022133617358489094,1.2681628599989228,-7.425371798997924,0.0,-8.944914087255327,11.866368622984181,0.0,-0.26268856071777646,0.0,63.39200652766464,0.0,0.0,-0.34343973874853817,0.0,-0.4363323129985824,0.3490658503988659,1.0,0.14,0.14,0.75,0.08726646259971647,5.0,0.184,0.175,0.174,0.0,0.0,0.0,-0.7268437721256449,0.0,0.13614347286463743,0.0,5.955795686412966,0.0,-0.6154500546654423,0.0,0.16624983937547963,0.0,-3.295274616440452,0.0,0.1774070796088846,0.0,-0.050809284094494055,0.35126537603532737,0.2756031672053001,0.1576362514381299,0.0,0.0,0.0,0.33920213092748835,0.1576362514381299,0.0,0.0,0.2822776247402433,0.0,0.0,-0.0020254632198614614,0.0,1.9043148540923165,0.0,4.097710079832167,0.0,0.4774052011598424,0.0,86.28883796530114,-2.031612680782069,0.0,-4.036111108128749,0.0,0.4774052011598424,0.0
sim_raptor_glider_3dof,raptor_glider_3dof,0.019000000000000003,-14.773349357614872,0.0,-0.003353490299232846,11.856051923444632,0.0,-0.3799670488070559,0.0,0.0,0.0,-16.055162332167914,-0.2802154446385016,-0.011811337066882744,0.0,0.0,0.0,0.0,0.0,-0.009476493880935535,-0.5429631039591563,0.0,0.0,11.86213902167709,0.003353490299232846,0.03485891158034937,-0.03203739690320927,-1.8356076291393846,0.0,0.0,0.02256090302227373,1.2926445251802283,-7.396392506506426,0.0,-8.136708231733925,11.859120268882467,0.0,-0.2675978657899245,0.0,63.056780384221916,0.0,0.0,-0.2802154446385016,0.0,-0.4363323129985824,0.3490658503988659,1.0,0.14,0.14,0.75,0.08726646259971647,5.0,0.184,0.175,0.174,0.0,0.0,0.0,-0.7287073356376152,0.0,0.13576814226428052,0.0,5.953353521917451,0.0,-0.6159809495098776,0.0,0.16544203898765558,0.0,-3.2893136002151353,0.0,0.17808156176460896,0.0,-0.05054958500306644,0.3482899165177397,0.2756837023505268,0.15750584600007367,0.0,0.0,0.0,0.33844552740014444,0.15750584600007367,0.0,0.0,0.281122869181642,0.0,0.0,-0.0016535871893635843,0.0,1.9004520013646429,0.0,4.083654646699372,0.0,0.47488061307357526,0.0,86.18510040953173,-2.030284063155592,0.0,-4.02068398483351,0.0,0.47488061307357526,0.0
sim_raptor_glider_3dof,raptor_glider_3dof,0.02,-14.761493857941932,0.0,-0.0036235222700987785,11.848670274951056,0.0,-0.3877066507509921,0.0,0.0,0.0,-12.451850550668714,-0.21732579007543806,-0.0091659879615066,0.0,0.0,0.0,0.0,0.0,-0.00972523666149849,-0.5572150154697623,0.0,0.0,11.855011755858586,0.0036235222700987785,0.03483796689840602,-0.03270986180283118,-1.874137029758409,0.0,0.0,0.022984625141332694,1.3169220142886466,-7.366820914843116,0.0,-7.345264676273084,11.85188043389624,0.0,-0.27245901007818857,0.0,62.72271714395866,0.0,0.0,-0.21732579007543806,0.0,-0.4363323129985824,0.3490658503988659,1.0,0.14,0.14,0.75,0.08726646259971647,5.0,0.184,0.175,0.174,0.0,0.0,0.0,-0.7304012848690851,0.0,0.13542450052882019,0.0,5.951130698752534,0.0,-0.6164640881920406,0.0,0.16470557281287354,0.0,-3.2838899406082938,0.0,0.17869422750512892,0.0,-0.05031362300399432,0.34558265311460584,0.27575585244018,0.15738822933954338,0.0,0.0,0.0,0.3379459341867093,0.15738822933954338,0.0,0.0,0.279969865832934,0.0,0.0,-0.0012832383146109242,0.0,1.8967514987939265,0.0,4.072728055139922,0.0,0.4723647828111527,0.0,86.08156434720898,-2.0289315060796707,0.0,-4.008518055708131,0.0,0.4723647828111527,0.0
sim_raptor_glider_3dof,raptor_glider_3dof,0.02,-14.761493857941932,0.0,-0.0036235222700987785,11.848670274951056,0.0,-0.3877066507509921,0.0,0.0,0.0,-12.451850550668714,-0.21732579007543806,-0.0091659879615066,0.0,0.0,0.0,0.0,0.0,-0.00972523666149849,-0.5572150154697623,0.0,0.0,11.855011755858586,0.0036235222700987785,0.03483796689840602,-0.03270986180283118,-1.874137029758409,0.0,0.0,0.022984625141332694,1.3169220142886466,-7.366820914843116,0.0,-7.345264676273084,11.85188043389624,0.0,-0.27245901007818857,0.0,62.72271714395866,0.0,0.0,-0.21732579007543806,0.0,-0.4363323129985824,0.3490658503988659,1.0,0.14,0.14,0.75,0.08726646259971647,5.0,0.184,0.175,0.174,0.0,0.0,0.0,-0.7304012848690851,0.0,0.13542450052882019,0.0,5.951130698752534,0.0,-0.6164640881920406,0.0,0.16470557281287354,0.0,-3.2838899406082938,0.0,0.17869422750512892,0.0,-0.05031362300399432,0.34558265311460584,0.27575585244018,0.15738822933954338,0.0,0.0,0.0,0.3379459341867093,0.15738822933954338,0.0,0.0,0.279969865832934,0.0,0.0,-0.0012832383146109242,0.0,1.8967514987939265,0.0,4.072728055139922,0.0,0.4723647828111527,0.0,86.08156434720898,-2.0289315060796707,0.0,-4.008518055708131,0.0,0.4723647828111527,0.0
sim_raptor_glider_3dof,raptor_glider_3dof,0.021,-14.74964559436695,0.0,-0.003898394493832915,11.841318452531631,0.0,-0.39466432613947183,0.0,0.0,0.0,-8.867644396279765,-0.1547695916111067,-0.006531523531071232,0.0,0.0,0.0,0.0,0.0,-0.009911276998730902,-0.56787434161237,0.0,0.0,11.84789359441556,0.003898394493832915,0.03481704897121737,-0.03331709111240194,-1.9089287063934564,0.0,0.0,0.023405814113671042,1.3410543647810864,-7.336830178428933,0.0,-6.570271799886573,11.844648414153252,0.0,-0.2772842759517605,0.0,62.3897582841724,0.0,0.0,-0.1547695916111067,0.0,-0.4363323129985824,0.3490658503988659,1.0,0.14,0.14,0.75,0.08726646259971647,5.0,0.184,0.175,0.174,0.0,0.0,0.0,-0.73192956263861,0.0,0.13511249855923102,0.0,5.949122941197802,0.0,-0.6169004119942954,0.0,0.16403931061105045,0.0,-3.2789924400703097,0.0,0.17924664839074944,0.0,-0.05010088820086308,0.3431380470225911,0.275820036430416,0.15728284061769593,0.0,0.0,0.0,0.3376980899154374,0.15728284061769593,0.0,0.0,0.2788183907096894,0.0,0.0,-0.0009144132943499727,0.0,1.8932058725562002,0.0,4.064855418862434,0.0,0.46985726963810237,0.0,85.97822265021884,-2.027559318156224,0.0,-3.9995351309238982,0.0,0.46985726963810237,0.0
sim_raptor_glider_3dof,raptor_glider_3dof,0.022,-14.737804558462654,0.0,-0.004178078484223343,11.83399674510258,0.0,-0.4008551918174518,0.0,0.0,0.0,-5.302483277706717,-0.09254579172792304,-0.003907925030581802,0.0,0.0,0.0,0.0,0.0,-0.010034934696817632,-0.5749594058170426,0.0,0.0,11.84078392032831,0.004178078484223343,0.03479615598556616,-0.03386024122837152,-1.9400489156805545,0.0,0.0,0.02382530653155389,1.3650895098635119,-7.306584132666381,0.0,-5.811460993376182,11.837423397034492,0.0,-0.2820836174715256,0.0,62.057841517839094,0.0,0.0,-0.09254579172792304,0.0,-0.4363323129985824,0.3490658503988659,1.0,0.14,0.14,0.75,0.08726646259971647,5.0,0.184,0.175,0.174,0.0,0.0,0.0,-0.7332954835955845,0.0,0.13483209872186677,0.0,5.947326656220809,0.0,-0.6172907164174394,0.0,0.16344233900377927,0.0,-3.274611755150874,0.0,0.1797401397191917,0.0,-0.04991092275092888,0.3409514592671246,0.2758766369484553,0.1571892102413532,0.0,0.0,0.0,0.33769762032843975,0.1571892102413532,0.0,0.0,0.27766820816253013,0.0,0.0,-0.0005471095042814524,0.0,1.8898087354279096,0.0,4.059972766896758,0.0,0.46735760447084623,0.0,85.87506613054957,-2.02617088088059,0.0,-3.993668424633487,0.0,0.46735760447084623,0.0
sim_raptor_glider_3dof,raptor_glider_3dof,0.023,-14.725970744447679,0.0,-0.0044625542428136655,11.826705333461348,0.0,-0.4062951972075521,0.0,0.0,0.0,-1.7563114082563327,-0.030653416764411325,-0.001295176606919175,0.0,0.0,0.0,0.0,0.0,-0.010096534308939985,-0.5784888036112964,0.0,0.0,11.833682217796666,0.0044625542428136655,0.034775286425685926,-0.034340542208090144,-1.96756813471443,0.0,0.0,0.02424400789915016,1.3890793311031338,-7.276238625348847,0.0,-5.068551734292679,11.830204635084048,0.0,-0.2868677810994168,0.0,61.72690835608019,0.0,0.0,-0.030653416764411325,0.0,-0.4363323129985824,0.3490658503988659,1.0,0.14,0.14,0.75,0.08726646259971647,5.0,0.184,0.175,0.174,0.0,0.0,0.0,-0.7345024974952754,0.0,0.13458313354079562,0.0,5.945737949059723,0.0,-0.6176358638583583,0.0,0.16291362867157527,0.0,-3.27073795700081,0.0,0.1801760414376707,0.0,-0.049743225187181994,0.339017939980342,0.27592602745101613,0.15710690056839474,0.0,0.0,0.0,0.3379398306819929,0.15710690056839474,0.0,0.0,0.27651909311151396,0.0,0.0,-0.00018132472496868452,0.0,1.88655414610282,0.0,4.058012642346362,0.0,0.4648653468296399,0.0,85.77208708926776,-2.024768840956077,0.0,-3.9908475656574534,0.0,0.4648653468296399,0.0
sim_raptor_glider_3dof,raptor_glider_3dof,0.024,-14.714144147170186,0.0,-0.0047518122256898975,11.819444243482238,0.0,-0.4109981569042514,0.0,0.0,0.0,1.7709190451222354,0.030908368123657035,0.0013067322691025863,0.0,0.0,0.0,0.0,0.0,-0.010096365538756457,-0.5784791337920726,0.0,0.0,11.826587914938276,0.0047518122256898975,0.03475443861100319,-0.03475904734872676,-1.991546712977437,0.0,0.0,0.024662681809970298,1.4130675791853642,-7.245941400033312,0.0,-4.341297763861315,11.82299134876581,0.0,-0.2916458070552412,0.0,61.39689609357227,0.0,0.0,0.030908368123657035,0.0,-0.4363323129985824,0.3490658503988659,1.0,0.14,0.14,0.75,0.08726646259971647,5.0,0.184,0.175,0.174,0.0,0.0,0.0,-0.7355535619146275,0.0,0.13436544662474315,0.0,5.944353463493402,0.0,-0.6179365999827207,0.0,0.16245230847724068,0.0,-3.267362548603615,0.0,0.18055549570885568,0.0,-0.04959734649885276,0.337333241100638,0.2759685421397673,0.15703554333600947,0.0,0.0,0.0,0.3384207160891958,0.15703554333600947,0.0,0.0,0.27537080260897084,0.0,0.0,0.00018294251767436207,0.0,1.8834370052542773,0.0,4.058916131255767,0.0,0.4623800244806928,0.0,85.66927703313823,-2.023354993917029,0.0,-3.991011110222634,0.0,0.4623800244806928,0.0
sim_raptor_glider_3dof,raptor_glider_3dof,0.025,-14.702324760471393,0.0,-0.0050458495977818724,11.812213372549541,0.0,-0.41498221867427487,0.0,0.0,0.0,5.279268594613682,0.09214061907314253,0.003897821997916739,0.0,0.0,0.0,0.0,0.0,-0.010034813564706415,-0.5749524654583065,0.0,0.0,11.819500623988056,0.0050458495977818724,0.03473361140200434,-0.035117179478023786,-2.0120661724941904,0.0,0.0,0.02508236591331737,1.4371137070358837,-7.2158317245096315,0.0,-3.6293843769853726,11.81578284676974,0.0,-0.29642995536216404,0.0,61.06775033911273,0.0,0.0,0.09214061907314253,0.0,-0.4363323129985824,0.3490658503988659,1.0,0.14,0.14,0.75,0.08726646259971647,5.0,0.184,0.175,0.174,0.0,0.0,0.0,-0.7364525164637237,0.0,0.13417861842975504,0.0,5.943168584781322,0.0,-0.6181939432096246,0.0,0.1620570624928119,0.0,-3.2644740566383077,0.0,0.18087994656995993,0.0,-0.04947270677314339,0.3358916210740384,0.27600452822987015,0.15697474163419314,0.0,0.0,0.0,0.3391347789286308,0.15697474163419314,0.0,0.0,0.2742231207993271,0.0,0.0,0.0005456950797083435,0.0,1.8804519525488514,0.0,4.0626068281717345,0.0,0.45990122780385795,0.0,85.56663015483143,-2.021930541379068,0.0,-3.9940794523883643,0.0,0.45990122780385795,0.0
sim_raptor_glider_3dof,raptor_glider_3dof,0.026000000000000002,-14.690512580201588,0.0,-0.00534467812096219,11.805012462707847,0.0,-0.41826193168193115,0.0,0.0,0.0,8.768782804103418,0.15304413132386557,0.006478102433713581,0.0,0.0,0.0,0.0,0.0,-0.00991219379201822,-0.5679268699984193,0.0,0.0,11.812419832031956,0.00534467812096219,0.03471280329140426,-0.03541606105283574,-2.0291908253051387,0.0,0.0,0.02550386726081752,1.4612639553067195,-7.186041157288524,0.0,-2.9325551703219386,11.808578362291728,0.0,-0.30122972927232966,0.0,60.73940820156776,0.0,0.0,0.15304413132386557,0.0,-0.4363323129985824,0.3490658503988659,1.0,0.14,0.14,0.75,0.08726646259971647,5.0,0.184,0.175,0.174,0.0,0.0,0.0,-0.7372024023043139,0.0,0.1340223230264797,0.0,5.942179664210378,0.0,-0.6184087007911929,0.0,0.16172686791109173,0.0,-3.2620634327828064,0.0,0.18115053618838373,0.0,-0.04936883446596,0.3346885446648634,0.2760342753471328,0.15692418003996264,0.0,0.0,0.0,0.34007771146106325,0.15692418003996264,0.0,0.0,0.2730757979983354,0.0,0.0,0.0009069343407199015,0.0,1.8775945876543516,0.0,4.069022825281366,0.0,0.4574284831660068,0.0,85.46413884973892,-2.0204958165652087,0.0,-3.9999881054188346,0.0,0.4574284831660068,0.0
sim_raptor_glider_3dof,raptor_glider_3dof,0.027,-14.678707602722298,0.0,-0.005648318319372907,11.797841132250637,0.0,-0.42085224823444123,0.0,0.0,0.0,12.239505901596969,0.21361967680014418,0.009047582925615553,0.0,0.0,0.0,0.0,0.0,-0.009728834557350102,-0.5574211597171873,0.0,0.0,11.805345060466,0.005648318319372907,0.03469201287274383,-0.03565685193253875,-2.042987126457364,0.0,0.0,0.02592801737518865,1.4855659667401764,-7.15669360464893,0.0,-2.2505483686908807,11.801377139821394,0.0,-0.3060548976408966,0.0,60.41180608539798,0.0,0.0,0.21361967680014418,0.0,-0.4363323129985824,0.3490658503988659,1.0,0.14,0.14,0.75,0.08726646259971647,5.0,0.184,0.175,0.174,0.0,0.0,0.0,-0.7378063130619453,0.0,0.13389616025103407,0.0,5.9413829086900565,0.0,-0.6185817095175973,0.0,0.16146062330290292,0.0,-3.260121328092386,0.0,0.1813684146120413,0.0,-0.04928525288699535,0.33371932564402323,0.276058048629155,0.1568835631847994,0.0,0.0,0.0,0.34124504728231236,0.1568835631847994,0.0,0.0,0.27192857810026727,0.0,0.0,0.0012666616095861776,0.0,1.874860780888312,0.0,4.078100617005712,0.0,0.45496131162913217,0.0,85.36179602738873,-2.0190504664723385,0.0,-4.008670952319901,0.0,0.45496131162913217,0.0
sim_raptor_glider_3dof,raptor_glider_3dof,0.028,-14.666909825101046,0.0,-0.0059567997613304315,11.790698886690649,0.0,-0.42276787833908397,0.0,0.0,0.0,15.691478641553939,0.27386796680148334,0.011606270712712101,0.0,0.0,0.0,0.0,0.0,-0.009485063509766087,-0.5434541075231405,0.0,0.0,11.798275845036148,0.0059567997613304315,0.03467123878173366,-0.035840694769278314,-2.0535205450962533,0.0,0.0,0.02635563125951223,1.5100664375731128,-7.127905613555484,0.0,-1.5831072200925451,11.79417842717422,0.0,-0.3109150101582008,0.0,60.08487816299188,0.0,0.0,0.27386796680148334,0.0,-0.4363323129985824,0.3490658503988659,1.0,0.14,0.14,0.75,0.08726646259971647,5.0,0.184,0.175,0.174,0.0,0.0,0.0,-0.7382672598518042,0.0,0.13379969039621825,0.0,5.940774566914107,0.0,-0.6187137949026927,0.0,0.16125720941348728,0.0,-3.2586385324023377,0.0,0.18153469306175207,0.0,-0.04922150247300536,0.3329793484776654,0.2760760823497436,0.1568526219920555,0.0,0.0,0.0,0.34263238177901745,0.1568526219920555,0.0,0.0,0.27078119261507255,0.0,0.0,0.0016248778997796944,0.0,1.8722467396812192,0.0,4.089777726045711,0.0,0.4524992174454919,0.0,85.25959482143907,-2.017593461446604,0.0,-4.020062975506042,0.0,0.4524992174454919,0.0
sim_raptor_glider_3dof,raptor_glider_3dof,0.029,-14.655119245269645,0.0,-0.006270162801418122,11.783585101750008,0.0,-0.42402324176356176,0.0,0.0,0.0,19.124737426942474,0.33378963667953465,0.01415417028060077,0.0,0.0,0.0,0.0,0.0,-0.009181207521581861,-0.5260444418204073,0.0,0.0,11.791211708715116,0.006270162801418122,0.03465047961654799,-0.03596871092849913,-2.0608553307290807,0.0,0.0,0.02678750340691727,1.5348108889086736,-7.099786610851725,0.0,-0.9299808912697021,11.78698144979302,0.0,-0.31581935022361773,0.0,59.75855594698301,0.0,0.0,0.33378963667953465,0.0,-0.4363323129985824,0.3490658503988659,1.0,0.14,0.14,0.75,0.08726646259971647,5.0,0.184,0.175,0.174,0.0,0.0,0.0,-0.7385881632325653,0.0,0.13373244168808648,0.0,5.9403509471256,0.0,-0.6188057670826274,0.0,0.1611154946635043,0.0,-3.2576060064631407,0.0,0.18165044264730756,0.0,-0.04917714441437899,0.3324640860869057,0.27608857934358505,0.15683111176071046,0.0,0.0,0.0,0.3442353895234058,0.15683111176071046,0.0,0.0,0.26963335992642284,0.0,0.0,0.0019815838392841082,0.0,1.8697489750756202,0.0,4.103992884576291,0.0,0.4500416848367291,0.0,85.15752819724966,-2.0161231195802642,0.0,-4.034100444106852,0.0,0.4500416848367291,0.0
sim_raptor_glider_3dof,raptor_glider_3dof,0.03,-14.643335861874272,0.0,-0.006588456154048799,11.776499057425408,0.0,-0.4246325317894241,0.0,0.0,0.0,22.539314969389775,0.3933852573598965,0.016691283811423065,0.0,0.0,0.0,0.0,0.0,-0.008817592927774131,-0.5052108602258606,0.0,0.0,11.784152189979364,0.006588456154048799,0.03462973402092146,-0.03604200571010365,-2.0650548123753527,0.0,0.0,0.02722441278232952,1.5598439521494922,-7.07243918706911,0.0,-0.290923495387025,11.779785437604758,0.0,-0.3207769951076897,0.0,59.4327686664257,0.0,0.0,0.3933852573598965,0.0,-0.4363323129985824,0.3490658503988659,1.0,0.14,0.14,0.75,0.08726646259971647,5.0,0.184,0.175,0.174,0.0,0.0,0.0,-0.7387718684345768,0.0,0.133693911980574,0.0,5.940108402992207,0.0,-0.6188584237532333,0.0,0.1610343306551867,0.0,-3.257014839306611,0.0,0.181716701111756,0.0,-0.04915176016342843,0.332169079718268,0.276095711883541,0.1568188091292433,0.0,0.0,0.0,0.34604980464976265,0.1568188091292433,0.0,0.0,0.2684847856150173,0.0,0.0,0.0023367797335992293,0.0,1.867364272664111,0.0,4.120685811564803,0.0,0.447588180826852,0.0,85.05558936059904,-2.0146371553110334,0.0,-4.0507206787057175,0.0,0.447588180826852,0.0
sim_raptor_glider_3dof,raptor_glider_3dof,0.03,-14.643335861874272,0.0,-0.006588456154048799,11.776499057425408,0.0,-0.4246325317894241,0.0,0.0,0.0,22.539314969389775,0.3933852573598965,0.016691283811423065,0.0,0.0,0.0,0.0,0.0,-0.008817592927774131,-0.5052108602258606,0.0,0.0,11.784152189979364,0.006588456154048799,0.03462973402092146,-0.03604200571010365,-2.0650548123753527,0.0,0.0,0.02722441278232952,1.5598439521494922,-7.07243918706911,0.0,-0.290923495387025,11.779785437604758,0.0,-0.3207769951076897,0.0,59.4327686664257,0.0,0.0,0.3933852573598965,0.0,-0.4363323129985824,0.3490658503988659,1.0,0.14,0.14,0.75,0.08726646259971647,5.0,0.184,0.175,0.174,0.0,0.0,0.0,-0.7387718684345768,0.0,0.133693911980574,0.0,5.940108402992207,0.0,-0.6188584237532333,0.0,0.1610343306551867,0.0,-3.257014839306611,0.0,0.181716701111756,0.0,-0.04915176016342843,0.332169079718268,0.276095711883541,0.1568188091292433,0.0,0.0,0.0,0.34604980464976265,0.1568188091292433,0.0,0.0,0.2684847856150173,0.0,0.0,0.0023367797335992293,0.0,1.867364272664111,0.0,4.120685811564803,0.0,0.447588180826852,0.0,85.05558936059904,-2.0146371553110334,0.0,-4.0507206787057175,0.0,0.447588180826852,0.0
sim_raptor_glider_3dof,raptor_glider_3dof,0.031,-14.631559677393945,0.0,-0.006911745560555664,11.769439869468576,0.0,-0.42461056650294166,0.0,0.0,0.0,25.935234105348222,0.4526552274138524,0.019217606647997924,0.0,0.0,0.0,0.0,0.0,-0.008394547709210285,-0.48097215465896276,0.0,0.0,11.777096797353007,0.006911745560555664,0.034609000550568654,-0.03606174072581561,-2.0661855454842724,0.0,0.0,0.027667193016605328,1.5852133908253099,-7.045959025012468,0.0,0.3343179977751358,11.77258955671705,0.0,-0.32579764164140285,0.0,59.10744528470965,0.0,0.0,0.4526552274138524,0.0,-0.4363323129985824,0.3490658503988659,1.0,0.14,0.14,0.75,0.08726646259971647,5.0,0.184,0.175,0.174,0.0,0.0,0.0,-0.7388213288350519,0.0,0.1336835343144589,0.0,5.940043096259285,0.0,-0.6188726016681834,0.0,0.1610124735412843,0.0,-3.256855664172534,0.0,0.18173453992810681,0.0,-0.049144926908901,0.3320896481184637,0.2760976295434845,0.15681549817770674,0.0,0.0,0.0,0.34807112575591304,0.15681549817770674,0.0,0.0,0.26733517359461245,0.0,0.0,0.0026904649307197097,0.0,1.8650895112231909,0.0,4.139793664216355,0.0,0.4451381704391484,0.0,84.95377110119338,-2.0131327265489425,0.0,-4.069858362702351,0.0,0.4451381704391484,0.0
sim_raptor_glider_3dof,raptor_glider_3dof,0.032,-14.619790686081966,0.0,-0.007240088925791211,11.762406671865218,0.0,-0.4239704211562444,0.0,0.0,0.0,29.312532496063856,0.5116002041541461,0.021733145448944342,0.0,0.0,0.0,0.0,0.0,-0.007912419997980475,-0.45334827161919256,0.0,0.0,11.770045098994089,0.007240088925791211,0.034588277936448586,-0.03602893245954457,-2.0643057702938004,0.0,0.0,0.028116512461564096,1.610957498674608,-7.020435656329582,0.0,0.9459714642470338,11.765393069910605,0.0,-0.33088901893886846,0.0,58.78250858790201,0.0,0.0,0.5116002041541461,0.0,-0.4363323129985824,0.3490658503988659,1.0,0.14,0.14,0.75,0.08726646259971647,5.0,0.184,0.175,0.174,0.0,0.0,0.0,-0.7387391031684506,0.0,0.1337007857767374,0.0,5.9401516646448025,0.0,-0.6188490317027723,0.0,0.1610488089034811,0.0,-3.257120283132045,0.0,0.18170488359713177,0.0,-0.04915628715303584,0.3322216984414348,0.2760944408918043,0.1568210028067074,0.0,0.0,0.0,0.3502954436577468,0.1568210028067074,0.0,0.0,0.26618419525168213,0.0,0.0,0.003042640362852208,0.0,1.8629220750824131,0.0,4.161260947904696,0.0,0.44269107217549003,0.0,84.85206708561824,-2.011606446925344,0.0,-4.091455833450294,0.0,0.44269107217549003,0.0
sim_raptor_glider_3dof,raptor_glider_3dof,0.033,-14.60802889195629,0.0,-0.007573563267828214,11.75539847725383,0.0,-0.4227253036954459,0.0,0.0,0.0,32.67122226185128,0.5702203991201737,0.02423788837098965,0.0,0.0,0.0,0.0,0.0,-0.007371509698828057,-0.42235639438260025,0.0,0.0,11.762996643772627,0.007573563267828214,0.03456756485283913,-0.0359446115760766,-2.059474539546271,0.0,0.0,0.02857310187724854,1.637118145163671,-6.995953110436026,0.0,1.5442615285950616,11.758195184943679,0.0,-0.3360595693822625,0.0,58.45788167243933,0.0,0.0,0.5702203991201737,0.0,-0.4363323129985824,0.3490658503988659,1.0,0.14,0.14,0.75,0.08726646259971647,5.0,0.184,0.175,0.174,0.0,0.0,0.0,-0.7385277567792176,0.0,0.13374510599795075,0.0,5.94043069518513,0.0,-0.6187884533261513,0.0,0.1611421772498378,0.0,-3.2578003822184223,0.0,0.18162865474681228,0.0,-0.049185492789351325,0.3325610848740248,0.27608623057090587,0.15683515891913274,0.0,0.0,0.0,0.3527187743231945,0.15683515891913274,0.0,0.0,0.265031522291021,0.0,0.0,0.0033933043719385513,0.0,1.860859496083075,0.0,4.185031501670691,0.0,0.4402463068751406,0.0,84.75047071750075,-2.0100544372487277,0.0,-4.1154547614371,0.0,0.4402463068751406,0.0
sim_raptor_glider_3dof,raptor_glider_3dof,0.034,-14.596274296528929,0.0,-0.007912240830523271,11.748414341650495,0.0,-0.420886833058476,0.0,0.0,0.0,36.01131702629437,0.6285160500883301,0.026731824886278267,0.0,0.0,0.0,0.0,0.0,-0.006772101103407581,-0.38801281166114227,0.0,0.0,11.755951057627835,0.007912240830523271,0.03454686020049909,-0.03580967607750526,-2.05174330497164,0.0,0.0,0.029037574974097678,1.6637304933104977,-6.972590558511637,0.0,2.1293876914598204,11.750995209989606,0.0,-0.3413163402803254,0.0,58.133483197670756,0.0,0.0,0.6285160500883301,0.0,-0.4363323129985824,0.3490658503988659,1.0,0.14,0.14,0.75,0.08726646259971647,5.0,0.184,0.175,0.174,0.0,0.0,0.0,-0.7381894953806272,0.0,0.13381597591472194,0.0,5.940877210004961,0.0,-0.6186915093322258,0.0,0.1612915385783551,0.0,-3.258888716001738,0.0,0.18150664217488044,0.0,-0.04923225474192011,0.33310419925231305,0.2760730467924021,0.1568578383197588,0.0,0.0,0.0,0.3553376677471358,0.1568578383197588,0.0,0.0,0.2638768008451983,0.0,0.0,0.003742455484078958,0.0,1.858899766338073,0.0,4.2110557854287425,0.0,0.4378032619616585,0.0,84.6489765259682,-2.0084723466570025,0.0,-4.141803713600964,0.0,0.4378032619616585,0.0
sim_raptor_glider_3dof,raptor_glider_3dof,0.034999999999999996,-14.584526902573495,0.0,-0.008256225460854208,11.741452936463729,0.0,-0.41847025826355955,0.0,0.0,0.0,39.332830582057326,0.686487397786018,0.029214945323540367,0.0,0.0,0.0,0.0,0.0,-0.0061145722880012205,-0.35033918563012123,0.0,0.0,11.748907796737699,0.008256225460854208,0.03452616238131505,-0.03562533612070205,-2.0411814034511924,0.0,0.0,0.029510763832700834,1.6908422178210711,-6.950418704328619,0.0,2.7016049747411603,11.74379219316011,0.0,-0.3466689200311615,0.0,57.809237841342636,0.0,0.0,0.686487397786018,0.0,-0.4363323129985824,0.3490658503988659,1.0,0.14,0.14,0.75,0.08726646259971647,5.0,0.184,0.175,0.174,0.0,0.0,0.0,-0.7377272819937031,0.0,0.13391268532326167,0.0,5.941487193648667,0.0,-0.6185590658323019,0.0,0.16149548218377818,0.0,-3.26037552019853,0.0,0.1813399036925031,0.0,-0.049296187099942455,0.333846180012477,0.27605494692398314,0.1568888733979631,0.0,0.0,0.0,0.35814741130289157,0.1568888733979631,0.0,0.0,0.2627197099660298,0.0,0.0,0.0040900923452956515,0.0,1.8570403659979886,0.0,4.2392693972636355,0.0,0.4353613701831514,0.0,84.54757660982088,-2.0068554989041147,0.0,-4.170435822553832,0.0,0.4353613701831514,0.0
sim_raptor_glider_3dof,raptor_glider_3dof,0.036,-14.57278671348461,0.0,-0.008605613657641226,11.73451307945156,0.0,-0.41548783748618695,0.0,0.0,0.0,42.63576870361311,0.7441345429968031,0.03168723418788477,0.0,0.0,0.0,0.0,0.0,-0.0053992342987697305,-0.3093533379217821,0.0,0.0,11.741866434043555,0.008605613657641226,0.03450547014030255,-0.03539254979315383,-2.027843729354329,0.0,0.0,0.0299933154943841,1.7184903914325471,-6.929505011985651,0.0,3.261119959990488,11.736585344466107,0.0,-0.35212470373725135,0.0,57.48506470002853,0.0,0.0,0.7441345429968031,0.0,-0.4363323129985824,0.3490658503988659,1.0,0.14,0.14,0.75,0.08726646259971647,5.0,0.184,0.175,0.174,0.0,0.0,0.0,-0.7371434244952826,0.0,0.13403463013722003,0.0,5.942257458957591,0.0,-0.618391807468393,0.0,0.1617528536459491,0.0,-3.2622530629080795,0.0,0.1811292564624617,0.0,-0.04937700047913813,0.33478318230962734,0.2760319448412983,0.1569281515349549,0.0,0.0,0.0,0.3611443008285645,0.1569281515349549,0.0,0.0,0.2615598960914665,0.0,0.0,0.0044362127863038685,0.0,1.8552794727296644,0.0,4.269620214517714,0.0,0.43292002225591486,0.0,84.44626476615004,-2.0051988021544362,0.0,-4.2012969975935714,0.0,0.43292002225591486,0.0
sim_raptor_glider_3dof,raptor_glider_3dof,0.037,-14.561053733509425,0.0,-0.008960512417522631,11.72759348120745,0.0,-0.4119521649625235,0.0,0.0,0.0,45.920133235143446,0.8014575179077286,0.03414867346204623,0.0,0.0,0.0,0.0,0.0,-0.004626411254153415,-0.26507383915481675,0.0,0.0,11.734826519666866,0.008960512417522631,0.03448478215541704,-0.03511230643010179,-2.0117869674148947,0.0,0.0,0.030485895175948376,1.7467131282600783,-6.909911524814204,0.0,3.8081430885409144,11.729373827929308,0.0,-0.3576912794069486,0.0,57.16088382548534,0.0,0.0,0.8014575179077286,0.0,-0.4363323129985824,0.3490658503988659,1.0,0.14,0.14,0.75,0.08726646259971647,5.0,0.184,0.175,0.174,0.0,0.0,0.0,-0.7364402875327253,0.0,0.13418116389311172,0.0,5.943184707899169,0.0,-0.6181904416589552,0.0,0.16206244350882307,0.0,-3.264513360009214,0.0,0.18087553343029697,0.0,-0.049474401463822267,0.3359112366569691,0.2760040410588539,0.15697556735833346,0.0,0.0,0.0,0.36432449900502367,0.15697556735833346,0.0,0.0,0.260397008954772,0.0,0.0,0.004780814284686474,0.0,1.8536153497625656,0.0,4.302054740204878,0.0,0.43047861608973015,0.0,84.34503447875767,-2.003496857593396,0.0,-4.2343317293532925,0.0,0.43047861608973015,0.0
sim_raptor_glider_3dof,raptor_glider_3dof,0.038,-14.549327967684645,0.0,-0.009321035770047633,11.720692796126375,0.0,-0.407875642256006,0.0,0.0,0.0,49.18592173596067,0.8584562799207587,0.03659924227269568,0.0,0.0,0.0,0.0,0.0,-0.0037964273363418214,-0.21751926360047943,0.0,0.0,11.727787607247775,0.009321035770047633,0.034464097114954226,-0.03478558147082036,-1.993067006186485,0.0,0.0,0.030989154134478537,1.7755477425860058,-6.891695512619749,0.0,4.342880457198813,11.72215679839103,0.0,-0.3633760512876055,0.0,56.83661579371446,0.0,0.0,0.8584562799207587,0.0,-0.4363323129985824,0.3490658503988659,1.0,0.14,0.14,0.75,0.08726646259971647,5.0,0.184,0.175,0.174,0.0,0.0,0.0,-0.7356201810819859,0.0,0.13435162154639263,0.0,5.944265678967624,0.0,-0.6179556669761956,0.0,0.16242303968348484,0.0,-3.2671485398651128,0.0,0.1805795426610928,0.0,-0.049588105573682414,0.3372264294685795,0.2759712209843705,0.15703103031360977,0.0,0.0,0.0,0.3676842162290723,0.15703103031360977,0.0,0.0,0.25923069845117347,0.0,0.0,0.005123893918177396,0.0,1.8520464429188108,0.0,4.336520262425007,0.0,0.4280365535424636,0.0,84.24387929752538,-2.0017439925578615,0.0,-4.269485332145947,0.0,0.4280365535424636,0.0
sim_raptor_glider_3dof,raptor_glider_3dof,0.039,-14.537609422017438,0.0,-0.009687306094953937,11.713809615323694,0.0,-0.4032704382562507,0.0,0.0,0.0,52.43312661194965,0.9151306964935806,0.039038916273327506,0.0,0.0,0.0,0.0,0.0,-0.0029096068140828757,-0.16670819048945434,0.0,0.0,11.72074924014763,0.009687306094953937,0.03444341367700381,-0.034413332999558684,-1.9717387398529942,0.0,0.0,0.03150372618547581,1.8050305493635401,-6.874909734057814,0.0,4.8655331424609685,11.714933388664265,0.0,-0.36918619906545114,0.0,56.512182058855785,0.0,0.0,0.9151306964935806,0.0,-0.4363323129985824,0.3490658503988659,1.0,0.14,0.14,0.75,0.08726646259971647,5.0,0.184,0.175,0.174,0.0,0.0,0.0,-0.7346853534193971,0.0,0.13454532107094416,0.0,5.945497156353863,0.0,-0.6176881715582809,0.0,0.1628334337126111,0.0,-3.2701508718755217,0.0,0.1802420642348803,0.0,-0.04971783559313202,0.3387249157152126,0.2759334573206326,0.15709446537912036,0.0,0.0,0.0,0.37121972291184135,0.15709446537912036,0.0,0.0,0.258060616868271,0.0,0.0,0.005465448278265851,0.0,1.8505713835435418,0.0,4.372964983646854,0.0,0.42559324308524293,0.0,84.14279264015295,-1.9999342952869512,0.0,-4.306704077171646,0.0,0.42559324308524293,0.0
sim_raptor_glider_3dof,raptor_glider_3dof,0.04,-14.52589810332074,0.0,-0.010059452234509936,11.706942484375237,0.0,-0.3981485401608657,0.0,0.0,0.0,55.66173618470024,0.9714805637994858,0.04146766838571013,0.0,0.0,0.0,0.0,0.0,-0.001966274129773478,-0.11265920900177902,0.0,0.0,11.71371096589386,0.010059452234509936,0.03442273051189826,-0.03399650596207623,-1.9478563098183082,0.0,0.0,0.03203023183230275,1.835197100816529,-6.859602658185618,0.0,5.37629820837069,11.707702722163132,0.0,-0.3751287271804795,0.0,56.187505692361256,0.0,0.0,0.9714805637994858,0.0,-0.4363323129985824,0.3490658503988659,1.0,0.14,0.14,0.75,0.08726646259971647,5.0,0.184,0.175,0.174,0.0,0.0,0.0,-0.7336380032993735,0.0,0.13476156081879076,0.0,5.946875953489106,0.0,-0.6173886371061261,0.0,0.16329241857122406,0.0,-3.2735127331684613,0.0,0.1798638539920295,0.0,-0.049863317074526965,0.34040290059635736,0.27589071330253406,0.1571658125946876,0.0,0.0,0.0,0.37492733179219095,0.1571658125946876,0.0,0.0,0.25688642163597397,0.0,0.0,0.0058054735739994185,0.0,1.8491889863431528,0.0,4.411337816940599,0.0,0.42314810536917263,0.0,84.04176799987106,-1.9980616634623243,0.0,-4.345934977813777,0.0,0.42314810536917263,0.0
sim_raptor_glider_3dof,raptor_glider_3dof,0.04,-14.52589810332074,0.0,-0.010059452234509936,11.706942484375237,0.0,-0.3981485401608657,0.0,0.0,0.0,55.66173618470024,0.9714805637994858,0.04146766838571013,0.0,0.0,0.0,0.0,0.0,-0.001966274129773478,-0.11265920900177902,0.0,0.0,11.71371096589386,0.010059452234509936,0.03442273051189826,-0.03399650596207623,-1.9478563098183082,0.0,0.0,0.03203023183230275,1.835197100816529,-6.698518833203953,0.0,5.0359541007867445,11.707702722163132,0.0,-0.3751287271804795,0.0,52.43952691401064,0.0,0.0,0.9714805637994858,0.0,-0.42172943146580205,0.3490658503988659,1.0,0.14,0.14,0.75,0.08726646259971647,5.0,0.184,0.175,0.174,0.0,0.0,0.0,-0.6298797293016275,0.0,0.11931481326915988,0.0,5.950743658378446,0.0,-0.6033608694888556,0.0,0.16159926768084762,0.0,-3.2854127875636885,0.0,0.14965422313421484,0.0,-0.045255699071998653,0.3482026507186074,0.258824230180841,0.1531326366808434,0.0,0.0,0.0,0.3827495357729681,0.1531326366808434,0.0,0.0,0.23975085306296023,0.0,0.0,0.0058054735739994185,0.0,1.8017352535195983,0.0,4.5033726762486195,0.0,0.3949220771894142,0.0,84.04176799987106,-1.9537636115923664,0.0,-4.439529607399362,0.0,0.3949220771894142,0.0
sim_raptor_glider_3dof,raptor_glider_3dof,0.041,-14.514193939139902,0.0,-0.010437783444832757,11.700250373250267,0.0,-0.3928789422669069,0.0,0.0,0.0,58.657586138646536,1.023768009391569,0.0437251896758373,0.0,0.0,0.0,0.0,0.0,-0.0009686331742739113,-0.055498592782255066,0.0,0.0,11.706844692743632,0.010437783444832757,0.03440255280126842,-0.03356606644575174,-1.9231939421972626,0.0,0.0,0.03259743327147783,1.8676953494150075,-6.685834821567031,0.0,5.502178821332901,11.70062543988686,0.0,-0.38154550907093954,0.0,52.13535812150437,0.0,0.0,1.023768009391569,0.0,-0.42172943146580205,0.3490658503988659,1.0,0.14,0.14,0.75,0.08726646259971647,5.0,0.184,0.175,0.174,0.0,0.0,0.0,-0.6289487333283977,0.0,0.11950576908820781,0.0,5.951971456337521,0.0,-0.6030889484075499,0.0,0.16207550658750924,0.0,-3.2884617767689037,0.0,0.14930011831555,0.0,-0.045390366446420076,0.3499442360813941,0.25877030190778644,0.15320329874672584,0.0,0.0,0.0,0.38637938740368793,0.15320329874672584,0.0,0.0,0.23863989581745187,0.0,0.0,0.006121526554617222,0.0,1.8004540364598662,0.0,4.540752929908616,0.0,0.3926313820130494,0.0,83.94327067313343,-1.951826458795556,0.0,-4.477772368334941,0.0,0.3926313820130494,0.0
sim_raptor_glider_3dof,raptor_glider_3dof,0.042,-14.50249685646851,0.0,-0.010822597101872977,11.693570258986798,0.0,-0.3871484305164988,0.0,0.0,0.0,61.635998703753266,1.0757511151354515,0.04597235898977444,0.0,0.0,0.0,0.0,0.0,0.0000811434550784257,0.004649177511103179,0.0,0.0,11.69997732088024,0.010822597101872977,0.03438237186188321,-0.03309571502368701,-1.8962447908249769,0.0,0.0,0.033176858478765434,1.9008939683360802,-6.674553031778044,0.0,5.957649747173219,11.693538805928798,0.0,-0.388097285933931,0.0,51.83080750170695,0.0,0.0,1.0757511151354515,0.0,-0.42172943146580205,0.3490658503988659,1.0,0.14,0.14,0.75,0.08726646259971647,5.0,0.184,0.175,0.174,0.0,0.0,0.0,-0.6279307796767352,0.0,0.1197136699963746,0.0,5.953312749871842,0.0,-0.6027917886575158,0.0,0.16259529650084,0.0,-3.2917933770083545,0.0,0.1489128084643829,0.0,-0.045537738027320016,0.3518472656249655,0.258710870522369,0.15328093476688723,0.0,0.0,0.0,0.39016356195313684,0.15328093476688723,0.0,0.0,0.23752445956365043,0.0,0.0,0.006436130258568422,0.0,1.7992536341648875,0.0,4.579846853299267,0.0,0.39033781129535505,0.0,83.84481535261796,-1.9498139765957148,0.0,-4.517802153304498,0.0,0.39033781129535505,0.0
sim_raptor_glider_3dof,raptor_glider_3dof,0.043000000000000003,-14.490806865255967,0.0,-0.011214029633689086,11.686900741682175,0.0,-0.38096752518739485,0.0,0.0,0.0,64.59695023842835,1.1274294684075108,0.04820914273224666,0.0,0.0,0.0,0.0,0.0,0.0011827573094209379,0.06776700201806854,0.0,0.0,11.693108449047191,0.011214029633689086,0.03436218651458224,-0.032586284300723536,-1.8670565604448717,0.0,0.0,0.033769041610144476,1.9348235624629404,-6.664705496446823,0.0,6.4025392807035075,11.6864419751736,0.0,-0.3947900227707506,0.0,51.52582970412615,0.0,0.0,1.1274294684075108,0.0,-0.42172943146580205,0.3490658503988659,1.0,0.14,0.14,0.75,0.08726646259971647,5.0,0.184,0.175,0.174,0.0,0.0,0.0,-0.6268275057701718,0.0,0.1199379254975675,0.0,5.95476504187967,0.0,-0.6024699198628916,0.0,0.16315756862416658,0.0,-3.2954016708364207,0.0,0.1484928723971905,0.0,-0.04569758375798229,0.3539083446298715,0.25864592678933107,0.15336552915140056,0.0,0.0,0.0,0.39409872112760724,0.15336552915140056,0.0,0.0,0.23640433825800988,0.0,0.0,0.006749279982514533,0.0,1.7981334540258722,0.0,4.620608676339523,0.0,0.38804102350177405,0.0,83.74639631843108,-1.9477206723109437,0.0,-4.55957154138453,0.0,0.38804102350177405,0.0
sim_raptor_glider_3dof,raptor_glider_3dof,0.044,-14.479123976242432,0.0,-0.01161222644221492,11.680240357296322,0.0,-0.3743468390580793,0.0,0.0,0.0,67.5404148152106,1.1788026166881824,0.05043550594374812,0.0,0.0,0.0,0.0,0.0,0.0023359000859724754,0.133837216290469,0.0,0.0,11.686237647768698,0.01161222644221492,0.0343419954972779,-0.03203861677570408,-1.8356775226848816,0.0,0.0,0.03437451686167656,1.9695147389753505,-6.65632089994019,0.0,6.837020712869011,11.679334055090145,0.0,-0.40162966740273587,0.0,51.22038246339544,0.0,0.0,1.1788026166881824,0.0,-0.42172943146580205,0.3490658503988659,1.0,0.14,0.14,0.75,0.08726646259971647,5.0,0.184,0.175,0.174,0.0,0.0,0.0,-0.6256405625240684,0.0,0.12017791916971513,0.0,5.956325787114831,0.0,-0.602123882568041,0.0,0.16376124023767494,0.0,-3.2992806727257733,0.0,0.14804088740733937,0.0,-0.0458696605606296,0.35612403037301776,0.25857546446034047,0.15345707589884594,0.0,0.0,0.0,0.398181473022468,0.15345707589884594,0.0,0.0,0.2352793398632309,0.0,0.0,0.007060970832124738,0.0,1.7970930081453067,0.0,4.662992155626351,0.0,0.38574070033183105,0.0,83.64800746021426,-1.9455410148968082,0.0,-4.603032618036932,0.0,0.38574070033183105,0.0
