name,vehicle,t,north,east,down,u,v,w,p_rad,p_deg,p_hat_div_b,q_deg,q_rad,q_hat_div_c,r_rad,r_deg,r_hat_div_b,phi_rad,phi_deg,theta_rad,theta_deg,psi_rad,psi_deg,speed,altitude,mach,alpha_rad,alpha_deg,beta_rad,beta_deg,gamma_rad,gamma_deg,u_dot,v_dot,w_dot,north_dot,east_dot,down_dot,p_rad_dot,q_rad_dot,r_rad_dot,phi_rad_dot,theta_rad_dot,psi_rad_dot,del_tail_alt_rad,del_tail_splay_rad,DIM_b,DIM_c_bar,DIM_S,DIM_wing_position,DIM_wing_incidence_rad,DIM_wing_incidence_deg,DIM_empennage_length,DIM_nose_length,DIM_tail_length,CDp,CDq,CDr,CYp,CYq,CYr,CLp,CLq,CLr,Clp,Clq,Clr,Cmp,Cmq,Cmr,Cnp,Cnq,Cnr,CL_0,Cm_0,CD_0,Cl_0,CY_0,Cn_0,CL,CD,CY,Cl,Cm,Cn,p_hat,q_hat,r_hat,drag_force_wind,side_force_wind,lift_force_wind,roll_moment_wind,pitch_moment_wind,yaw_moment_wind,qbar,X_total,Y_total,Z_total,L_total,M_total,N_total
sim_raptor_glider_3dof,raptor_glider_3dof,0.0,-15.0,0.0,0.0,12.0,0.0,0.0,0.0,0.0,0.0,0.0,0.0,0.0,0.0,0.0,0.0,0.0,0.0,0.0,0.0,0.0,0.0,12.0,-0.0,0.035264039495724236,0.0,0.0,0.0,0.0,0.0,0.0,-7.487178041450953,0.0,-25.024054441263395,12.0,0.0,0.0,0.0,-89.41363838472799,0.0,0.0,0.0,0.0,0.4363323129985824,0.3490658503988659,1.0,0.14,0.14,0.75,0.08726646259971647,5.0,0.184,0.175,0.174,0.0,0.0,0.0,-0.053153656886407115,0.0,0.055671173493162154,0.0,6.024209384397437,0.0,-0.5269202128147928,0.0,0.19813275846416445,0.0,-3.4552995296441478,0.0,-0.03588346466142729,0.0,-0.029845922084054996,0.7757079658211316,-0.38952171953159265,0.1667455120831285,0.0,0.0,0.0,0.7757079658211316,0.1667455120831285,0.0,0.0,-0.38952171953159265,0.0,0.0,0.0,0.0,2.0589739613990123,0.0,9.578443721347433,0.0,-0.6733741106753866,0.0,88.20001620075907,-2.0589739613990123,0.0,-9.578443721347433,0.0,-0.6733741106753866,0.0
sim_raptor_glider_3dof,raptor_glider_3dof,0.001,-14.988003746590733,0.0,-0.000012415174634177188,11.992502827180262,0.0,-0.02526770405029525,0.0,0.0,0.0,-5.103039651887635,-0.0890648437852645,-0.0037133468875430262,0.0,0.0,0.0,0.0,0.0,-0.000044590487564095195,-0.0025548467438532376,0.0,0.0,11.992529446150822,0.000012415174634177188,0.03524208600355821,-0.002106955238988487,-0.12071964281701804,0.0,0.0,0.002062364751424392,0.1181647960731648,-7.507675599275719,0.0,-25.508550485583747,11.99250394195709,0.0,-0.024732952477174667,0.0,-88.71856693472195,0.0,0.0,-0.0890648437852645,0.0,0.4363323129985824,0.3490658503988659,1.0,0.14,0.14,0.75,0.08726646259971647,5.0,0.184,0.175,0.174,0.0,0.0,0.0,-0.053430186057496054,0.0,0.0554080780660455,0.0,6.0240249874908525,0.0,-0.5274002219771142,0.0,0.1957017793236076,0.0,-3.453669819760639,0.0,-0.03525814560644711,0.0,-0.029499655008724115,0.7671435812705255,-0.38877083359862435,0.165760584735996,0.0,0.0,0.0,0.7640118800492363,0.165760584735996,0.0,0.0,-0.386975379228011,0.0,0.0,-0.0005198685642560238,0.0,2.0442643995802876,0.0,9.422277857722193,0.0,-0.6681395275853911,0.0,88.09023322213056,-2.064112165078258,0.0,-9.417949773357746,0.0,-0.6681395275853911,0.0
sim_raptor_glider_3dof,raptor_glider_3dof,0.002,-14.976014997218163,0.0,-0.000049270492086499364,11.984983638081903,0.0,-0.051011581957007696,0.0,0.0,0.0,-10.166686259086081,-0.1774421492383174,-0.0074026192836820276,0.0,0.0,0.0,0.0,0.0,-0.00017790069037163533,-0.010192958730758345,0.0,0.0,11.985092197667264,0.000049270492086499364,0.03522023038486956,-0.004256265628603735,-0.24386605700559036,0.0,0.0,0.0040783649382321,0.233673098274832,-7.5312069778045,0.0,-25.97647568606275,11.984992523423195,0.0,-0.04887944429772272,0.0,-88.03854836579413,0.0,0.0,-0.1774421492383174,0.0,0.4363323129985824,0.3490658503988659,1.0,0.14,0.14,0.75,0.08726646259971647,5.0,0.184,0.175,0.174,0.0,0.0,0.0,-0.05371000072613438,0.0,0.05518325282971427,0.0,6.023796383437123,0.0,-0.5278990096560925,0.0,0.1932332307470952,0.0,-3.4519868033346692,0.0,-0.03462545852853912,0.0,-0.029153229463314653,0.758374006898808,-0.388063512765844,0.16478068235403653,0.0,0.0,0.0,0.7521311449211472,0.16478068235403653,0.0,0.0,-0.38448598859501065,0.0,0.0,-0.001036366699715484,0.0,2.0296598650783366,0.0,9.264255835778041,0.0,-0.6630183077427956,0.0,87.98100758981425,-2.069072495287059,0.0,-9.25553317577674,0.0,-0.6630183077427956,0.0
sim_raptor_glider_3dof,raptor_glider_3dof,0.003,-14.964033765483153,0.0,-0.00010997650410396534,11.977439408842296,0.0,-0.07721526894416839,0.0,0.0,0.0,-15.191799193026208,-0.2651469152201249,-0.011068367643203196,0.0,0.0,0.0,0.0,0.0,-0.0003992506169425001,-0.022875375318799577,0.0,0.0,11.97768829909372,0.00010997650410396534,0.035198472770559576,-0.006446636600632963,-0.3693650692708328,0.0,0.0,0.006047385983690463,0.3464896939520332,-7.557751963901034,0.0,-26.428240508352538,11.977469282477013,0.0,-0.07243326284374174,0.0,-87.37346069275941,0.0,0.0,-0.2651469152201249,0.0,0.4363323129985824,0.3490658503988659,1.0,0.14,0.14,0.75,0.08726646259971647,5.0,0.184,0.175,0.174,0.0,0.0,0.0,-0.0539933342342998,0.0,0.0549956890768542,0.0,6.023523849844041,0.0,-0.5284156910211553,0.0,0.1907277346999606,0.0,-3.450251759098094,0.0,-0.033984927296559594,0.0,-0.028807107836358457,0.7494038488665931,-0.387399686775176,0.16380724554970857,0.0,0.0,0.0,0.7400699681597184,0.16380724554970857,0.0,0.0,-0.38205327508479314,0.0,0.0,-0.0015495714700484477,0.0,2.015177614704102,0.0,9.104435082498677,0.0,-0.6580095324771711,0.0,87.87233904709669,-2.0738283182350847,0.0,-9.09125486919839,0.0,-0.6580095324771711,0.0
sim_raptor_glider_3dof,raptor_glider_3dof,0.004,-14.95206006146447,0.0,-0.00019393750269191865,11.969867139046595,0.0,-0.10386280993339823,0.0,0.0,0.0,-20.179227607931264,-0.35219396226773997,-0.01471113674262299,0.0,0.0,0.0,0.0,0.0,-0.0007079751977142588,-0.040563990828967035,0.0,0.0,11.970317740549529,0.00019393750269191865,0.03517681313159225,-0.008676805031272569,-0.49714430794979647,0.0,0.0,0.00796882983355831,0.4565803171208294,-7.587282867422961,0.0,-26.864252771312174,11.96993767151242,0.0,-0.09538841555743248,0.0,-86.72306067972036,0.0,0.0,-0.35219396226773997,0.0,0.4363323129985824,0.3490658503988659,1.0,0.14,0.14,0.75,0.08726646259971647,5.0,0.184,0.175,0.174,0.0,0.0,0.0,-0.054280487125545326,0.0,0.054843901706905056,0.0,6.023207997132767,0.0,-0.5289492506950555,0.0,0.18818569052618506,0.0,-3.4484661334741316,0.0,-0.033335929119057396,0.0,-0.028461722112779208,0.7402377623774763,-0.38677875516894367,0.16284159593212236,0.0,0.0,0.0,0.727832609270965,0.16284159593212236,0.0,0.0,-0.37967643521108574,0.0,0.0,-0.0020595591439672187,0.0,2.000833340210975,0.0,8.942873240625298,0.0,-0.6531113699789741,0.0,87.76422654166264,-2.078352616244555,0.0,-8.925175978978858,0.0,-0.6531113699789741,0.0
sim_raptor_glider_3dof,raptor_glider_3dof,0.005,-14.94009389182307,0.0,-0.0003005518855746,11.962263859629724,0.0,-0.13093865674169305,0.0,0.0,0.0,-25.12980322664479,-0.4385978066832464,-0.01833146045868009,0.0,0.0,0.0,0.0,0.0,-0.0011034240774344013,-0.06322154265010774,0.0,0.0,11.962980463882431,0.0003005518855746,0.035155251297077285,-0.010945539172903748,-0.6271331991024985,0.0,0.0,0.009842115095469346,0.5639116564523908,-7.619764933048298,0.0,-27.284916404279006,11.96240105817221,0.0,-0.11773912974501546,0.0,-86.08698535636344,0.0,0.0,-0.4385978066832464,0.0,0.4363323129985824,0.3490658503988659,1.0,0.14,0.14,0.75,0.08726646259971647,5.0,0.184,0.175,0.174,0.0,0.0,0.0,-0.05457182683161292,0.0,0.05472593032343835,0.0,6.022849768199583,0.0,-0.529498543215881,0.0,0.18560727572066893,0.0,-3.446631540314975,0.0,-0.03267769521599154,0.0,-0.028117473742245224,0.7308804509402165,-0.3861995880247053,0.16188493539638366,0.0,0.0,0.0,0.7154233824078116,0.16188493539638366,0.0,0.0,-0.37735413745313595,0.0,0.0,-0.002566404464215213,0.0,1.9866411722863777,0.0,8.779628219436473,0.0,-0.6483210867187731,0.0,87.65666831823584,-2.0826180146542357,0.0,-8.757357879177162,0.0,-0.6483210867187731,0.0
sim_raptor_glider_3dof,raptor_glider_3dof,0.006,-14.92813525992473,0.0,-0.0004292124397594923,11.954626639550906,0.0,-0.15842765930436845,0.0,0.0,0.0,-30.04433358782197,-0.5243725426750143,-0.02192985685369944,0.0,0.0,0.0,0.0,0.0,-0.0015849610904613313,-0.09081158117588696,0.0,0.0,11.955676367913814,0.0004292124397594923,0.03513378696968413,-0.01325163807797221,-0.7592629335026617,0.0,0.0,0.01166667698751088,0.6684513523267749,-7.65515672930522,0.0,-27.690630360815796,11.954862725505864,0.0,-0.13947985016959272,0.0,-85.46475387002384,0.0,0.0,-0.5243725426750143,0.0,0.4363323129985824,0.3490658503988659,1.0,0.14,0.14,0.75,0.08726646259971647,5.0,0.184,0.175,0.174,0.0,0.0,0.0,-0.05486778710977721,0.0,0.05463934182373924,0.0,6.022450437086101,0.0,-0.5300622937916623,0.0,0.18299244783751023,0.0,-3.444749760445701,0.0,-0.03200931203935526,0.0,-0.02777473367758559,0.7213366671206888,-0.3856605284654083,0.16093834608201854,0.0,0.0,0.0,0.7028466604815571,0.16093834608201854,0.0,0.0,-0.37508452678533377,0.0,0.0,-0.003070179959517922,0.0,1.9726136922696764,0.0,8.61475825857789,0.0,-0.6436350613951496,0.0,87.54966199755503,-2.0865968109073574,0.0,-8.58786227075033,0.0,-0.6436350613951496,0.0
sim_raptor_glider_3dof,raptor_glider_3dof,0.007,-14.916184165882276,0.0,-0.0005793064854676666,11.946952592434664,0.0,-0.18631506489291877,0.0,0.0,0.0,-34.923595341205655,-0.6095317253381911,-0.025506823267053384,0.0,0.0,0.0,0.0,0.0,-0.00215196395569408,-0.12329845232554847,0.0,0.0,11.94840531406963,0.0005793064854676666,0.03511241974218939,-0.015593931681301612,-0.8934664713539263,0.0,0.0,0.013441967725607532,0.7701680190283778,-7.693410528399182,0.0,-28.081787400130356,11.947325872576652,0.0,-0.1606052419691676,0.0,-84.85576962259707,0.0,0.0,-0.6095317253381911,0.0,0.4363323129985824,0.3490658503988659,1.0,0.14,0.14,0.75,0.08726646259971647,5.0,0.184,0.175,0.174,0.0,0.0,0.0,-0.05516886739682447,0.0,0.05458123429015566,0.0,6.022011606567932,0.0,-0.5306390995932566,0.0,0.18034094615955698,0.0,-3.442822740123928,0.0,-0.031329722669104235,0.0,-0.027433842397851762,0.7116112100401488,-0.3851593965008954,0.16000279048359145,0.0,0.0,0.0,0.6901068760336266,0.16000279048359145,0.0,0.0,-0.3728652305367967,0.0,0.0,-0.0035709552573874744,0.0,1.9587619456352325,0.0,8.448321951825605,0.0,-0.6390488010277785,0.0,87.4432046606849,-2.090261009781001,0.0,-8.416751218395161,0.0,-0.6390488010277785,0.0
sim_raptor_glider_3dof,raptor_glider_3dof,0.008,-14.904240606651282,0.0,-0.0007502161182813057,11.939238882633015,0.0,-0.21458650998107728,0.0,0.0,0.0,-39.768327695755914,-0.6940882563029905,-0.02906283149078703,0.0,0.0,0.0,0.0,0.0,-0.0028038236298313884,-0.16064726048838937,0.0,0.0,11.941167131685324,0.0007502161182813057,0.035091149113066274,-0.017971280258754233,-1.0296785112733915,0.0,0.0,0.015167456628922844,0.8690312507850021,-7.734472659743328,0.0,-28.458772998507442,11.939793614875626,0.0,-0.18111019026309105,0.0,-84.25932271685393,0.0,0.0,-0.6940882563029905,0.0,0.4363323129985824,0.3490658503988659,1.0,0.14,0.14,0.75,0.08726646259971647,5.0,0.184,0.175,0.174,0.0,0.0,0.0,-0.05547563193059443,0.0,0.054548242134604644,0.0,6.021535204946049,0.0,-0.5312274312413525,0.0,0.17765229454057654,0.0,-3.440852589499303,0.0,-0.030637728722487007,0.0,-0.027095110104628704,0.7017089249620452,-0.38469349440195466,0.1590791122370665,0.0,0.0,0.0,0.6772085241452388,0.1590791122370665,0.0,0.0,-0.37069336574289874,0.0,0.0,-0.004068796408710184,0.0,1.9450954633896698,0.0,8.280378294547667,0.0,-0.634556959380627,0.0,87.33729292823296,-2.0935823601488033,0.0,-8.244087212286694,0.0,-0.634556959380627,0.0
sim_raptor_glider_3dof,raptor_glider_3dof,0.009000000000000001,-14.892304576113405,0.0,-0.0009413184291606596,11.931482731000013,0.0,-0.24322801242629782,0.0,0.0,0.0,-44.57922600410458,-0.7780542717623,-0.03259832301805841,0.0,0.0,0.0,0.0,0.0,-0.0035399435977275817,-0.2028238278641469,0.0,0.0,11.933961623290918,0.0009413184291606596,0.03506997450201568,-0.020382573901800104,-1.1678354601866447,0.0,0.0,0.01684263030407252,0.9650116323224979,-7.778283843616755,0.0,-28.821964269395146,11.932268984822977,0.0,-0.20098980076623565,0.0,-83.67459264387269,0.0,0.0,-0.7780542717623,0.0,0.4363323129985824,0.3490658503988659,1.0,0.14,0.14,0.75,0.08726646259971647,5.0,0.184,0.175,0.174,0.0,0.0,0.0,-0.055788708736007504,0.0,0.0545365423304085,0.0,6.021023482042527,0.0,-0.531825634606743,0.0,0.17492580464570248,0.0,-3.4388415806117196,0.0,-0.029931992558805562,0.0,-0.02675881698380161,0.6916347024036031,-0.3842596132891834,0.15816803727685969,0.0,0.0,0.0,0.6641561648322319,0.15816803727685969,0.0,0.0,-0.3685655476778038,0.0,0.0,-0.004563765222528177,0.0,1.9316222876944662,0.0,8.110986723910683,0.0,-0.6301533572010052,0.0,87.23192303897322,-2.096532395351765,0.0,-8.0699332223392,0.0,-0.6301533572010052,0.0
sim_raptor_glider_3dof,raptor_glider_3dof,0.01,-14.88037606515921,0.0,-0.0011519857253842968,11.923681420343334,0.0,-0.27222596258209436,0.0,0.0,0.0,-49.356935507178044,-0.8614410332947542,-0.03611370438294382,0.0,0.0,0.0,0.0,0.0,-0.004359739052099519,-0.24979464746366856,0.0,0.0,11.926788569792983,0.0011519857253842968,0.03504889526519434,-0.022826731891997996,-1.3078753974881616,0.0,0.0,0.01846699283989848,1.058080750024493,-7.824779502619,0.0,-29.171728920063018,11.924754932281528,0.0,-0.22023940058925584,0.0,-83.10065118556057,0.0,0.0,-0.8614410332947542,0.0,0.4363323129985824,0.3490658503988659,1.0,0.14,0.14,0.75,0.08726646259971647,5.0,0.184,0.175,0.174,0.0,0.0,0.0,-0.05610878847395166,0.0,0.05454186162840115,0.0,6.020479004498773,0.0,-0.5324319328652451,0.0,0.17216057968112747,0.0,-3.4367921450673697,0.0,-0.02921103978427371,0.0,-0.02642521354291394,0.6813934773072167,-0.3838540408424605,0.15727017538811427,0.0,0.0,0.0,0.6509544254455103,0.15727017538811427,0.0,0.0,-0.3664778994650984,0.0,0.0,-0.0050559186136121355,0.0,1.9183490019530007,0.0,7.940207158086878,0.0,-0.6258310040784566,0.0,87.12709092666549,-2.099082476605616,0.0,-7.894352751368246,0.0,-0.6258310040784566,0.0
sim_raptor_glider_3dof,raptor_glider_3dof,0.01,-14.88037606515921,0.0,-0.0011519857253842968,11.923681420343334,0.0,-0.27222596258209436,0.0,0.0,0.0,-49.356935507178044,-0.8614410332947542,-0.03611370438294382,0.0,0.0,0.0,0.0,0.0,-0.004359739052099519,-0.24979464746366856,0.0,0.0,11.926788569792983,0.0011519857253842968,0.03504889526519434,-0.022826731891997996,-1.3078753974881616,0.0,0.0,0.01846699283989848,1.058080750024493,-5.3859245092803985,0.0,-20.75114196939866,11.924754932281528,0.0,-0.22023940058925584,0.0,14.294973185997025,0.0,0.0,-0.8614410332947542,0.0,-0.1706974554341319,0.3490658503988659,1.0,0.14,0.14,0.75,0.08726646259971647,5.0,0.184,0.175,0.174,0.0,0.0,0.0,0.0030057425656307753,0.0,0.006758697259869969,0.0,6.046567232628695,0.0,-0.517363926802987,0.0,0.16545135388631882,0.0,-3.6492477572443245,0.0,-0.03890283468666219,0.0,-0.010553762849986952,0.4904771761401118,0.044591224939952954,0.10663347257750977,0.0,0.0,0.0,0.45990622432020717,0.10663347257750977,0.0,0.0,0.06304152460148688,0.0,0.0,-0.0050559186136121355,0.0,1.3006929965521499,0.0,5.609840799372056,0.0,0.1076554430637436,0.0,87.12709092666549,-1.4283973534375003,0.0,-5.5786913399355464,0.0,0.1076554430637436,0.0
sim_raptor_glider_3dof,raptor_glider_3dof,0.011,-14.868453863060063,0.0,-0.001377416644339718,11.918287903186146,0.0,-0.2927273606384704,0.0,0.0,0.0,-48.53673639906153,-0.8471258583362001,-0.0355281927030231,0.0,0.0,0.0,0.0,0.0,-0.005214021645247757,-0.29874143456255425,0.0,0.0,11.921882227689535,0.001377416644339718,0.03503447714505138,-0.024556255185931394,-1.4069697828001095,0.0,0.0,0.019342233540683637,1.1082283482375552,-5.400873688546733,0.0,-20.252717417439214,11.919652178015209,0.0,-0.23058145206598676,0.0,14.334977371740052,0.0,0.0,-0.8471258583362001,0.0,-0.1706974554341319,0.3490658503988659,1.0,0.14,0.14,0.75,0.08726646259971647,5.0,0.184,0.175,0.174,0.0,0.0,0.0,0.0030086117761524474,0.0,0.006768390048855709,0.0,6.046643550917414,0.0,-0.5175678246559362,0.0,0.1634513488911698,0.0,-3.6478924758327844,0.0,-0.0383971409720141,0.0,-0.010386267828596809,0.4832593747290348,0.04512556548828396,0.10632641928639493,0.0,0.0,0.0,0.4531836903093468,0.10632641928639493,0.0,0.0,0.06326998924606529,0.0,0.0,-0.004973946978423234,0.0,1.2958807887882098,0.0,5.523293664975069,0.0,0.10795671458657434,0.0,87.05542244919374,-1.4311078720387345,0.0,-5.489809667638109,0.0,0.10795671458657434,0.0
sim_raptor_glider_3dof,raptor_glider_3dof,0.012,-14.856536759720314,0.0,-0.0016130341465804285,11.912880395312976,0.0,-0.312734022233984,0.0,0.0,0.0,-47.7143375934182,-0.832772291413255,-0.03494056254939633,0.0,0.0,0.0,0.0,0.0,-0.0060539734075978745,-0.3468671255397915,0.0,0.0,11.916984596855652,0.0016130341465804285,0.035020084624454585,-0.02624572738469841,-1.5037694093941467,0.0,0.0,0.020191753977100532,1.1569022838543552,-5.41386464949145,0.0,-19.761669400270186,11.914555360797527,0.0,-0.240608470727454,0.0,14.371685225714144,0.0,0.0,-0.832772291413255,0.0,-0.1706974554341319,0.3490658503988659,1.0,0.14,0.14,0.75,0.08726646259971647,5.0,0.184,0.175,0.174,0.0,0.0,0.0,0.0030113406754465697,0.0,0.006777878906539919,0.0,6.046704764325709,0.0,-0.5177633748030626,0.0,0.16149669965914076,0.0,-3.6465579263376204,0.0,-0.0379035225659947,0.0,-0.01022469430337225,0.4761964326212178,0.045646365150956505,0.1060323408745516,0.0,0.0,0.0,0.4466178953762261,0.1060323408745516,0.0,0.0,0.06348415509508404,0.0,0.0,-0.004891678756915487,0.0,1.2912350727518553,0.0,5.438799953598031,0.0,0.10823316143485322,0.0,86.9839106299204,-1.4335192456360395,0.0,-5.403041321399783,0.0,0.10823316143485322,0.0
sim_raptor_glider_3dof,raptor_glider_3dof,0.013000000000000001,-14.844624750301222,0.0,-0.0018585335442570902,11.907460779252133,0.0,-0.3322530989883214,0.0,0.0,0.0,-46.88992245495127,-0.8183835328437221,-0.03435094802955043,0.0,0.0,0.0,0.0,0.0,-0.006879554924087975,-0.3941694620786844,0.0,0.0,11.912095295589907,0.0018585335442570902,0.035005716581709444,-0.027895696450888123,-1.5983056732139589,0.0,0.0,0.021016141526800147,1.2041362111352745,-5.4249862600981045,0.0,-19.277972683836488,11.909464735981748,0.0,-0.2503278522705276,0.0,14.405178954949456,0.0,0.0,-0.8183835328437221,0.0,-0.1706974554341319,0.3490658503988659,1.0,0.14,0.14,0.75,0.08726646259971647,5.0,0.184,0.175,0.174,0.0,0.0,0.0,0.003013933828047865,0.0,0.006787152186654033,0.0,6.046751805084628,0.0,-0.517950897144146,0.0,0.15958685541997372,0.0,-3.645244439025434,0.0,-0.03742179215042781,0.0,-0.010068841794608843,0.4692874943440981,0.04615388900408994,0.10575077928151347,0.0,0.0,0.0,0.44020786236353077,0.10575077928151347,0.0,0.0,0.0636843533232858,0.0,0.0,-0.004809132724137061,0.0,1.2867497810405029,0.0,5.356342282837448,0.0,0.10848540270972436,0.0,86.9125497421439,-1.4356486788262455,0.0,-5.3183682197554285,0.0,0.10848540270972436,0.0
sim_raptor_glider_3dof,raptor_glider_3dof,0.014,-14.832717828150592,0.0,-0.0021135961828943053,11.902030974752588,0.0,-0.35129227093172205,0.0,0.0,0.0,-46.06368168441476,-0.8039629109836451,-0.03375948833808524,0.0,0.0,0.0,0.0,0.0,-0.007690730800043489,-0.44064641621376294,0.0,0.0,11.907214098334942,0.0021135961828943053,0.03499137235397732,-0.029506755195851508,-1.6906125398480043,0.0,0.0,0.021816024395808018,1.2499661236342412,-5.434325688441123,0.0,-18.80159017754757,11.904380657404655,0.0,-0.2597474681230047,0.0,14.43554319725073,0.0,0.0,-0.8039629109836451,0.0,-0.1706974554341319,0.3490658503988659,1.0,0.14,0.14,0.75,0.08726646259971647,5.0,0.184,0.175,0.174,0.0,0.0,0.0,0.0030163958580752804,0.0,0.006796200401317144,0.0,6.0467855702823865,0.0,-0.5181307056028966,0.0,0.15772120842721438,0.0,-3.643952274592286,0.0,-0.036951750623507196,0.0,-0.00991851232259702,0.4625313992677623,0.04664841046391965,0.10548127967946763,0.0,0.0,0.0,0.43395230509576327,0.10548127967946763,0.0,0.0,0.06387092546852889,0.0,0.0,-0.004726328367331933,0.0,1.2824189401612371,0.0,5.275899731900591,0.0,0.10871407581849525,0.0,86.84133634614064,-1.4375128056888968,0.0,-5.235768640097978,0.0,0.10871407581849525,0.0
sim_raptor_glider_3dof,raptor_glider_3dof,0.015,-14.8208159867228,0.0,-0.0023779316597268415,11.896592686283917,0.0,-0.3698587014176326,0.0,0.0,0.0,-45.23578890711045,-0.7895134561662046,-0.03316631069606142,0.0,0.0,0.0,0.0,0.0,-0.008487471414263498,-0.4862962907752304,0.0,0.0,11.902340652256527,0.0023779316597268415,0.03497705090439486,-0.03107945420354032,-1.7807215554329858,0.0,0.0,0.02259198278927682,1.2944252646577554,-5.441966563723033,0.0,-18.332484313653097,11.899303317881657,0.0,-0.26887460164342825,0.0,14.462856454088158,0.0,0.0,-0.7895134561662046,0.0,-0.1706974554341319,0.3490658503988659,1.0,0.14,0.14,0.75,0.08726646259971647,5.0,0.184,0.175,0.174,0.0,0.0,0.0,0.003018731300982397,0.0,0.006805015578984334,0.0,6.046806920144645,0.0,-0.5183030985338788,0.0,0.15589919500415367,0.0,-3.642681694482669,0.0,-0.03649321247623699,0.0,-0.009773518421001881,0.45592705398615824,0.04713018475498449,0.10522340538470512,0.0,0.0,0.0,0.4278500152015926,0.10522340538470512,0.0,0.0,0.06404418855343397,0.0,0.0,-0.0046432834974485995,0.0,1.2782367899610514,0.0,5.197452297011148,0.0,0.10891977195573792,0.0,86.77026515208395,-1.4391274711831477,0.0,-5.155221798584654,0.0,0.10891977195573792,0.0
sim_raptor_glider_3dof,raptor_glider_3dof,0.016,-14.808919219185178,0.0,-0.0026512508745155875,11.891147574778154,0.0,-0.3879596474464068,0.0,0.0,0.0,-44.40641687668748,-0.7750381835113733,-0.032571541672876146,0.0,0.0,0.0,0.0,0.0,-0.009269749325256574,-0.5311175134814443,0.0,0.0,11.897474662011225,0.0026512508745155875,0.03496275136504518,-0.032614352669518426,-1.8686647595146355,0.0,0.0,0.023344603344261854,1.3375472460331914,-5.447990149334424,0.0,-17.870611428676437,11.894232922847076,0.0,-0.2777166006198292,0.0,14.487196416141428,0.0,0.0,-0.7750381835113733,0.0,-0.1706974554341319,0.3490658503988659,1.0,0.14,0.14,0.75,0.08726646259971647,5.0,0.184,0.175,0.174,0.0,0.0,0.0,0.0030209446746461994,0.0,0.0068135914065946875,0.0,6.046816680536312,0.0,-0.5184683648764558,0.0,0.1541202369607701,0.0,-3.6414329216253396,0.0,-0.03604599089640223,0.0,-0.009633678084690267,0.4494732270002147,0.04759946481412456,0.10497672908592715,0.0,0.0,0.0,0.4218996471904483,0.10497672908592715,0.0,0.0,0.06420445659592297,0.0,0.0,-0.004560015834202661,0.0,1.2741977160576152,0.0,5.120978444808962,0.0,0.1091030762099611,0.0,86.69933171669473,-1.44050788591618,0.0,-5.076705337363767,0.0,0.1091030762099611,0.0
sim_raptor_glider_3dof,raptor_glider_3dof,0.017,-14.797027518503544,0.0,-0.002933272252241535,11.885697218762623,0.0,-0.40560231895563537,0.0,0.0,0.0,-43.575733816220165,-0.7605400290656755,-0.03197530463568539,0.0,0.0,0.0,0.0,0.0,-0.01003754015864326,-0.5751086877833336,0.0,0.0,11.892615844180108,0.002933272252241535,0.03494847290305359,-0.03411200670410665,-1.9544740148672806,0.0,0.0,0.02407446654546339,1.379365327083947,-5.452475110739818,0.0,-17.415923479305953,11.889169649844929,0.0,-0.286280726647729,0.0,14.508638823849349,0.0,0.0,-0.7605400290656755,0.0,-0.1706974554341319,0.3490658503988659,1.0,0.14,0.14,0.75,0.08726646259971647,5.0,0.184,0.175,0.174,0.0,0.0,0.0,0.003023040451974394,0.0,0.006821923028811732,0.0,6.04681564349073,0.0,-0.5186267831446052,0.0,0.15238375537156137,0.0,-3.6402061507790426,0.0,-0.03560990113731006,0.0,-0.009498815658787269,0.4431686046742131,0.04805649793196286,0.10474083480946894,0.0,0.0,0.0,0.41609977655551095,0.10474083480946894,0.0,0.0,0.06435203601706264,0.0,0.0,-0.004476542648995955,0.0,1.2702962631396086,0.0,5.046455780242713,0.0,0.10926455898240946,0.0,86.62853177766738,-1.4416686079342982,0.0,-5.000196012456744,0.0,0.10926455898240946,0.0
sim_raptor_glider_3dof,raptor_glider_3dof,0.018000000000000002,-14.785140877468088,0.0,-0.003223721908398064,11.880243114195665,0.0,-0.4227938729119871,0.0,0.0,0.0,-42.74390337888445,-0.7460218491158629,-0.03137771972462384,0.0,0.0,0.0,0.0,0.0,-0.010790822630435204,-0.6182685941981945,0.0,0.0,11.887763923941517,0.003223721908398064,0.034934214710809944,-0.03557296885742563,-2.038180980280803,0.0,0.0,0.024782146226990424,1.4199123860826084,-5.455497543531017,0.0,-16.968368433821226,11.884113647297957,0.0,-0.2945741493612247,0.0,14.527257491469808,0.0,0.0,-0.7460218491158629,0.0,-0.1706974554341319,0.3490658503988659,1.0,0.14,0.14,0.75,0.08726646259971647,5.0,0.184,0.175,0.174,0.0,0.0,0.0,0.003025023052297521,0.0,0.006830006918566977,0.0,6.0468045681113125,0.0,-0.5187786217011261,0.0,0.1506891713567844,0.0,-3.639001549965355,0.0,-0.03518476061012624,0.0,-0.009368761664902945,0.4370117998443985,0.048501525840596846,0.1045153179277972,0.0,0.0,0.0,0.4104489083889104,0.1045153179277972,0.0,0.0,0.0644872257403167,0.0,0.0,-0.004392880761447338,0.0,1.2665271336163006,0.0,4.973861150160525,0.0,0.10940477616825912,0.0,86.55786120483599,-1.4426235570300374,0.0,-4.925669801556384,0.0,0.10940477616825912,0.0
sim_raptor_glider_3dof,raptor_glider_3dof,0.019000000000000003,-14.773259288743601,0.0,-0.0035223326329835106,11.874786687227546,0.0,-0.4395414150225304,0.0,0.0,0.0,-41.911085315227574,-0.7314864318349668,-0.03077890431175245,0.0,0.0,0.0,0.0,0.0,-0.011529578091233707,-0.660596164194191,0.0,0.0,11.882918644957416,0.0035223326329835106,0.03491997603502135,-0.03699778824416066,-2.1198171177091383,0.0,0.0,0.025468210152926954,1.4592209535149474,-5.4571310350464906,0.0,-16.527890707996775,11.879065046114134,0.0,-0.3026039538175057,0.0,14.543124456881584,0.0,0.0,-0.7314864318349668,0.0,-0.1706974554341319,0.3490658503988659,1.0,0.14,0.14,0.75,0.08726646259971647,5.0,0.184,0.175,0.174,0.0,0.0,0.0,0.003026896834397588,0.0,0.006837840758804593,0.0,6.046784181470346,0.0,-0.5189241390896523,0.0,0.14903590615777385,0.0,-3.6378192613879805,0.0,-0.034770388802984754,0.0,-0.009243352578643897,0.4310013575188186,0.04893478497445618,0.10429978505673787,0.0,0.0,0.0,0.4049454826786774,0.10429978505673787,0.0,0.0,0.06461031770741567,0.0,0.0,-0.004309046603645343,0.0,1.2628851877506375,0.0,4.903170717401178,0.0,0.10952427028477521,0.0,86.48731614380623,-1.4433860335735007,0.0,-4.853101981156516,0.0,0.10952427028477521,0.0
sim_raptor_glider_3dof,raptor_glider_3dof,0.02,-14.761382744873043,0.0,-0.0038288442706973665,11.869329291502865,0.0,-0.4558519936970945,0.0,0.0,0.0,-41.07743529012953,-0.7169364940876725,-0.030178972879316063,0.0,0.0,0.0,0.0,0.0,-0.012253790651118129,-0.7020904873459338,0.0,0.0,11.878079763593336,0.0038288442706973665,0.03490575615972651,-0.03838701005763952,-2.1994136644289872,0.0,0.0,0.02613321940652139,1.4973231770830535,-5.45744669557227,0.0,-16.09443148380977,11.87402395590391,0.0,-0.310377133348429,0.0,14.556309982152394,0.0,0.0,-0.7169364940876725,0.0,-0.1706974554341319,0.3490658503988659,1.0,0.14,0.14,0.75,0.08726646259971647,5.0,0.184,0.175,0.174,0.0,0.0,0.0,0.003028666089439752,0.0,0.006845423328347127,0.0,6.046755179505072,0.0,-0.5190635842964597,0.0,0.14742338191018145,0.0,-3.6366594028304506,0.0,-0.03436660737928036,0.0,-0.00912243066729662,0.4251357627825742,0.049356506535315064,0.10409385403292587,0.0,0.0,0.0,0.39958788230275355,0.10409385403292587,0.0,0.0,0.06472159690382126,0.0,0.0,-0.004225056203104249,0.0,1.2593654414274882,0.0,4.834360053823224,0.0,0.10962357047558968,0.0,86.41689293128123,-1.4439687333971871,0.0,-4.782467223310042,0.0,0.10962357047558968,0.0
sim_raptor_glider_3dof,raptor_glider_3dof,0.02,-14.761382744873043,0.0,-0.0038288442706973665,11.869329291502865,0.0,-0.4558519936970945,0.0,0.0,0.0,-41.07743529012953,-0.7169364940876725,-0.030178972879316063,0.0,0.0,0.0,0.0,0.0,-0.012253790651118129,-0.7020904873459338,0.0,0.0,11.878079763593336,0.0038288442706973665,0.03490575615972651,-0.03838701005763952,-2.1994136644289872,0.0,0.0,0.02613321940652139,1.4973231770830535,-5.47293450602221,0.0,-16.056991212590688,11.87402395590391,0.0,-0.310377133348429,0.0,14.976960534921563,0.0,0.0,-0.7169364940876725,0.0,-0.1736982476828034,0.3490658503988659,1.0,0.14,0.14,0.75,0.08726646259971647,5.0,0.184,0.175,0.174,0.0,0.0,0.0,0.0031619374331314986,0.0,0.007094468551867764,0.0,6.045626402413903,0.0,-0.5190457087590985,0.0,0.14740115564666573,0.0,-3.6323107977695215,0.0,-0.03439082085855118,0.0,-0.009229573130564907,0.4242941009027735,0.051245214600600934,0.10447829843124913,0.0,0.0,0.0,0.3987509895696038,0.10447829843124913,0.0,0.0,0.06659193186831959,0.0,0.0,-0.004225056203104249,0.0,1.2640165900845985,0.0,4.824235020063044,0.0,0.11279148978849429,0.0,86.41689293128123,-1.4482278812709206,0.0,-4.7721711487247935,0.0,0.11279148978849429,0.0
sim_raptor_glider_3dof,raptor_glider_3dof,0.021,-14.74951125173602,0.0,-0.0041429797900769455,11.863856914998431,0.0,-0.47169319850764385,0.0,0.0,0.0,-40.219091611749576,-0.701955570786263,-0.02956042959602362,0.0,0.0,0.0,0.0,0.0,-0.012963219272337602,-0.7427377532075947,0.0,0.0,11.873230199616044,0.0041429797900769455,0.03489150489175716,-0.039737910860019064,-2.276814578946172,0.0,0.0,0.026774691587681462,1.534076825738577,-5.471759196753895,0.0,-15.62677981855597,11.868974588826848,0.0,-0.31786409494784607,0.0,14.984739123530527,0.0,0.0,-0.701955570786263,0.0,-0.1736982476828034,0.3490658503988659,1.0,0.14,0.14,0.75,0.08726646259971647,5.0,0.184,0.175,0.174,0.0,0.0,0.0,0.003163866994544308,0.0,0.007101958371229454,0.0,6.045586503674125,0.0,-0.5191788770551886,0.0,0.1458328092834883,0.0,-3.6311663876566813,0.0,-0.0339984263782235,0.0,-0.009113372915056065,0.41858652736098934,0.051653518049884224,0.10428304951037624,0.0,0.0,0.0,0.3935671085717952,0.10428304951037624,0.0,0.0,0.06668095541941241,0.0,0.0,-0.004138460143443307,0.0,1.2606243950789384,0.0,4.7576312784842365,0.0,0.11285007033930841,0.0,86.34634302628069,-1.448637773602455,0.0,-4.703793984473791,0.0,0.11285007033930841,0.0
sim_raptor_glider_3dof,raptor_glider_3dof,0.022,-14.737644798634918,0.0,-0.004464486781571734,11.858386241205503,0.0,-0.4871077736470532,0.0,0.0,0.0,-39.36036715351963,-0.686968001622746,-0.028941086530228796,0.0,0.0,0.0,0.0,0.0,-0.013657681538705793,-0.7825275101015821,0.0,0.0,11.868386504860691,0.004464486781571734,0.03487727087149399,-0.04105399090101413,-2.3522204107965936,0.0,0.0,0.027396309362308337,1.5696929006950113,-5.469394970320953,0.0,-15.203551128861104,11.863932828598356,0.0,-0.3251093158701454,0.0,14.989972692400721,0.0,0.0,-0.686968001622746,0.0,-0.1736982476828034,0.3490658503988659,1.0,0.14,0.14,0.75,0.08726646259971647,5.0,0.184,0.175,0.174,0.0,0.0,0.0,0.0031656951990134317,0.0,0.0071091937212720046,0.0,6.045539427656583,0.0,-0.5193064279788502,0.0,0.14430439956673358,0.0,-3.6300451242768856,0.0,-0.03361635937774649,0.0,-0.009001377147827156,0.41302190478428635,0.05205065883049686,0.1040966663487977,0.0,0.0,0.0,0.3885268776266057,0.1040966663487977,0.0,0.0,0.0667587018375434,0.0,0.0,-0.004051752114232031,0.0,1.257344806513469,0.0,4.692871240831518,0.0,0.11288948434646984,0.0,86.27590726244992,-1.4488923502029212,0.0,-4.637312519446301,0.0,0.11288948434646984,0.0
sim_raptor_glider_3dof,raptor_glider_3dof,0.023,-14.725783382498994,0.0,-0.004793095520730066,11.852918621206964,0.0,-0.5021033479616952,0.0,0.0,0.0,-38.50142965819238,-0.671976714260452,-0.028321066975722373,0.0,0.0,0.0,0.0,0.0,-0.014337153837237914,-0.8214584051035257,0.0,0.0,11.863548693919082,0.004793095520730066,0.034863054141817514,-0.04233584578463118,-2.425665285576084,0.0,0.0,0.027998691947393267,1.6042068804725582,-5.465907941665907,0.0,-14.78723111564137,11.858898921097678,0.0,-0.3321204482976521,0.0,14.992733241833921,0.0,0.0,-0.671976714260452,0.0,-0.1736982476828034,0.3490658503988659,1.0,0.14,0.14,0.75,0.08726646259971647,5.0,0.184,0.175,0.174,0.0,0.0,0.0,0.0031674264840684686,0.0,0.007116176613866616,0.0,6.045485781678687,0.0,-0.519428590300307,0.0,0.14281528035263102,0.0,-3.6289470028281943,0.0,-0.03324442966842893,0.0,-0.00889343874345978,0.4075983056383984,0.05243687285042191,0.10391878976378909,0.0,0.0,0.0,0.38362826055708044,0.10391878976378909,0.0,0.0,0.0668254640070041,0.0,0.0,-0.003964949376601133,0.0,1.2541732198443896,0.0,4.6299258474797,0.0,0.11291027404425126,0.0,86.20558574737387,-1.4490027245690722,0.0,-4.572696679501809,0.0,0.11291027404425126,0.0
sim_raptor_glider_3dof,raptor_glider_3dof,0.024,-14.713926997619152,0.0,-0.005128633101194141,11.847454865260136,0.0,-0.5166850686638919,0.0,0.0,0.0,-37.64238379258635,-0.6569835354799821,-0.027700449341367395,0.0,0.0,0.0,0.0,0.0,-0.01500163423351767,-0.8595303273795362,0.0,0.0,11.858716214015592,0.005128633101194141,0.0348488530783026,-0.0435838647340152,-2.4971715041281395,0.0,0.0,0.028582230500497532,1.6376411767486032,-5.46135856315567,0.0,-14.377769450123555,11.85387259083772,0.0,-0.3389024118275799,0.0,14.993071430608994,0.0,0.0,-0.6569835354799821,0.0,-0.1736982476828034,0.3490658503988659,1.0,0.14,0.14,0.75,0.08726646259971647,5.0,0.184,0.175,0.174,0.0,0.0,0.0,0.0031690648874163874,0.0,0.007122908652553056,0.0,6.045426153976067,0.0,-0.5195455651731029,0.0,0.14136504234422845,0.0,-3.627872171367766,0.0,-0.032882507810329,0.0,-0.008789432661658035,0.4023146191631514,0.05281233055352835,0.10374909932604737,0.0,0.0,0.0,0.3788700762336246,0.10374909932604737,0.0,0.0,0.06688144705551846,0.0,0.0,-0.0038780629077914356,0.0,1.2511053930963476,0.0,4.568776006132591,0.0,0.11291282094391634,0.0,86.13537034631143,-1.4489791905571345,0.0,-4.50992662957836,0.0,0.11291282094391634,0.0
sim_raptor_glider_3dof,raptor_glider_3dof,0.025,-14.702075634942537,0.0,-0.005470834233039605,11.841996198251577,0.0,-0.5308609292096814,0.0,0.0,0.0,-36.783390506455866,-0.6419912743844794,-0.027079352094834523,0.0,0.0,0.0,0.0,0.0,-0.015651121560101917,-0.8967432100400484,0.0,0.0,11.853889120688036,0.005470834233039605,0.03483466784415656,-0.044798675895349666,-2.56677505657799,0.0,0.0,0.02914755433524775,1.6700318465379418,-5.455808691709091,0.0,-13.97508033847833,11.848854064069258,0.0,-0.34546295598171123,0.0,14.991059038267872,0.0,0.0,-0.6419912743844794,0.0,-0.1736982476828034,0.3490658503988659,1.0,0.14,0.14,0.75,0.08726646259971647,5.0,0.184,0.175,0.174,0.0,0.0,0.0,0.0031706146449246965,0.0,0.007129393376180626,0.0,6.045361095287107,0.0,-0.5196575686823934,0.0,0.1399529959126696,0.0,-3.6268205497314465,0.0,-0.032530395888384384,0.0,-0.008689218325172077,0.3971686712857157,0.053177271205995975,0.10358725170781065,0.0,0.0,0.0,0.3742500466561585,0.10358725170781065,0.0,0.0,0.06692694429713025,0.0,0.0,-0.0037911092932768333,0.0,1.2481369508127251,0.0,4.509389952660715,0.0,0.11289766561719536,0.0,86.06526177105229,-1.4488318383952479,0.0,-4.448969532059501,0.0,0.11289766561719536,0.0
sim_raptor_glider_3dof,raptor_glider_3dof,0.026000000000000002,-14.690229286905831,0.0,-0.005819487875616715,11.836543556589728,0.0,-0.544637456352759,0.0,0.0,0.0,-35.92457840294662,-0.6270021755222648,-0.026457870706209825,0.0,0.0,0.0,0.0,0.0,-0.016285618046006367,-0.9330971807982554,0.0,0.0,11.849067192226915,0.005819487875616715,0.03482049778784835,-0.04598078565267037,-2.634504956593701,0.0,0.0,0.029695167606664005,1.7014077757954453,-5.449316204455918,0.0,-13.57909249126513,11.843843304738451,0.0,-0.35180832666436684,0.0,14.986755477004724,0.0,0.0,-0.6270021755222648,0.0,-0.1736982476828034,0.3490658503988659,1.0,0.14,0.14,0.75,0.08726646259971647,5.0,0.184,0.175,0.174,0.0,0.0,0.0,0.003172079706068514,0.0,0.007135634224890761,0.0,6.045291135071679,0.0,-0.519764797818194,0.0,0.13857859027411717,0.0,-3.6257921395992883,0.0,-0.03218793212349812,0.0,-0.00859266977670491,0.39215875487970203,0.053531894406490366,0.10343293043561674,0.0,0.0,0.0,0.36976638050706484,0.10343293043561674,0.0,0.0,0.06696219795568574,0.0,0.0,-0.0037041018988693756,0.0,1.2452637966806168,0.0,4.451741673912013,0.0,0.11286525549732258,0.0,85.99525670790312,-1.4485700985587528,0.0,-4.389798460536638,0.0,0.11286525549732258,0.0
sim_raptor_glider_3dof,raptor_glider_3dof,0.027,-14.678387945747478,0.0,-0.006174381756999829,11.831097857165457,0.0,-0.5580213173427924,0.0,0.0,0.0,-35.06607719527129,-0.6120185028159826,-0.02583610145082114,0.0,0.0,0.0,0.0,0.0,-0.016905127888330793,-0.9685924801302601,0.0,0.0,11.844250263162884,0.006174381756999829,0.034806342423118176,-0.04713071301809323,-2.7003909413790286,0.0,0.0,0.03022558512976244,1.7317984612487685,-5.441937092658832,0.0,-13.189730844976411,11.838840304464217,0.0,-0.357944886578446,0.0,14.980220374866093,0.0,0.0,-0.6120185028159826,0.0,-0.1736982476828034,0.3490658503988659,1.0,0.14,0.14,0.75,0.08726646259971647,5.0,0.184,0.175,0.174,0.0,0.0,0.0,0.0031734639157517796,0.0,0.007141635204834041,0.0,6.045216776603829,0.0,-0.5198674435185876,0.0,0.13724125751120808,0.0,-3.6247869101187513,0.0,-0.031854951849026376,0.0,-0.008499664211097236,0.3872830648914809,0.05387640072155588,0.10328582712140502,0.0,0.0,0.0,0.36541718814092494,0.10328582712140502,0.0,0.0,0.06698745145019701,0.0,0.0,-0.003617054203114961,0.0,1.2424819568913286,0.0,4.395804106495565,0.0,0.11281603964311655,0.0,85.92535266451007,-1.4482029368611766,0.0,-4.332385417936687,0.0,0.11281603964311655,0.0
sim_raptor_glider_3dof,raptor_glider_3dof,0.028,-14.66655160371833,0.0,-0.006535310142182515,11.825659959944856,0.0,-0.5710191011576441,0.0,0.0,0.0,-34.20801309928048,-0.5970424591477942,-0.025214138133818464,0.0,0.0,0.0,0.0,0.0,-0.017509657597784452,-1.0032294810722246,0.0,0.0,11.839438175104842,0.006535310142182515,0.034792201284506864,-0.04824897134549407,-2.7644624239444555,0.0,0.0,0.03073931374770962,1.7612329428722306,-5.433725241088693,0.0,-12.806919218118392,11.83384504095126,0.0,-0.36387889315416255,0.0,14.971511900128545,0.0,0.0,-0.5970424591477942,0.0,-0.1736982476828034,0.3490658503988659,1.0,0.14,0.14,0.75,0.08726646259971647,5.0,0.184,0.175,0.174,0.0,0.0,0.0,0.0031747709913748363,0.0,0.007147400727860702,0.0,6.04513849863631,0.0,-0.5199656892078974,0.0,0.13594043396112332,0.0,-3.6238048144474173,0.0,-0.03153129278242525,0.0,-0.008410083340119986,0.38253977928854893,0.05421098632830383,0.10314564378034408,0.0,0.0,0.0,0.36120056528857375,0.10314564378034408,0.0,0.0,0.06700294245091012,0.0,0.0,-0.003529979338734585,0.0,1.2397875971248546,0.0,4.341550108242159,0.0,0.11275045611986809,0.0,85.85554725517676,-1.447738848169049,0.0,-4.276702334259924,0.0,0.11275045611986809,0.0
sim_raptor_glider_3dof,raptor_glider_3dof,0.029,-14.654720253099164,0.0,-0.0069020739097295026,11.82023066850314,0.0,-0.5836373152660188,0.0,0.0,0.0,-33.350508820826164,-0.5820761861388282,-0.02459207208159962,0.0,0.0,0.0,0.0,0.0,-0.018099216003648128,-1.0370086895046742,0.0,0.0,11.834630774654235,0.0069020739097295026,0.0347780739212267,-0.04933606805921501,-2.8267484775632066,0.0,0.0,0.031236852055566883,1.7897397880585324,-5.424732482344392,0.0,-12.430580509470682,11.828857477316529,0.0,-0.36961649547329756,0.0,14.960686778295212,0.0,0.0,-0.5820761861388282,0.0,-0.1736982476828034,0.3490658503988659,1.0,0.14,0.14,0.75,0.08726646259971647,5.0,0.184,0.175,0.174,0.0,0.0,0.0,0.003176004524106542,0.0,0.007152935553586791,0.0,6.045056756247677,0.0,-0.5200597110319485,0.0,0.13467556066559228,0.0,-3.622845790801096,0.0,-0.031216795072243744,0.0,-0.008323813252626915,0.3779270635285915,0.05453584307422059,0.10301209266569634,0.0,0.0,0.0,0.357114597520411,0.10301209266569634,0.0,0.0,0.06700890295012664,0.0,0.0,-0.0034428900914239466,0.0,1.23717701954204,0.0,4.288952509964726,0.0,0.11266893212734125,0.0,85.78583817040868,-1.4471858736528922,0.0,-4.22272112002618,0.0,0.11266893212734125,0.0
sim_raptor_glider_3dof,raptor_glider_3dof,0.03,-14.642893886211692,0.0,-0.00727447964139397,11.814810739081283,0.0,-0.595882394260079,0.0,0.0,0.0,-32.493684067035176,-0.5671217730725856,-0.023969992500521235,0.0,0.0,0.0,0.0,0.0,-0.018673813907933046,-1.069930724337262,0.0,0.0,11.8298279204771,0.00727447964139397,0.034763959917943815,-0.050392505347744324,-2.8872778755161805,0.0,0.0,0.03171869143981128,1.8173471511789188,-5.415008675070304,0.0,-12.060636825191256,11.823877570027719,0.0,-0.37516374704249206,0.0,14.947800435627792,0.0,0.0,-0.5671217730725856,0.0,-0.1736982476828034,0.3490658503988659,1.0,0.14,0.14,0.75,0.08726646259971647,5.0,0.184,0.175,0.174,0.0,0.0,0.0,0.003177167981401622,0.0,0.007158244740735476,0.0,6.044971981599596,0.0,-0.5201496781694042,0.0,0.13344608269099953,0.0,-3.621909762625157,0.0,-0.030911301067116315,0.0,-0.008240744203511173,0.37344307071215493,0.0548511588185092,0.10288489598094892,0.0,0.0,0.0,0.35315736008308246,0.10288489598094892,0.0,0.0,0.06700555979718575,0.0,0.0,-0.003355798950072973,0.0,1.2346466602350432,0.0,4.237984118142478,0.0,0.1125718850807129,0.0,85.71622327924189,-1.4465516200662207,0.0,-4.170413669138976,0.0,0.1125718850807129,0.0
sim_raptor_glider_3dof,raptor_glider_3dof,0.03,-14.642893886211692,0.0,-0.00727447964139397,11.814810739081283,0.0,-0.595882394260079,0.0,0.0,0.0,-32.493684067035176,-0.5671217730725856,-0.023969992500521235,0.0,0.0,0.0,0.0,0.0,-0.018673813907933046,-1.069930724337262,0.0,0.0,11.8298279204771,0.00727447964139397,0.034763959917943815,-0.050392505347744324,-2.8872778755161805,0.0,0.0,0.03171869143981128,1.8173471511789188,-5.42030199525432,0.0,-12.047896692954435,11.823877570027719,0.0,-0.37516374704249206,0.0,15.090971020121158,0.0,0.0,-0.5671217730725856,0.0,-0.17472878055129842,0.3490658503988659,1.0,0.14,0.14,0.75,0.08726646259971647,5.0,0.184,0.175,0.174,0.0,0.0,0.0,0.0032069263754341665,0.0,0.007247048013305911,0.0,6.0445722087687255,0.0,-0.5201453484978381,0.0,0.13343939911809627,0.0,-3.6203767171178263,0.0,-0.03091480773465429,0.0,-0.008278693693689382,0.37315625515866313,0.055498085136811585,0.10302075061368698,0.0,0.0,0.0,0.3528718860868368,0.10302075061368698,0.0,0.0,0.06764734152298423,0.0,0.0,-0.003355798950072973,0.0,1.2362769526797046,0.0,4.234558352750112,0.0,0.11365010275253244,0.0,85.71622327924189,-1.4480072831168254,0.0,-4.16691013277385,0.0,0.11365010275253244,0.0
sim_raptor_glider_3dof,raptor_glider_3dof,0.031,-14.631072511285803,0.0,-0.0076523337850898125,11.809395713508339,0.0,-0.6077468331684047,0.0,0.0,0.0,-31.629490690575352,-0.5520387532794349,-0.02334197256496856,0.0,0.0,0.0,0.0,0.0,-0.01923335256874496,-1.1019899280761867,0.0,0.0,11.825023608071797,0.0076523337850898125,0.03474984162940961,-0.051417631516164186,-2.946013278435056,0.0,0.0,0.03218427894741922,1.844023350358869,-5.4098015575047445,0.0,-11.683024340453102,11.818899792539067,0.0,-0.3805141592311194,0.0,15.075145766526528,0.0,0.0,-0.5520387532794349,0.0,-0.17472878055129842,0.3490658503988659,1.0,0.14,0.14,0.75,0.08726646259971647,5.0,0.184,0.175,0.174,0.0,0.0,0.0,0.003208042718455562,0.0,0.007252171732457885,0.0,6.044484081579239,0.0,-0.5202313044317021,0.0,0.1322461616365692,0.0,-3.619461971767981,0.0,-0.03061849105471625,0.0,-0.008198831254973319,0.3688043004989369,0.05580337068734155,0.10290001943532223,0.0,0.0,0.0,0.34905167507471124,0.10290001943532223,0.0,0.0,0.06763132417363528,0.0,0.0,-0.0032678761590955985,0.0,1.2338253762534408,0.0,4.185313245753526,0.0,0.11353092276771129,0.0,85.64661552226161,-1.4472988424976485,0.0,-4.116369527225639,0.0,0.11353092276771129,0.0
sim_raptor_glider_3dof,raptor_glider_3dof,0.032,-14.619256096613153,0.0,-0.008035434374259598,11.803991480662534,0.0,-0.6192505470887193,0.0,0.0,0.0,-30.766257630858036,-0.5369724941753029,-0.022714142813030885,0.0,0.0,0.0,0.0,0.0,-0.019777858200602096,-1.1331878027027047,0.0,0.0,11.820223606836858,0.008035434374259598,0.03473573600998224,-0.05241306641081065,-3.0030474966783482,0.0,0.0,0.03263520821020856,1.8698596939756436,-5.398663618100988,0.0,-11.324403795932893,11.813929560639815,0.0,-0.38568698690009057,0.0,15.057372134377148,0.0,0.0,-0.5369724941753029,0.0,-0.17472878055129842,0.3490658503988659,1.0,0.14,0.14,0.75,0.08726646259971647,5.0,0.184,0.175,0.174,0.0,0.0,0.0,0.003209095986278695,0.0,0.007257080378786823,0.0,6.044393759059135,0.0,-0.5203135253467996,0.0,0.13108724475498865,0.0,-3.6185701329067004,0.0,-0.03033087549440424,0.0,-0.008121961827812444,0.36457743356405387,0.05609948040381865,0.10278510525063946,0.0,0.0,0.0,0.3453563823354492,0.10278510525063946,0.0,0.0,0.06760646103271219,0.0,0.0,-0.003179979993824325,0.0,1.2314471501847677,0.0,4.137643599119281,0.0,0.11339706954399431,0.0,85.57709846479548,-1.446523373905569,0.0,-4.067447205038535,0.0,0.11339706954399431,0.0
sim_raptor_glider_3dof,raptor_glider_3dof,0.033,-14.60744464844058,0.0,-0.00842362165323446,11.798598682266705,0.0,-0.6303987336100461,0.0,0.0,0.0,-29.904097403296053,-0.5219249595246027,-0.022086587536602427,0.0,0.0,0.0,0.0,0.0,-0.020307306935463953,-1.16352298067883,0.0,0.0,11.815427771711136,0.00842362165323446,0.03472164263337487,-0.05337921025011264,-3.058403461072918,0.0,0.0,0.03307190331464869,1.8948804803940877,-5.386932435808045,0.0,-10.971972061017638,11.808966793911999,0.0,-0.39068745667934496,0.0,15.037696039146155,0.0,0.0,-0.5219249595246027,0.0,-0.17472878055129842,0.3490658503988659,1.0,0.14,0.14,0.75,0.08726646259971647,5.0,0.184,0.175,0.174,0.0,0.0,0.0,0.003210089471437228,0.0,0.0072617800528622005,0.0,6.0443016186044165,0.0,-0.5203921537750141,0.0,0.12996220664305183,0.0,-3.617701159510763,0.0,-0.03005183436690311,0.0,-0.008047994322829398,0.3604741529129848,0.05638656438065022,0.10267576821106698,0.0,0.0,0.0,0.341784433361414,0.10267576821106698,0.0,0.0,0.06757293864836258,0.0,0.0,-0.0030921222551243397,0.0,1.229139197737312,0.0,4.091526672168296,0.0,0.1132488888708097,0.0,85.5076699311936,-1.4456872558020517,0.0,-4.020119654300158,0.0,0.1132488888708097,0.0
sim_raptor_glider_3dof,raptor_glider_3dof,0.034,-14.595638160263452,0.0,-0.008816746105490325,11.79321782287724,0.0,-0.6411968058833512,0.0,0.0,0.0,-29.043104815950233,-0.5068978040401533,-0.021459378185053606,0.0,0.0,0.0,0.0,0.0,-0.0208217159245161,-1.1929964446951096,0.0,0.0,11.810635883037984,0.008816746105490325,0.03470756085408911,-0.05431648268907096,-3.1121052160791627,0.0,0.0,0.03349476676455486,1.919108771384053,-5.374650113089735,0.0,-10.625658252187987,11.804011329753909,0.0,-0.39552052885498495,0.0,15.016161789950381,0.0,0.0,-0.5068978040401533,0.0,-0.17472878055129842,0.3490658503988659,1.0,0.14,0.14,0.75,0.08726646259971647,5.0,0.184,0.175,0.174,0.0,0.0,0.0,0.0032110273155986266,0.0,0.007266279721039856,0.0,6.044208021782126,0.0,-0.520467328136942,0.0,0.1288705808868858,0.0,-3.616854975378889,0.0,-0.02978123483681577,0.0,-0.007976840412947623,0.35649285131535735,0.05666477362652214,0.10257177231933223,0.0,0.0,0.0,0.3383341589077593,0.10257177231933223,0.0,0.0,0.06753093785252291,0.0,0.0,-0.003004312945907505,0.0,1.2268984826760303,0.0,4.046938614934748,0.0,0.11308671444011632,0.0,85.43832667003024,-1.4447964813448206,0.0,-3.9743622340365947,0.0,0.11308671444011632,0.0
sim_raptor_glider_3dof,raptor_glider_3dof,0.034999999999999996,-14.583836623620988,0.0,-0.009214616351620235,11.787849525437055,0.0,-0.651651810055709,0.0,0.0,0.0,-28.183401923945755,-0.49189315798575795,-0.020832605960979165,0.0,0.0,0.0,0.0,0.0,-0.02132110950543153,-1.2216095891974887,0.0,0.0,11.805847979535207,0.009214616351620235,0.03469349078590381,-0.05522544158321483,-3.164184724464485,0.0,0.0,0.0339043320777833,1.9425751352669964,-5.361858362712228,0.0,-10.285370189853234,11.79906319633473,0.0,-0.4001927095722507,0.0,14.992825059431487,0.0,0.0,-0.49189315798575795,0.0,-0.17472878055129842,0.3490658503988659,1.0,0.14,0.14,0.75,0.08726646259971647,5.0,0.184,0.175,0.174,0.0,0.0,0.0,0.00321191366518686,0.0,0.007270589068686003,0.0,6.044113296582527,0.0,-0.5205391925526771,0.0,0.12781173858950517,0.0,-3.6160313636618806,0.0,-0.029518904748248965,0.0,-0.00790840431253182,0.3526313124446351,0.056934298382172364,0.10247287460541228,0.0,0.0,0.0,0.33500326414786447,0.10247287460541228,0.0,0.0,0.06748068829801178,0.0,0.0,-0.0029165648345370835,0.0,1.2247219488584644,0.0,4.003848356172196,0.0,0.11291096552257854,0.0,85.36906917175095,-1.443856731145447,0.0,-3.9301429046746454,0.0,0.11291096552257854,0.0
sim_raptor_glider_3dof,raptor_glider_3dof,0.036,-14.572040031485987,0.0,-0.009617080294130427,11.782494258920188,0.0,-0.6617695147546293,0.0,0.0,0.0,-27.325086810609683,-0.47691273323841515,-0.020206344788694736,0.0,0.0,0.0,0.0,0.0,-0.0218055104291797,-1.249363717720497,0.0,0.0,11.801063928822087,0.009617080294130427,0.03467943203979572,-0.05610653823183784,-3.2146678437737046,0.0,0.0,0.03430102780265814,1.9653041260532074,-5.348596307835421,0.0,-9.951030498957834,11.794122276580888,0.0,-0.4047092502084356,0.0,14.967731775342337,0.0,0.0,-0.47691273323841515,0.0,-0.17472878055129842,0.3490658503988659,1.0,0.14,0.14,0.75,0.08726646259971647,5.0,0.184,0.175,0.174,0.0,0.0,0.0,0.003212752213124584,0.0,0.007274716693790006,0.0,6.044017760947455,0.0,-0.5206078773983295,0.0,0.12678517359255365,0.0,-3.6152301886107505,0.0,-0.02926470352228557,0.0,-0.007842601012876945,0.34888775234351915,0.057195296219084625,0.10237885271227584,0.0,0.0,0.0,0.33178990139338127,0.10237885271227584,0.0,0.0,0.06742237849450397,0.0,0.0,-0.002828888270417263,0.0,1.2226067606065387,0.0,3.962230146147019,0.0,0.11272198800010315,0.0,85.29989545249826,-1.442873317323433,0.0,-3.887435094284291,0.0,0.11272198800010315,0.0
sim_raptor_glider_3dof,raptor_glider_3dof,0.037,-14.560248376704278,0.0,-0.010023985197175015,11.77715247389302,0.0,-0.671555820608482,0.0,0.0,0.0,-26.468258644402418,-0.4619582606142732,-0.01958066942442876,0.0,0.0,0.0,0.0,0.0,-0.022274943763577703,-1.2762602665442562,0.0,0.0,11.796283635684487,0.010023985197175015,0.03466538433596193,-0.056960235879747564,-3.263581115979177,0.0,0.0,0.03468529211616986,1.9873208494349208,-5.334901653245802,0.0,-9.62255930225902,11.789188472594537,0.0,-0.40907550789760977,0.0,14.940928463706655,0.0,0.0,-0.4619582606142732,0.0,-0.17472878055129842,0.3490658503988659,1.0,0.14,0.14,0.75,0.08726646259971647,5.0,0.184,0.175,0.174,0.0,0.0,0.0,0.003213546347360199,0.0,0.0072786707220900285,0.0,6.043921712157776,0.0,-0.5206735091073535,0.0,0.1257903645548672,0.0,-3.614451289460335,0.0,-0.029018487883126453,0.0,-0.007779347139368594,0.34526031800770757,0.05744792725774136,0.1022894912847005,0.0,0.0,0.0,0.3286921533775031,0.1022894912847005,0.0,0.0,0.06735619987668859,0.0,0.0,-0.002741293719420027,0.0,1.2205501825955132,0.0,3.92205751327878,0.0,0.11252013226017482,0.0,85.23080406864766,-1.4418512371826324,0.0,-3.8462114990644207,0.0,0.11252013226017482,0.0
sim_raptor_glider_3dof,raptor_glider_3dof,0.038,-14.548461652204445,0.0,-0.010435183095412505,11.771824586933915,0.0,-0.6810165610455226,0.0,0.0,0.0,-25.613014250682063,-0.4470314300346303,-0.01895565297559795,0.0,0.0,0.0,0.0,0.0,-0.022729436203400104,-1.3023007651666834,0.0,0.0,11.791507014031756,0.010435183095412505,0.03465134742141043,-0.0577869929489393,-3.310950806726469,0.0,0.0,0.03505755674553919,2.008650041559785,-5.3208105803096135,0.0,-9.29987678478302,11.784261684734998,0.0,-0.41329675494338514,0.0,14.91246080887812,0.0,0.0,-0.4470314300346303,0.0,-0.17472878055129842,0.3490658503988659,1.0,0.14,0.14,0.75,0.08726646259971647,5.0,0.184,0.175,0.174,0.0,0.0,0.0,0.0032142991594073726,0.0,0.007282458763821709,0.0,6.043825429246417,0.0,-0.5207362089976049,0.0,0.12482679455147318,0.0,-3.613694496076364,0.0,-0.02878011665212837,0.0,-0.007718562144860831,0.34174716035728986,0.05769234920306923,0.10220458359521634,0.0,0.0,0.0,0.32570810830982533,0.10220458359521634,0.0,0.0,0.06728234063891249,0.0,0.0,-0.0026537914165837132,0.0,1.2185495930185135,0.0,3.8833041421671037,0.0,0.11230574235166112,0.0,85.16179371064273,-1.4407951817922204,0.0,-3.8064449838848446,0.0,0.11230574235166112,0.0
sim_raptor_glider_3dof,raptor_glider_3dof,0.039,-14.53667985103042,0.0,-0.010850531947783874,11.766510974344959,0.0,-0.6901574793346477,0.0,0.0,0.0,-24.75944751643187,-0.4321338801364689,-0.01833136647363278,0.0,0.0,0.0,0.0,0.0,-0.023169016337060578,-1.3274868515832252,0.0,0.0,11.786733977470684,0.010850531947783874,0.03463732104226008,-0.058587261122148356,-3.356802795529992,0.0,0.0,0.035418244785087774,2.029315943946767,-5.306357769565427,0.0,-8.982903495590469,11.77934180389887,0.0,-0.41737815297694103,0.0,14.882373466554627,0.0,0.0,-0.4321338801364689,0.0,-0.17472878055129842,0.3490658503988659,1.0,0.14,0.14,0.75,0.08726646259971647,5.0,0.184,0.175,0.174,0.0,0.0,0.0,0.0032150134664715143,0.0,0.007286087940464367,0.0,6.0437291739833165,0.0,-0.5207960933057283,0.0,0.12389395337501027,0.0,-3.6129596312393906,0.0,-0.02854945125487479,0.0,-0.007660168365635967,0.3383464440006593,0.0579287167952534,0.10212393148554788,0.0,0.0,0.0,0.3228358699908649,0.10212393148554788,0.0,0.0,0.06720098498291006,0.0,0.0,-0.0025663913063085895,0.0,1.2166024804814988,0.0,3.845943986937782,0.0,0.1120791545766229,0.0,85.09286306662374,-1.4397095478801631,0.0,-3.7681086985275933,0.0,0.1120791545766229,0.0
sim_raptor_glider_3dof,raptor_glider_3dof,0.04,-14.524902966330332,0.0,-0.011269894430183858,11.761211981245653,0.0,-0.6989842453715909,0.0,0.0,0.0,-23.907649993419316,-0.41726720879956775,-0.01770787930389335,0.0,0.0,0.0,0.0,0.0,-0.02359371424134849,-1.3518202490669735,0.0,0.0,11.781964447539043,0.011269894430183858,0.034623304967936294,-0.05936148671487744,-3.4011626543843834,0.0,0.0,0.03576777247352895,2.0493424053174096,-5.291576472494617,0.0,-8.671560285571747,11.774428719794999,0.0,-0.42132477442074373,0.0,14.850710231881548,0.0,0.0,-0.41726720879956775,0.0,-0.17472878055129842,0.3490658503988659,1.0,0.14,0.14,0.75,0.08726646259971647,5.0,0.184,0.175,0.174,0.0,0.0,0.0,0.003215691834986863,0.0,0.007289564924429897,0.0,6.043633191464354,0.0,-0.5208532734691025,0.0,0.12299133600147352,0.0,-3.612246509912304,0.0,-0.02832635528253427,0.0,-0.007604090835553547,0.3350563429029214,0.058157182234673456,0.10204734496784425,0.0,0.0,0.0,0.3200735531073178,0.10204734496784425,0.0,0.0,0.06711231376455465,0.0,0.0,-0.0024791031025450695,0.0,1.2147064405102497,0.0,3.8099512193969396,0.0,0.11184069875629994,0.0,85.02401094126674,-1.4385984523453963,0.0,-3.7311760242195406,0.0,0.11184069875629994,0.0
sim_raptor_glider_3dof,raptor_glider_3dof,0.04,-14.524902966330332,0.0,-0.011269894430183858,11.761211981245653,0.0,-0.6989842453715909,0.0,0.0,0.0,-23.907649993419316,-0.41726720879956775,-0.01770787930389335,0.0,0.0,0.0,0.0,0.0,-0.02359371424134849,-1.3518202490669735,0.0,0.0,11.781964447539043,0.011269894430183858,0.034623304967936294,-0.05936148671487744,-3.4011626543843834,0.0,0.0,0.03576777247352895,2.0493424053174096,-5.287834751363814,0.0,-8.680555476186822,11.774428719794999,0.0,-0.42132477442074373,0.0,14.749493568831221,0.0,0.0,-0.41726720879956775,0.0,-0.1739924734981243,0.3490658503988659,1.0,0.14,0.14,0.75,0.08726646259971647,5.0,0.184,0.175,0.174,0.0,0.0,0.0,0.003195199984916854,0.0,0.007225703904067856,0.0,6.0439241573808715,0.0,-0.5208564032932715,0.0,0.1229957339721547,0.0,-3.6133589031436157,0.0,-0.028324123905908667,0.0,-0.007576791324837967,0.3352593831217565,0.057697013077589294,0.10194872443580526,0.0,0.0,0.0,0.3202758719916465,0.10194872443580526,0.0,0.0,0.06665490234498148,0.0,0.0,-0.0024791031025450695,0.0,1.2135325246629332,0.0,3.8123594942218095,0.0,0.11107843606686793,0.0,85.02401094126674,-1.4375694790344256,0.0,-3.7336497016386865,0.0,0.11107843606686793,0.0
sim_raptor_glider_3dof,raptor_glider_3dof,0.041,-14.513131013771073,0.0,-0.011693151853271994,11.755931723146475,0.0,-0.7075107829966485,0.0,0.0,0.0,-23.0635080958371,-0.4025341533327253,-0.017089548571067256,0.0,0.0,0.0,0.0,0.0,-0.02400353992073068,-1.3753015308316545,0.0,0.0,11.777202646950514,0.011693151853271994,0.03460931160760091,-0.060110797072985556,-3.444094975449415,0.0,0.0,0.03610725715225488,2.0687934446177603,-5.2728292016336145,0.0,-8.375667857237806,11.769526311126468,0.0,-0.4251500900151898,0.0,14.716934920782418,0.0,0.0,-0.4025341533327253,0.0,-0.1739924734981243,0.3490658503988659,1.0,0.14,0.14,0.75,0.08726646259971647,5.0,0.184,0.175,0.174,0.0,0.0,0.0,0.0031958325684845446,0.0,0.007229013449422229,0.0,6.043829016674471,0.0,-0.5209110500734773,0.0,0.12212201030967032,0.0,-3.6126680740083716,0.0,-0.02810826540868505,0.0,-0.007522896283901753,0.33207499439124477,0.05791811640350918,0.10187583174194155,0.0,0.0,0.0,0.317614911056249,0.10187583174194155,0.0,0.0,0.0665615577165766,0.0,0.0,-0.002392536799949416,0.0,1.211684833023013,0.0,3.7776297271727755,0.0,0.11083323688841239,0.0,84.95529819450726,-1.436436006093051,0.0,-3.698015425954428,0.0,0.11083323688841239,0.0
sim_raptor_glider_3dof,raptor_glider_3dof,0.042,-14.501363935388108,0.0,-0.012120152344216263,11.750666529938641,0.0,-0.7157367192613169,0.0,0.0,0.0,-22.221265060957432,-0.38783423927208566,-0.01647212048635909,0.0,0.0,0.0,0.0,0.0,-0.024398724123594274,-1.3979439177859803,0.0,0.0,11.77244422153357,0.012120152344216263,0.03459532816578086,-0.06083514830369513,-3.4855972438541802,0.0,0.0,0.03643642418010086,2.0876533260682004,-5.257556809035661,0.0,-8.076205025260343,11.764630461025265,0.0,-0.4288508652616377,0.0,14.682892957612259,0.0,0.0,-0.38783423927208566,0.0,-0.1739924734981243,0.3490658503988659,1.0,0.14,0.14,0.75,0.08726646259971647,5.0,0.184,0.175,0.174,0.0,0.0,0.0,0.003196434024804807,0.0,0.007232184319067534,0.0,6.043734544699612,0.0,-0.520963215127723,0.0,0.1212772757218597,0.0,-3.6119983547289167,0.0,-0.027899650253300372,0.0,-0.007471161632989726,0.32899672754617176,0.058131669871398034,0.10180663546455913,0.0,0.0,0.0,0.315059290241071,0.10180663546455913,0.0,0.0,0.0664612879647856,0.0,0.0,-0.002306096868090273,0.0,1.2098835621184114,0.0,3.7442064028141204,0.0,0.11057686686377792,0.0,84.88666189849084,-1.4352842933490697,0.0,-3.6637219897290314,0.0,0.11057686686377792,0.0
sim_raptor_glider_3dof,raptor_glider_3dof,0.043000000000000003,-14.489601749635533,0.0,-0.012550793440746739,11.745416727716155,0.0,-0.7236658772628144,0.0,0.0,0.0,-21.3810139936472,-0.3731690916041256,-0.01585566583622932,0.0,0.0,0.0,0.0,0.0,-0.024779225781992206,-1.4197450569099104,0.0,0.0,11.767689085356947,0.012550793440746739,0.03458135438995253,-0.061534832507225364,-3.525686195708435,0.0,0.0,0.03675560672523316,2.105941138798525,-5.24204701060863,0.0,-7.782116658818682,11.75974105553732,0.0,-0.4324311694813734,0.0,14.64740063433578,0.0,0.0,-0.3731690916041256,0.0,-0.1739924734981243,0.3490658503988659,1.0,0.14,0.14,0.75,0.08726646259971647,5.0,0.184,0.175,0.174,0.0,0.0,0.0,0.0031970061993623167,0.0,0.007235221421710019,0.0,6.043640957915357,0.0,-0.5210129862378271,0.0,0.12046120208370913,0.0,-3.6113496674744443,0.0,-0.027698188111888195,0.0,-0.00742153004643616,0.32602337966478323,0.0583377773574601,0.10174098232135745,0.0,0.0,0.0,0.31260774645998357,0.10174098232135745,0.0,0.0,0.06635422685379547,0.0,0.0,-0.002219793217072105,0.0,1.208126764528928,0.0,3.712071347065213,0.0,0.11030957417718276,0.0,84.81810075545971,-1.4341177400867628,0.0,-3.6307506486182874,0.0,0.11030957417718276,0.0
sim_raptor_glider_3dof,raptor_glider_3dof,0.044,-14.47784445088307,0.0,-0.012984970437519018,11.740182514998851,0.0,-0.731302975976411,0.0,0.0,0.0,-20.54282744705526,-0.3585399766201754,-0.015240240306098914,0.0,0.0,0.0,0.0,0.0,-0.025145076130941708,-1.4407067378381053,0.0,0.0,11.76293711315999,0.012984970437519018,0.03456738991201619,-0.062210218926960936,-3.5643829870997346,0.0,0.0,0.03706514279601923,2.1236762492616297,-5.226327413583157,0.0,-7.493333980245405,11.754857930746825,0.0,-0.43589512054525914,0.0,14.610493833254154,0.0,0.0,-0.3585399766201754,0.0,-0.1739924734981243,0.3490658503988659,1.0,0.14,0.14,0.75,0.08726646259971647,5.0,0.184,0.175,0.174,0.0,0.0,0.0,0.003197550830400014,0.0,0.0072381297019520905,0.0,6.0435484492541445,0.0,-0.5210604532996469,0.0,0.11967337051025931,0.0,-3.6107218531186263,0.0,-0.02750376688446217,0.0,-0.0073739405109662865,0.32315341141275217,0.05853656470284676,0.10167871774002048,0.0,0.0,0.0,0.31025869311920634,0.10167871774002048,0.0,0.0,0.06624052232364826,0.0,0.0,-0.002133633642853848,0.0,1.2064124756513042,0.0,3.6812025798291175,0.0,0.11003162905823703,0.0,84.7496129029779,-1.4329394854505788,0.0,-3.5990787607642445,0.0,0.11003162905823703,0.0
