name,vehicle,t,north,east,down,u,v,w,p_rad,p_deg,p_hat_div_b,q_deg,q_rad,q_hat_div_c,r_rad,r_deg,r_hat_div_b,phi_rad,phi_deg,theta_rad,theta_deg,psi_rad,psi_deg,speed,altitude,mach,alpha_rad,alpha_deg,beta_rad,beta_deg,gamma_rad,gamma_deg,u_dot,v_dot,w_dot,north_dot,east_dot,down_dot,p_rad_dot,q_rad_dot,r_rad_dot,phi_rad_dot,theta_rad_dot,psi_rad_dot,del_tail_alt_rad,del_tail_splay_rad,DIM_b,DIM_c_bar,DIM_S,DIM_wing_position,DIM_wing_incidence_rad,DIM_wing_incidence_deg,DIM_empennage_length,DIM_nose_length,DIM_tail_length,CDp,CDq,CDr,CYp,CYq,CYr,CLp,CLq,CLr,Clp,Clq,Clr,Cmp,Cmq,Cmr,Cnp,Cnq,Cnr,CL_0,Cm_0,CD_0,Cl_0,CY_0,Cn_0,CL,CD,CY,Cl,Cm,Cn,p_hat,q_hat,r_hat,drag_force_wind,side_force_wind,lift_force_wind,roll_moment_wind,pitch_moment_wind,yaw_moment_wind,qbar,X_total,Y_total,Z_total,L_total,M_total,N_total
sim_raptor_glider_3dof,raptor_glider_3dof,0.0,-15.0,0.0,0.0,12.0,0.0,0.0,0.0,0.0,0.0,0.0,0.0,0.0,0.0,0.0,0.0,0.0,0.0,0.0,0.0,0.0,0.0,12.0,-0.0,0.035264039495724236,0.0,0.0,0.0,0.0,0.0,0.0,-6.057038131377118,0.0,-21.000414269576403,12.0,0.0,0.0,0.0,-44.39147892822734,0.0,0.0,0.0,0.0,0.20440342650225643,0.3490658503988659,1.0,0.14,0.14,0.75,0.08726646259971647,5.0,0.184,0.175,0.174,0.0,0.0,0.0,0.00023438809890450907,0.0,0.01196185561342099,0.0,6.078735799731817,0.0,-0.5143073165338748,0.0,0.19419993555367376,0.0,-3.7358831885452055,0.0,-0.04629870080356853,0.0,-0.014569985697286505,0.686098244087284,-0.1933871109267709,0.13489513930775807,0.0,0.0,0.0,0.686098244087284,0.13489513930775807,0.0,0.0,-0.1933871109267709,0.0,0.0,0.0,0.0,1.6656854861287078,0.0,8.471942674133512,0.0,-0.33431222780848013,0.0,88.20001620075907,-1.6656854861287078,0.0,-8.471942674133512,0.0,-0.33431222780848013,0.0
sim_raptor_glider_3dof,raptor_glider_3dof,0.001,-14.988003032266484,0.0,-0.00001042912306553987,11.99393119764431,0.0,-0.02105073599430437,0.0,0.0,0.0,-2.5320117339745325,-0.044191941456986364,-0.0018422597505275632,0.0,0.0,0.0,0.0,0.0,-0.00002212978440373232,-0.001267943247868295,0.0,0.0,11.993949670867865,0.00001042912306553987,0.03524625957526775,-0.0017551138181755369,-0.10056061434654961,0.0,0.0,0.0017329840337718045,0.09929267109868133,-6.080637107065938,0.0,-21.09987249091634,11.993931660555681,0.0,-0.020785312877614405,0.0,-43.9926498150872,0.0,0.0,-0.044191941456986364,0.0,0.20440342650225643,0.3490658503988659,1.0,0.14,0.14,0.75,0.08726646259971647,5.0,0.184,0.175,0.174,0.0,0.0,0.0,0.00019764276477012886,0.0,0.011942124930453457,0.0,6.079887370999765,0.0,-0.5145601386080346,0.0,0.19218896163440602,0.0,-3.7371274808342534,0.0,-0.04577005100656953,0.0,-0.014351970410375918,0.6789965984133705,-0.19280692096760166,0.1343527102336894,0.0,0.0,0.0,0.6774284959625837,0.1343527102336894,0.0,0.0,-0.19184305463192727,0.0,0.0,-0.00025791636507385885,0.0,1.6573150889543784,0.0,8.356455676209622,0.0,-0.3313086457574217,0.0,88.11109876765472,-1.6719790596364505,0.0,-8.353534030377148,0.0,-0.3313086457574217,0.0
sim_raptor_glider_3dof,raptor_glider_3dof,0.002,-14.976012143607033,0.0,-0.00004142749517001144,11.987838595072363,0.0,-0.042197457186110156,0.0,0.0,0.0,-5.041214345733508,-0.08798578863182147,-0.003669770945057638,0.0,0.0,0.0,0.0,0.0,-0.00008825178527447916,-0.005056454830722443,0.0,0.0,11.987912862833943,0.00004142749517001144,0.03522851938885639,-0.003520007595150214,-0.20168157905610182,0.0,0.0,0.003431755809875735,0.19662512422537937,-6.104632363996542,0.0,-21.192426957299702,11.987842272390383,0.0,-0.041139508865561135,0.0,-43.59529139941634,0.0,0.0,-0.08798578863182147,0.0,0.20440342650225643,0.3490658503988659,1.0,0.14,0.14,0.75,0.08726646259971647,5.0,0.184,0.175,0.174,0.0,0.0,0.0,0.0001605821246955695,0.0,0.011922259309411333,0.0,6.081031083605773,0.0,-0.5148103349716888,0.0,0.19016562965202116,0.0,-3.7383670364238393,0.0,-0.04523903376653649,0.0,-0.01413483505521889,0.6718290640336064,-0.19222242558080208,0.13381284808831426,0.0,0.0,0.0,0.6687048252674812,0.13381284808831426,0.0,0.0,-0.19030177247828994,0.0,0.0,-0.0005137679323080694,0.0,1.6489943889644472,0.0,8.240542821506724,0.0,-0.32831613952900446,0.0,88.02242473736464,-1.6779908864995934,0.0,-8.23468730874139,0.0,-0.32831613952900446,0.0
sim_raptor_glider_3dof,raptor_glider_3dof,0.003,-14.96402735389815,0.0,-0.00009256397550809484,11.981721812677158,0.0,-0.06343334186483034,0.0,0.0,0.0,-7.527692914467323,-0.13138302643650268,-0.005482567001134963,0.0,0.0,0.0,0.0,0.0,-0.00019796920546931665,-0.011342799946950057,0.0,0.0,11.981889725132833,0.00009256397550809484,0.035210819375041384,-0.005294126355430934,-0.3033310963751689,0.0,0.0,0.005096157149961617,0.29198829642821883,-6.128991424080358,0.0,-21.278223473602168,11.981734135732705,0.0,-0.06106132868988054,0.0,-43.199436418573974,0.0,0.0,-0.13138302643650268,0.0,0.20440342650225643,0.3490658503988659,1.0,0.14,0.14,0.75,0.08726646259971647,5.0,0.184,0.175,0.174,0.0,0.0,0.0,0.00012323407944846672,0.0,0.0119022604846993,0.0,6.082166320635443,0.0,-0.5150577771831895,0.0,0.18813055847550877,0.0,-3.7396012772181195,0.0,-0.04470580927376185,0.0,-0.013918686837326395,0.6645981892886607,-0.19163379068595582,0.1332758656938719,0.0,0.0,0.0,0.6599297654775704,0.1332758656938719,0.0,0.0,-0.18876342464757287,0.0,0.0,-0.0007675593801588948,0.0,1.6407271217216806,0.0,8.124236590123038,0.0,-0.32533495566828063,0.0,87.93399600035772,-1.6837146629449602,0.0,-8.115436562134612,0.0,-0.32533495566828063,0.0
sim_raptor_glider_3dof,raptor_glider_3dof,0.004,-14.952048680811325,0.0,-0.00016340563667308094,11.975580502001616,0.0,-0.0847517016829365,0.0,0.0,0.0,-9.991534455727999,-0.1743851735789132,-0.007280682832579312,0.0,0.0,0.0,0.0,0.0,-0.000350886157701928,-0.0201042959258823,0.0,0.0,11.975880393977699,0.00016340563667308094,0.03519315993410826,-0.007076925147350829,-0.4054779428732007,0.0,0.0,0.006726038989648901,0.38537364694731846,-6.153682146402057,0.0,-21.357408048509583,11.97560950297668,0.0,-0.08054963112320504,0.0,-42.80511680264433,0.0,0.0,-0.1743851735789132,0.0,0.20440342650225643,0.3490658503988659,1.0,0.14,0.14,0.75,0.08726646259971647,5.0,0.184,0.175,0.174,0.0,0.0,0.0,0.000085626991851722,0.0,0.01188212998333428,0.0,6.083292487558385,0.0,-0.5153023434033643,0.0,0.18608435686706615,0.0,-3.7408296458129184,0.0,-0.04417053354036781,0.0,-0.013703629432965287,0.6573065321654269,-0.19104118012029447,0.13274206810639202,0.0,0.0,0.0,0.6511058589202654,0.13274206810639202,0.0,0.0,-0.18722816893483213,0.0,0.0,-0.0010192955965611038,0.0,1.6325169081685658,0.0,8.007569407785695,0.0,-0.32236533464071443,0.0,87.84581425234992,-1.6891445240617164,0.0,-7.995815784070687,0.0,-0.32236533464071443,0.0
sim_raptor_glider_3dof,raptor_glider_3dof,0.005,-14.940076139688639,0.0,-0.00025351841638597696,11.969414347945937,0.0,-0.10614600057845464,0.0,0.0,0.0,-12.432827871305122,-0.21699378168799222,-0.009064154825589239,0.0,0.0,0.0,0.0,0.0,-0.000546608353875948,-0.031318351723685196,0.0,0.0,11.969884995531615,0.00025351841638597696,0.03517554143680865,-0.008867870646685119,-0.5080915613230053,0.0,0.0,0.00832126229280917,0.4767732095993201,-6.17867280405635,0.0,-21.430126492401392,11.969470580118786,0.0,-0.09960340317347689,0.0,-42.412363572326385,0.0,0.0,-0.21699378168799222,0.0,0.20440342650225643,0.3490658503988659,1.0,0.14,0.14,0.75,0.08726646259971647,5.0,0.184,0.175,0.174,0.0,0.0,0.0,0.00004778960292889774,0.0,0.011861869117513552,0.0,6.084409013107129,0.0,-0.5155439185159945,0.0,0.18402762162161285,0.0,-3.742051606431952,0.0,-0.04363335797049025,0.0,-0.013489762812230122,0.6499566513634436,-0.19044475509168024,0.13221175209336625,0.0,0.0,0.0,0.6422356478190617,0.13221175209336625,0.0,0.0,-0.18569616017403406,0.0,0.0,-0.0012689816755824936,0.0,1.6243672496918977,0.0,7.8905735411874,0.0,-0.31940751006319,0.0,87.75788103837667,-1.6942750490947551,0.0,-7.875858799443604,0.0,-0.31940751006319,0.0
sim_raptor_glider_3dof,raptor_glider_3dof,0.006,-14.928109743715664,0.0,-0.00036246731646762755,11.963223066564458,0.0,-0.12760984665276837,0.0,0.0,0.0,-14.8516637944203,-0.2592104326118685,-0.010833020739531954,0.0,0.0,0.0,0.0,0.0,-0.0007847430579843754,-0.04496246522469475,0.0,0.0,11.963903644435735,0.00036246731646762755,0.03515796422003507,-0.010666440506015002,-0.6111420234220458,0.0,0.0,0.009881697448030627,0.566179558197351,-6.203932122157455,0.0,-21.49652439778138,11.963319523889673,0.0,-0.1182217520712725,0.0,-42.021206884727164,0.0,0.0,-0.2592104326118685,0.0,0.20440342650225643,0.3490658503988659,1.0,0.14,0.14,0.75,0.08726646259971647,5.0,0.184,0.175,0.174,0.0,0.0,0.0,9.750995427401499e-6,0.0,0.01184147900249196,0.0,6.085515348679227,0.0,-0.5157823939244138,0.0,0.181960938289394,0.0,-3.7432666442669134,0.0,-0.043094429609208965,0.0,-0.013277183341812788,0.6425511065079993,-0.18984467437696,0.13168520630667543,0.0,0.0,0.0,0.6333216745503818,0.13168520630667543,0.0,0.0,-0.18416755045022817,0.0,0.0,-0.0015166229035344736,0.0,1.616281530532834,0.0,7.773281100976781,0.0,-0.31646170904888027,0.0,87.67019773161331,-1.6991012550382136,0.0,-7.755599266715108,0.0,-0.31646170904888027,0.0
sim_raptor_glider_3dof,raptor_glider_3dof,0.007,-14.916149503985627,0.0,-0.0004898165262276808,11.957006404383039,0.0,-0.1491369909229135,0.0,0.0,0.0,-17.248134529472786,-0.30103673736622305,-0.01258731967586317,0.0,0.0,0.0,0.0,0.0,-0.0010648991046864063,-0.06101422430579111,0.0,0.0,11.957936443906974,0.0004898165262276808,0.035140428587107975,-0.01247212327687915,-0.7146000253320496,0.0,0.0,0.011407224172192743,0.6535858010262584,-6.229429322940811,0.0,-21.556747037577423,11.95715844051874,0.0,-0.13640390335329647,0.0,-41.63167603894633,0.0,0.0,-0.30103673736622305,0.0,0.20440342650225643,0.3490658503988659,1.0,0.14,0.14,0.75,0.08726646259971647,5.0,0.184,0.175,0.174,0.0,0.0,0.0,-0.00002845945449387148,0.0,0.01182096056792303,0.0,6.086610968097321,0.0,-0.5160176674259377,0.0,0.17988488124090746,0.0,-3.744474265209401,0.0,-0.04255389121939694,0.0,-0.013065983819263317,0.635092456039178,-0.18924109432965555,0.13116271128513718,0.0,0.0,0.0,0.6243664795194501,0.13116271128513718,0.0,0.0,-0.18264248908646286,0.0,0.0,-0.0017622247546208443,0.0,1.6082630185235187,0.0,7.6557240177349035,0.0,-0.31352815224930486,0.0,87.58276553524883,-1.703618592666092,0.0,-7.635070652141723,0.0,-0.31352815224930486,0.0
sim_raptor_glider_3dof,raptor_glider_3dof,0.008,-14.904195429493928,0.0,-0.0006351295109146369,11.950764138678931,0.0,-0.17072133055154443,0.0,0.0,0.0,-19.622334048587177,-0.3424743360740352,-0.014327092086828669,0.0,0.0,0.0,0.0,0.0,-0.0013866869652411832,-0.07945131061412408,0.0,0.0,11.951983486896209,0.0006351295109146369,0.03512293481117931,-0.014284418705205526,-0.8184369046060047,0.0,0.0,0.012897731739964342,0.7389855939918806,-6.255134174226586,0.0,-21.610939208302675,11.950989385582066,0.0,-0.15414920286674783,0.0,-41.243799455574276,0.0,0.0,-0.3424743360740352,0.0,0.20440342650225643,0.3490658503988659,1.0,0.14,0.14,0.75,0.08726646259971647,5.0,0.184,0.175,0.174,0.0,0.0,0.0,-0.00006681213316079727,0.0,0.011800314564820464,0.0,6.087695367576185,0.0,-0.5162496431300071,0.0,0.17780001330117126,0.0,-3.7456739958171252,0.0,-0.04201188124717601,0.0,-0.012856253466479626,0.627583253556535,-0.1886341687614488,0.13064453935661977,0.0,0.0,0.0,0.6153725974586396,0.13064453935661977,0.0,0.0,-0.1811211224843052,0.0,0.0,-0.0020057928921560137,0.0,1.6003148648717311,0.0,7.537934000131554,0.0,-0.3106070536999299,0.0,87.49558549987958,-1.707822943546989,0.0,-7.514306185574502,0.0,-0.3106070536999299,0.0
sim_raptor_glider_3dof,raptor_glider_3dof,0.009000000000000001,-14.89224752720588,0.0,-0.0007979691409289399,11.944496076676336,0.0,-0.1923569072336798,0.0,0.0,0.0,-21.974357927415415,-0.3835248968451161,-0.01605237974002763,0.0,0.0,0.0,0.0,0.0,-0.001749718765356162,-0.10025150058974928,0.0,0.0,11.946044856164606,0.0007979691409289399,0.03510548313545683,-0.016102837622819718,-0.9226246339720452,0.0,0.0,0.014353118857463557,0.822373133382296,-6.281017027062188,0.0,-21.659245134055286,11.944814362868017,0.0,-0.17145711451784765,0.0,-40.85760468442169,0.0,0.0,-0.3835248968451161,0.0,0.20440342650225643,0.3490658503988659,1.0,0.14,0.14,0.75,0.08726646259971647,5.0,0.184,0.175,0.174,0.0,0.0,0.0,-0.0001052772362599934,0.0,0.011779541576919232,0.0,6.088768065420267,0.0,-0.5164782313176263,0.0,0.17570688584654573,0.0,-3.7468653829907654,0.0,-0.04146853390865492,0.0,-0.012648077974073422,0.6200260458284352,-0.188024048956903,0.1301309546669367,0.0,0.0,0.0,0.6063425554295241,0.1301309546669367,0.0,0.0,-0.17960359412214855,0.0,0.0,-0.002247333163603869,0.0,1.5924401052023562,0.0,7.419942512741625,0.0,-0.30769862087837974,0.0,87.4086585250177,-1.7117106145790377,0.0,-7.3933388366139985,0.0,-0.30769862087837974,0.0
sim_raptor_glider_3dof,raptor_glider_3dof,0.01,-14.880305802109252,0.0,-0.0009778978090481153,11.938202054941724,0.0,-0.2140379065578643,0.0,0.0,0.0,-24.304303295193638,-0.4241901149044363,-0.01776322569264485,0.0,0.0,0.0,0.0,0.0,-0.002153608312488635,-0.12339266702989012,0.0,0.0,11.940120624602521,0.0009778978090481153,0.035088073774141235,-0.01792690192004249,-1.0271358197634066,0.0,0.0,0.015773293607553855,0.9037431527335166,-6.307048851532678,0.0,-21.701808360062223,11.938635323548597,0.0,-0.18832721889349308,0.0,-40.473118406519056,0.0,0.0,-0.4241901149044363,0.0,0.20440342650225643,0.3490658503988659,1.0,0.14,0.14,0.75,0.08726646259971647,5.0,0.184,0.175,0.174,0.0,0.0,0.0,-0.00014382481680085284,0.0,0.01175864203092521,0.0,6.089828601756062,0.0,-0.5167033483082458,0.0,0.1736060388073043,0.0,-3.74804799369426,0.0,-0.04092397925227403,0.0,-0.012441539538401233,0.6124233704841577,-0.18741088366005978,0.1296222131913134,0.0,0.0,0.0,0.5972788705006054,0.1296222131913134,0.0,0.0,-0.17809004452141997,0.0,0.0,-0.0024868515969702788,0.0,1.584641660442328,0.0,7.301780750343068,0.0,-0.30480305471949504,0.0,87.3219853641414,-1.7152783323467131,0.0,-7.272201287139394,0.0,-0.30480305471949504,0.0
sim_raptor_glider_3dof,raptor_glider_3dof,0.01,-14.880305802109252,0.0,-0.0009778978090481153,11.938202054941724,0.0,-0.2140379065578643,0.0,0.0,0.0,-24.304303295193638,-0.4241901149044363,-0.01776322569264485,0.0,0.0,0.0,0.0,0.0,-0.002153608312488635,-0.12339266702989012,0.0,0.0,11.940120624602521,0.0009778978090481153,0.035088073774141235,-0.01792690192004249,-1.0271358197634066,0.0,0.0,0.015773293607553855,0.9037431527335166,-4.752924195095514,0.0,-18.590914145351,11.938635323548597,0.0,-0.18832721889349308,0.0,-3.899854077572643,0.0,0.0,-0.4241901149044363,0.0,-0.05450019568575204,0.3490658503988659,1.0,0.14,0.14,0.75,0.08726646259971647,5.0,0.184,0.175,0.174,0.0,0.0,0.0,-0.01093314475737131,0.0,0.001827106666456176,0.0,6.077912528206906,0.0,-0.5179211617874583,0.0,0.17209665972153224,0.0,-3.774321315314458,0.0,-0.03662181608099947,0.0,-0.00871579217516028,0.5417995276887048,-0.02654633695951339,0.09592262950454135,0.0,0.0,0.0,0.5266846612116878,0.09592262950454135,0.0,0.0,-0.017160159969044665,0.0,0.0,-0.0024868515969702788,0.0,1.1726616229559725,0.0,6.438761038898269,0.0,-0.029369801058199575,0.0,87.3219853641414,-1.2878940518264927,0.0,-6.416705378093807,0.0,-0.029369801058199575,0.0
sim_raptor_glider_3dof,raptor_glider_3dof,0.011,-14.868369484946928,0.0,-0.001172936199514269,11.9334407077531,0.0,-0.2324915730687079,0.0,0.0,0.0,-24.52373115459724,-0.42801985352163235,-0.017930228884432207,0.0,0.0,0.0,0.0,0.0,-0.0025797224938986438,-0.14780721121535556,0.0,0.0,11.935705235008392,0.001172936199514269,0.0350750984013882,-0.019479894394789393,-1.1161157341819814,0.0,0.0,0.01690017190089075,0.9683085229666257,-4.769642867054877,0.0,-18.316846520244333,11.934000762516686,0.0,-0.20170586817921676,0.0,-3.7599989163775405,0.0,0.0,-0.42801985352163235,0.0,-0.05450019568575204,0.3490658503988659,1.0,0.14,0.14,0.75,0.08726646259971647,5.0,0.184,0.175,0.174,0.0,0.0,0.0,-0.011003974881902695,0.0,0.0018162398955698265,0.0,6.078192538152937,0.0,-0.5181255111026062,0.0,0.17030045432641816,0.0,-3.7736757921629844,0.0,-0.036146888966883665,0.0,-0.008548430328625914,0.5353340065775342,-0.02602981351003784,0.09558840718189514,0.0,0.0,0.0,0.520076332899752,0.09558840718189514,0.0,0.0,-0.016557011613560574,0.0,0.0,-0.0025102320438205095,0.0,1.1677116233168061,0.0,6.353272293609743,0.0,-0.02831655183923926,0.0,87.25741494503677,-1.2912433230234306,0.0,-6.329321444888526,0.0,-0.02831655183923926,0.0
sim_raptor_glider_3dof,raptor_glider_3dof,0.012,-14.856437802613188,0.0,-0.0013811986823595386,11.92866312532647,0.0,-0.25067246527455733,0.0,0.0,0.0,-24.735219752571773,-0.43171102588671456,-0.018091538463845914,0.0,0.0,0.0,0.0,0.0,-0.00300959856587708,-0.17243729585338194,0.0,0.0,11.931296687383576,0.0013811986823595386,0.035062143134924846,-0.021011204136853937,-1.2038533195295462,0.0,0.0,0.018001605570976856,1.0314160236761645,-4.785370425914357,0.0,-18.045333687086,11.929363524692604,0.0,-0.21477089678052216,0.0,-3.622745652867157,0.0,0.0,-0.43171102588671456,0.0,-0.05450019568575204,0.3490658503988659,1.0,0.14,0.14,0.75,0.08726646259971647,5.0,0.184,0.175,0.174,0.0,0.0,0.0,-0.011073689415753587,0.0,0.0018052544184229433,0.0,6.078457448395723,0.0,-0.5183241039964447,0.0,0.16852835125975754,0.0,-3.773030430973176,0.0,-0.03567898717195636,0.0,-0.008384990124476594,0.5289463226631408,-0.025520802621406984,0.09526341895996386,0.0,0.0,0.0,0.5135507121211506,0.09526341895996386,0.0,0.0,-0.015964413097997256,0.0,0.0,-0.002532815384938428,0.0,1.1628820391904489,0.0,6.268921542592695,0.0,-0.02728289751174256,0.0,87.19296840923427,-1.2943332583473435,0.0,-6.2431060667419755,0.0,-0.02728289751174256,0.0
sim_raptor_glider_3dof,raptor_glider_3dof,0.013000000000000001,-14.844510758475328,0.0,-0.0016023778263412557,11.92387027850436,0.0,-0.26858308017591165,0.0,0.0,0.0,-24.938914848131848,-0.43526617597440237,-0.018247254784366364,0.0,0.0,0.0,0.0,0.0,-0.0034431005609005614,-0.19727513057872864,0.0,0.0,11.926894788232032,0.0016023778263412557,0.035049207406130156,-0.022521015766419704,-1.290359153763434,0.0,0.0,0.019077915205519144,1.0930840231847054,-4.800132855970208,0.0,-17.776402700330685,11.92472435690889,0.0,-0.22752648483266835,0.0,-3.488059904186197,0.0,0.0,-0.43526617597440237,0.0,-0.05450019568575204,0.3490658503988659,1.0,0.14,0.14,0.75,0.08726646259971647,5.0,0.184,0.175,0.174,0.0,0.0,0.0,-0.011142306486961047,0.0,0.001794164288033956,0.0,6.0787077675494,0.0,-0.5185170926911734,0.0,0.16678018703165437,0.0,-3.772385520336274,0.0,-0.035218033390453325,0.0,-0.00822539305734952,0.5226366673904983,-0.02501923441448051,0.0949474644533729,0.0,0.0,0.0,0.507107905275313,0.0949474644533729,0.0,0.0,-0.015382239251660244,0.0,0.0,-0.002554615669811291,0.0,1.1581701203674792,0.0,6.1857072969066085,0.0,-0.02626857913842625,0.0,87.12864281882031,-1.297173058811291,0.0,-6.158057717024893,0.0,-0.02626857913842625,0.0
sim_raptor_glider_3dof,raptor_glider_3dof,0.014,-14.832588354191836,0.0,-0.0018361550079852625,11.919063155724157,0.0,-0.28622610272150517,0.0,0.0,0.0,-25.134967934135865,-0.43868794783386805,-0.01839748249064852,0.0,0.0,0.0,0.0,0.0,-0.003880088737033229,-0.22231270876824993,0.0,0.0,11.922499397862019,0.0018361550079852625,0.03503629080449622,-0.024009529759666602,-1.375644723322646,0.0,0.0,0.020129441022633372,1.1533320145543962,-4.8139561874475545,0.0,-17.510076516463506,11.92008401445152,0.0,-0.23997704148010957,0.0,-3.355905739808828,0.0,0.0,-0.43868794783386805,0.0,-0.05450019568575204,0.3490658503988659,1.0,0.14,0.14,0.75,0.08726646259971647,5.0,0.184,0.175,0.174,0.0,0.0,0.0,-0.011209844439077661,0.0,0.0017829828130527157,0.0,6.078943994239562,0.0,-0.5187046277766183,0.0,0.16505577797404666,0.0,-3.7717413329804077,0.0,-0.03476394626300491,0.0,-0.008069560003316257,0.5164051148707968,-0.02452503372137014,0.09464034249938946,0.0,0.0,0.0,0.500747897673405,0.09464034249938946,0.0,0.0,-0.014810357402783407,0.0,0.0,-0.0025756475486907932,0.0,1.1535731263028293,0.0,6.103626662302131,0.0,-0.025273326126500285,0.0,87.06443602603576,-1.2997717762054384,0.0,-6.074173418686142,0.0,-0.025273326126500285,0.0
sim_raptor_glider_3dof,raptor_glider_3dof,0.015,-14.820670590553975,0.0,-0.002082231999490348,11.914242668412179,0.0,-0.3036041101110376,0.0,0.0,0.0,-25.32352083633602,-0.4419788167914516,-0.018542319402384818,0.0,0.0,0.0,0.0,0.0,-0.0043204330428702805,-0.24754257902533094,0.0,0.0,11.918110329137319,0.002082231999490348,0.03502339278009144,-0.025476937855101127,-1.4597210140143746,0.0,0.0,0.021156504812230845,1.2121784349890437,-4.826865844733246,0.0,-17.246375559593652,11.915443169262874,0.0,-0.2521267489902151,0.0,-3.226248803336879,0.0,0.0,-0.4419788167914516,0.0,-0.05450019568575204,0.3490658503988659,1.0,0.14,0.14,0.75,0.08726646259971647,5.0,0.184,0.175,0.174,0.0,0.0,0.0,-0.011276320732678917,0.0,0.0017717227569079325,0.0,6.0791666131221325,0.0,-0.5188868551108988,0.0,0.1633549487613246,0.0,-3.7710981363074034,0.0,-0.03431664786467182,0.0,-0.007917413842469027,0.5102517267206963,-0.024038128271059223,0.09434185638140792,0.0,0.0,0.0,0.49447066785498084,0.09434185638140792,0.0,0.0,-0.014248641411298224,0.0,0.0,-0.0025959247163338745,0.0,1.149088369994431,0.0,6.022676630809989,0.0,-0.024296879737930037,0.0,87.00034519361344,-1.3021382281221747,0.0,-5.991450067907106,0.0,-0.024296879737930037,0.0
sim_raptor_glider_3dof,raptor_glider_3dof,0.016,-14.808757467758113,0.0,-0.002340309918118651,11.90940971849741,0.0,-0.32071973595994757,0.0,0.0,0.0,-25.504715712848235,-0.44514126397433434,-0.018681863717108754,0.0,0.0,0.0,0.0,0.0,-0.004764003730351241,-0.2729573073337064,0.0,0.0,11.91372741807008,0.002340309918118651,0.035010512851009666,-0.026923436699873213,-1.5425992928903645,0.0,0.0,0.022159432969521973,1.269641985556658,-4.8388870132210995,0.0,-16.98531733870179,11.910802476609122,0.0,-0.2639798387694946,0.0,-3.099054467842128,0.0,0.0,-0.44514126397433434,0.0,-0.05450019568575204,0.3490658503988659,1.0,0.14,0.14,0.75,0.08726646259971647,5.0,0.184,0.175,0.174,0.0,0.0,0.0,-0.011341752585270702,0.0,0.0017603962578832766,0.0,6.079376097340136,0.0,-0.5190639176337929,0.0,0.16167751666136937,0.0,-3.770456186674473,0.0,-0.03387605951523544,0.0,-0.007768878024174184,0.5041764971260394,-0.023558444168228127,0.09405181100688619,0.0,0.0,0.0,0.48827612652306146,0.09405181100688619,0.0,0.0,-0.013696963359918636,0.0,0.0,-0.0026154609203952258,0.0,1.1447131970993418,0.0,5.942853411069063,0.0,-0.023338979197319067,0.0,86.93636782629534,-1.3042810453851263,0.0,-5.9098837487481655,0.0,-0.023338979197319067,0.0
sim_raptor_glider_3dof,raptor_glider_3dof,0.017,-14.796848985342326,0.0,-0.0026100942158402253,11.904565182241981,0.0,-0.3375756305536278,0.0,0.0,0.0,-25.678692690490173,-0.4481777350568547,-0.018816212303749493,0.0,0.0,0.0,0.0,0.0,-0.005210673581543509,-0.2985496046427599,0.0,0.0,11.90935050641267,0.0026100942158402253,0.034997650552213315,-0.028349224557609624,-1.6242909196196598,0.0,0.0,0.023138550976066114,1.3257413149769,-4.850044529928012,0.0,-16.726916670141975,11.90616255993378,0.0,-0.2755405251916126,0.0,-2.974288278679795,0.0,0.0,-0.4481777350568547,0.0,-0.05450019568575204,0.3490658503988659,1.0,0.14,0.14,0.75,0.08726646259971647,5.0,0.184,0.175,0.174,0.0,0.0,0.0,-0.011406156840396777,0.0,0.001749014872162617,0.0,6.079572908131796,0.0,-0.5192359550039329,0.0,0.16002329539455812,0.0,-3.7698157308804925,0.0,-0.03344210276282698,0.0,-0.007623876927482975,0.49817936858226713,-0.023085906999698612,0.09377001364386743,0.0,0.0,0.0,0.4821641337444927,0.09377001364386743,0.0,0.0,-0.013155195560341943,0.0,0.0,-0.0026342697225249295,0.0,1.1404449913435408,0.0,5.864152621570683,0.0,-0.022399365026737537,0.0,86.87250151623087,-1.3062086590468323,0.0,-5.829469931853664,0.0,-0.022399365026737537,0.0
sim_raptor_glider_3dof,raptor_glider_3dof,0.018000000000000002,-14.784945142198838,0.0,-0.0028912948010418054,11.899709909760853,0.0,-0.35417445869937475,0.0,0.0,0.0,-25.845589809518245,-0.4510906392959874,-0.01894546065966157,0.0,0.0,0.0,0.0,0.0,-0.00566031795297134,-0.32431232940738736,0.0,0.0,11.90497944070697,0.0028912948010418054,0.03498480543273963,-0.0297545011391413,-1.7048073367899967,0.0,0.0,0.02409418318616996,1.3804950073826094,-4.860362864918604,0.0,-16.47118579148998,11.901524011022975,0.0,-0.28681300301634505,0.0,-2.8519159720301013,0.0,0.0,-0.4510906392959874,0.0,-0.05450019568575204,0.3490658503988659,1.0,0.14,0.14,0.75,0.08726646259971647,5.0,0.184,0.175,0.174,0.0,0.0,0.0,-0.011469549978308836,0.0,0.0017375895938625248,0.0,6.079757494974263,0.0,-0.5194031036392105,0.0,0.15839209537730334,0.0,-3.7691770063338885,0.0,-0.03301469941402652,0.0,-0.007482335887759028,0.49226023453519097,-0.022620441902389706,0.09349627399380264,0.0,0.0,0.0,0.47613450163340654,0.09349627399380264,0.0,0.0,-0.012623210645397752,0.0,0.0,-0.0026523644923526204,0.0,1.136281175041408,0.0,5.786569323924328,0.0,-0.021477779185358693,0.0,86.80874392894643,-1.30792929920571,0.0,-5.7502035092346775,0.0,-0.021477779185358693,0.0
sim_raptor_glider_3dof,raptor_glider_3dof,0.019000000000000003,-14.773045936680886,0.0,-0.00318362552148149,11.894844728352915,0.0,-0.37051889516911296,0.0,0.0,0.0,-26.00554326778039,-0.45388235379261316,-0.019069703081295294,0.0,0.0,0.0,0.0,0.0,-0.006112814449615025,-0.35023846890952615,0.0,0.0,11.90061407505102,0.00318362552148149,0.03497197706383091,-0.03113946722092414,-1.784160048044924,0.0,0.0,0.025026652771309117,1.4339215791353979,-4.869866110352444,0.0,-16.21813458169766,11.896887393835165,0.0,-0.2978014467869838,0.0,-2.7319034853623867,0.0,0.0,-0.45388235379261316,0.0,-0.05450019568575204,0.3490658503988659,1.0,0.14,0.14,0.75,0.08726646259971647,5.0,0.184,0.175,0.174,0.0,0.0,0.0,-0.01153194811658879,0.0,0.0017261308764896335,0.0,6.079930295707804,0.0,-0.5195654967335052,0.0,0.15678372421163894,0.0,-3.768540241325008,0.0,-0.03259377162877205,0.0,-0.007344181242361423,0.48641894285781806,-0.022161973700806425,0.09323040429937823,0.0,0.0,0.0,0.4701869976886413,0.09323040429937823,0.0,0.0,-0.01210088161752911,0.0,0.0,-0.002669758431381341,0.0,1.132219210750628,0.0,5.7100980675656166,0.0,-0.020573965148264137,0.0,86.74509284353853,-1.3094509946598611,0.0,-5.672078840689158,0.0,-0.020573965148264137,0.0
sim_raptor_glider_3dof,raptor_glider_3dof,0.02,-14.761151366589917,0.0,-0.0034868043995655656,11.889970441353226,0.0,-0.3866116235241827,0.0,0.0,0.0,-26.15868731239862,-0.4565552216010224,-0.01918903258368495,0.0,0.0,0.0,0.0,0.0,-0.006568043043573046,-0.3763211460569954,0.0,0.0,11.896254269462192,0.0034868043995655656,0.0349591650341244,-0.03250432455679872,-1.8623606130280068,0.0,0.0,0.025936281513225672,1.4860394669710113,-4.8785779655099475,0.0,-15.967770640575838,11.89225324395904,0.0,-0.3085100083354432,0.0,-2.6142169734779617,0.0,0.0,-0.4565552216010224,0.0,-0.05450019568575204,0.3490658503988659,1.0,0.14,0.14,0.75,0.08726646259971647,5.0,0.184,0.175,0.174,0.0,0.0,0.0,-0.011593367023540049,0.0,0.0017146486517310574,0.0,6.0800917367079395,0.0,-0.5197232643101205,0.0,0.155197986833995,0.0,-3.767905655173986,0.0,-0.032179241926261204,0.0,-0.007209340344312964,0.4806552980349217,-0.02171042694654906,0.09297221938838486,0.0,0.0,0.0,0.4643213470522742,0.09297221938838486,0.0,0.0,-0.011588081932035242,0.0,0.0,-0.002686464561715893,0.0,1.128256601303069,0.0,5.634732916821279,0.0,-0.01968766802726253,0.0,86.68154612860805,-1.310781572724195,0.0,-5.59508978220188,0.0,-0.01968766802726253,0.0
sim_raptor_glider_3dof,raptor_glider_3dof,0.02,-14.761151366589917,0.0,-0.0034868043995655656,11.889970441353226,0.0,-0.3866116235241827,0.0,0.0,0.0,-26.15868731239862,-0.4565552216010224,-0.01918903258368495,0.0,0.0,0.0,0.0,0.0,-0.006568043043573046,-0.3763211460569954,0.0,0.0,11.896254269462192,0.0034868043995655656,0.0349591650341244,-0.03250432455679872,-1.8623606130280068,0.0,0.0,0.025936281513225672,1.4860394669710113,-4.881019354752237,0.0,-15.959509774777617,11.89225324395904,0.0,-0.3085100083354432,0.0,-2.519469460727136,0.0,0.0,-0.4565552216010224,0.0,-0.05522377158375924,0.3490658503988659,1.0,0.14,0.14,0.75,0.08726646259971647,5.0,0.184,0.175,0.174,0.0,0.0,0.0,-0.01167842196587289,0.0,0.0017471241312955724,0.0,6.0799602428965,0.0,-0.5197435488927427,0.0,0.1551958678355339,0.0,-3.7674349601574524,0.0,-0.03215366125260058,0.0,-0.007221857606358291,0.48046964260005137,-0.021289173606264807,0.093033598057822,0.0,0.0,0.0,0.46413604487086835,0.093033598057822,0.0,0.0,-0.011168093097232285,0.0,0.0,-0.002686464561715893,0.0,1.1290014570183269,0.0,5.632484197679342,0.0,-0.018974124508736062,0.0,86.68154612860805,-1.3114529547658245,0.0,-5.59281804410737,0.0,-0.018974124508736062,0.0
sim_raptor_glider_3dof,raptor_glider_3dof,0.021,-14.749261435074203,0.0,-0.003800546676813547,11.885085439544577,0.0,-0.40244653247784,0.0,0.0,0.0,-26.2997438775056,-0.4590171230936929,-0.019299574963072864,0.0,0.0,0.0,0.0,0.0,-0.007025835614167648,-0.40255072824451094,0.0,0.0,11.891897204263833,0.003800546676813547,0.03494636105752103,-0.03384854280207286,-1.9393786452266963,0.0,0.0,0.026822707187905213,1.5368279169821855,-4.888916587269276,0.0,-15.711004525323023,11.8876196027006,0.0,-0.3189346300833448,0.0,-2.404723914686578,0.0,0.0,-0.4590171230936929,0.0,-0.05522377158375924,0.3490658503988659,1.0,0.14,0.14,0.75,0.08726646259971647,5.0,0.184,0.175,0.174,0.0,0.0,0.0,-0.011739197105808135,0.0,0.0017356077139789223,0.0,6.080108126162803,0.0,-0.5198968988676631,0.0,0.15363343104908087,0.0,-3.7667966486464954,0.0,-0.03174561861333573,0.0,-0.0070903202380904785,0.4747866640180286,-0.020844931513511307,0.09278325261518058,0.0,0.0,0.0,0.4583585736590032,0.09278325261518058,0.0,0.0,-0.010667271112742653,0.0,0.0,-0.002701940494830201,0.0,1.1251387819049854,0.0,5.558298428934567,0.0,-0.01810997580150462,0.0,86.6180626192091,-1.3125986724717822,0.0,-5.517037559113444,0.0,-0.01810997580150462,0.0
sim_raptor_glider_3dof,raptor_glider_3dof,0.022,-14.737376130755349,0.0,-0.004124572603565304,11.880192908015985,0.0,-0.4180344949168993,0.0,0.0,0.0,-26.434294946218223,-0.46136548225480534,-0.0194054140502943,0.0,0.0,0.0,0.0,0.0,-0.007486033006492825,-0.42891809656766966,0.0,0.0,11.887545430853828,0.004124572603565304,0.03493357263173713,-0.03517300559196938,-2.015264773209889,0.0,0.0,0.027686972585476553,1.5863466766422194,-4.8960673561310095,0.0,-15.465214052939583,11.882989413263338,0.0,-0.32908809593351046,0.0,-2.2922367990649932,0.0,0.0,-0.46136548225480534,0.0,-0.05522377158375924,0.3490658503988659,1.0,0.14,0.14,0.75,0.08726646259971647,5.0,0.184,0.175,0.174,0.0,0.0,0.0,-0.011799015646027552,0.0,0.0017240863410483058,0.0,6.080245511185058,0.0,-0.5200458676327088,0.0,0.15209329218692555,0.0,-3.766161057603477,0.0,-0.03134383687588913,0.0,-0.006961958765265529,0.46918105234792323,-0.020407476402950837,0.09254023440034757,0.0,0.0,0.0,0.45266249691384475,0.09254023440034757,0.0,0.0,-0.01017572834454627,0.0,0.0,-0.002716757967041202,0.0,1.121370645148113,0.0,5.485208023167999,0.0,-0.017262835333758466,0.0,86.55467942554115,-1.3135685446632626,0.0,-5.442381543010166,0.0,-0.017262835333758466,0.0
sim_raptor_glider_3dof,raptor_glider_3dof,0.023,-14.725495454596256,0.0,-0.004458612968824053,11.875293602976376,0.0,-0.4333780796308831,0.0,0.0,0.0,-26.562467348462366,-0.46360251268415625,-0.019506637852781367,0.0,0.0,0.0,0.0,0.0,-0.00794852081519065,-0.45541669608230884,0.0,0.0,11.883198841927882,0.004458612968824053,0.034920799441440775,-0.03647790564203592,-2.090030038765112,0.0,0.0,0.02852938482684527,1.634613342682803,-4.902494151183204,0.0,-15.222141644833897,11.878363148878849,0.0,-0.3389743650382943,0.0,-2.181975901406065,0.0,0.0,-0.46360251268415625,0.0,-0.05522377158375924,0.3490658503988659,1.0,0.14,0.14,0.75,0.08726646259971647,5.0,0.184,0.175,0.174,0.0,0.0,0.0,-0.01185789199254159,0.0,0.0017125686079253366,0.0,6.080372790266096,0.0,-0.5201905749671969,0.0,0.15057526242046856,0.0,-3.7655283855749375,0.0,-0.030948243036791924,0.0,-0.006836704656688166,0.4636525427985042,-0.019976735780936138,0.09230436779650551,0.0,0.0,0.0,0.4470474745943565,0.09230436779650551,0.0,0.0,-0.009693343985087106,0.0,0.0,-0.0027309292993893917,0.0,1.1176946936638599,0.0,5.413206353046035,0.0,-0.016432460513489077,0.0,86.49139490095365,-1.3143697944838826,0.0,-5.368843124198238,0.0,-0.016432460513489077,0.0
sim_raptor_glider_3dof,raptor_glider_3dof,0.024,-14.71361940287194,0.0,-0.004802426049392334,11.87038817335791,0.0,-0.4484797634582653,0.0,0.0,0.0,-26.684376466999144,-0.46573022819082704,-0.019603326251152763,0.0,0.0,0.0,0.0,0.0,-0.008413198533510994,-0.48204076817583347,0.0,0.0,11.878857246571613,0.004802426049392334,0.034908040925597614,-0.03776342844222204,-2.163685069683616,0.0,0.0,0.029350229908711042,1.6816443015077822,-4.908218717378685,0.0,-14.981788156750792,11.873741176241406,0.0,-0.3485971371888798,0.0,-2.0739106115771597,0.0,0.0,-0.46573022819082704,0.0,-0.05522377158375924,0.3490658503988659,1.0,0.14,0.14,0.75,0.08726646259971647,5.0,0.184,0.175,0.174,0.0,0.0,0.0,-0.011915839892983211,0.0,0.0017010627356655158,0.0,6.080490344505607,0.0,-0.5203311369059002,0.0,0.1490791600003919,0.0,-3.764898826814531,0.0,-0.03055876685674731,0.0,-0.006714491137783382,0.4582008687609009,-0.01955263962650339,0.09207548118850772,0.0,0.0,0.0,0.441513171722255,0.09207548118850772,0.0,0.0,-0.009220004025855535,0.0,0.0,-0.002744465675161387,0.0,1.1141086141779044,0.0,5.342286801430996,0.0,-0.015618620815787592,0.0,86.42820618452086,-1.3150094250954918,0.0,-5.296415437334883,0.0,-0.015618620815787592,0.0
sim_raptor_glider_3dof,raptor_glider_3dof,0.025,-14.701747970698285,0.0,-0.005155726608474572,11.865477375709307,0.0,-0.46334250611927846,0.0,0.0,0.0,-26.800158525856357,-0.4677510063326233,-0.01969557432411784,0.0,0.0,0.0,0.0,0.0,-0.008879948060934914,-0.5087835461869498,0.0,0.0,11.87452060638434,0.005155726608474572,0.03489529697136072,-0.0390297999628363,-2.2362428131103775,0.0,0.0,0.030149851901901385,1.7274592669234274,-4.91326324143983,0.0,-14.744149660312626,11.869123965022126,0.0,-0.35796080006585657,0.0,-1.9680057176616674,0.0,0.0,-0.4677510063326233,0.0,-0.05522377158375924,0.3490658503988659,1.0,0.14,0.14,0.75,0.08726646259971647,5.0,0.184,0.175,0.174,0.0,0.0,0.0,-0.011972874600563928,0.0,0.0016895761554262892,0.0,6.080598548146419,0.0,-0.5204676709652392,0.0,0.14760475476112586,0.0,-3.764272547874489,0.0,-0.03017532639462983,0.0,-0.006595248684858718,0.45282556086065207,-0.01913510466644196,0.09185339856893891,0.0,0.0,0.0,0.43605903757103237,0.09185339856893891,0.0,0.0,-0.00875557330243618,0.0,0.0,-0.002757380405376498,0.0,1.1106100759022894,0.0,5.272440305528458,0.0,-0.014821051059710018,0.0,86.3651126379811,-1.315494321933527,0.0,-5.225089109768116,0.0,-0.014821051059710018,0.0
sim_raptor_glider_3dof,raptor_glider_3dof,0.026000000000000002,-14.68988115320013,0.0,-0.005518262922723641,11.860561864640957,0.0,-0.4779689662293547,0.0,0.0,0.0,-26.90993380256775,-0.46966694634852496,-0.019783465721504648,0.0,0.0,0.0,0.0,0.0,-0.009348665781619442,-0.5356390933651649,0.0,0.0,11.870188797051785,0.005518262922723641,0.03488256721341146,-0.04027722137272145,-2.3077147951710555,0.0,0.0,0.03092855559110201,1.7720757018058904,-4.917648921400208,0.0,-14.509222477750988,11.864511883412275,0.0,-0.3670692659739077,0.0,-1.8642293079885237,0.0,0.0,-0.46966694634852496,0.0,-0.05522377158375924,0.3490658503988659,1.0,0.14,0.14,0.75,0.08726646259971647,5.0,0.184,0.175,0.174,0.0,0.0,0.0,-0.01202900994447836,0.0,0.0016781161037004023,0.0,6.080697762574951,0.0,-0.5206002890113688,0.0,0.1461518441198616,0.0,-3.7636497195202354,0.0,-0.029797847774196553,0.0,-0.006478911262538558,0.4475262251284905,-0.018724055925402994,0.09163795126677632,0.0,0.0,0.0,0.4306846065236681,0.09163795126677632,0.0,0.0,-0.008299930995459911,0.0,0.0,-0.002769685201010651,0.0,1.1071968275219084,0.0,5.203658783436938,0.0,-0.014039510918461572,0.0,86.30211237471111,-1.3158311249747607,0.0,-5.1548557690649925,0.0,-0.014039510918461572,0.0
sim_raptor_glider_3dof,raptor_glider_3dof,0.027,-14.678018945078778,0.0,-0.005889781640068728,11.855642289235893,0.0,-0.4923618526753218,0.0,0.0,0.0,-27.013823391247698,-0.47148016172953267,-0.019867084792440117,0.0,0.0,0.0,0.0,0.0,-0.00981924784241234,-0.5626014593631667,0.0,0.0,11.865861716887164,0.005889781640068728,0.034869851352925925,-0.04150589829777762,-2.3781127973618856,0.0,0.0,0.031686650455365284,1.8155113379987189,-4.9213966125480475,0.0,-14.277001082688516,11.8599052927425,0.0,-0.3759264974257682,0.0,-1.7625492060430068,0.0,0.0,-0.47148016172953267,0.0,-0.05522377158375924,0.3490658503988659,1.0,0.14,0.14,0.75,0.08726646259971647,5.0,0.184,0.175,0.174,0.0,0.0,0.0,-0.012084259663891015,0.0,0.0016666893783054471,0.0,6.080788339331732,0.0,-0.5207291005579077,0.0,0.14472021907623667,0.0,-3.763030502639649,0.0,-0.029426256297019386,0.0,-0.0063654135172234085,0.4423024204266814,-0.018319417074899244,0.09142897267794817,0.0,0.0,0.0,0.42538936517074755,0.09142897267794817,0.0,0.0,-0.007852954624751978,0.0,0.0,-0.002781391870941617,0.0,1.1038666536281627,0.0,5.135933624389267,0.0,-0.013273758070709884,0.0,86.23920383971968,-1.3160262901706656,0.0,-5.085706498285577,0.0,-0.013273758070709884,0.0
sim_raptor_glider_3dof,raptor_glider_3dof,0.028,-14.666161340672287,0.0,-0.006270033478864838,11.850719277305338,0.0,-0.5065238679418441,0.0,0.0,0.0,-27.111946493403487,-0.47319273293442193,-0.019946514622720363,0.0,0.0,0.0,0.0,0.0,-0.010291592554693536,-0.5896648178522005,0.0,0.0,11.86153926850521,0.006270033478864838,0.03485714910372097,-0.04271603610809847,-2.447448586522473,0.0,0.0,0.03242444355340493,1.8577837686702725,-4.924526721813046,0.0,-14.047478510666755,11.855304532500423,0.0,-0.38453642215797373,0.0,-1.6629335446511968,0.0,0.0,-0.47319273293442193,0.0,-0.05522377158375924,0.3490658503988659,1.0,0.14,0.14,0.75,0.08726646259971647,5.0,0.184,0.175,0.174,0.0,0.0,0.0,-0.012138637209111017,0.0,0.0016553023951354085,0.0,6.080870619874608,0.0,-0.5208542123127707,0.0,0.1433096697361963,0.0,-3.762415050677433,0.0,-0.02906047785261291,0.0,-0.006254691220396744,0.4371536797934663,-0.017921111993510937,0.09122629910411827,0.0,0.0,0.0,0.4201727753301184,0.09122629910411827,0.0,0.0,-0.007414522637999653,0.0,0.0,-0.002792512047180851,0.0,1.1006173812529605,0.0,5.069255951398635,0.0,-0.012523552524768163,0.0,86.17638554275776,-1.316086082561922,0.0,-5.017632105285661,0.0,-0.012523552524768163,0.0
sim_raptor_glider_3dof,raptor_glider_3dof,0.029,-14.654308333972903,0.0,-0.006658773260589684,11.845793435464499,0.0,-0.520457706578641,0.0,0.0,0.0,-27.204420403916973,-0.4748067071450769,-0.02002183702222102,0.0,0.0,0.0,0.0,0.0,-0.01076560039644707,-0.6168234666407829,0.0,0.0,11.85722135831287,0.006658773260589684,0.0348444601907575,-0.04390783979346827,-2.5157339077023,0.0,0.0,0.0331422393970212,1.898910441061517,-4.927059206319415,0.0,-13.82064644185935,11.85070992077348,0.0,-0.39290293166620904,0.0,-1.5653507757363219,0.0,0.0,-0.4748067071450769,0.0,-0.05522377158375924,0.3490658503988659,1.0,0.14,0.14,0.75,0.08726646259971647,5.0,0.184,0.175,0.174,0.0,0.0,0.0,-0.012192155749205342,0.0,0.0016439612037223489,0.0,6.080944935776696,0.0,-0.5209757282300477,0.0,0.14191998549610665,0.0,-3.7618035098357767,0.0,-0.02870043893842499,0.0,-0.006146681272444072,0.43207951228608577,-0.017529064812434745,0.09102976976489796,0.0,0.0,0.0,0.4150342759037548,0.09102976976489796,0.0,0.0,-0.006984514462737613,0.0,0.0,-0.0028030571831109434,0.0,1.0974468797485253,0.0,5.003616643825692,0.0,-0.011788656692070241,0.0,86.1136560508011,-1.316016578875829,0.0,-4.950623146267874,0.0,-0.011788656692070241,0.0
sim_raptor_glider_3dof,raptor_glider_3dof,0.03,-14.642459918683791,0.0,-0.007055759470558046,11.840865351708688,0.0,-0.5341660544453433,0.0,0.0,0.0,-27.29136071690702,-0.47632410185946755,-0.020093132669940495,0.0,0.0,0.0,0.0,0.0,-0.011241173765186206,-0.6440718135183543,0.0,0.0,11.852907898529248,0.007055759470558046,0.03483178435607642,-0.04508151389465664,-2.582980480224204,0.0,0.0,0.03384034012947043,1.9389086667058495,-4.929013579538481,0.0,-13.596495318917793,11.846121757081647,0.0,-0.4010298834424497,0.0,-1.4697696579216875,0.0,0.0,-0.47632410185946755,0.0,-0.05522377158375924,0.3490658503988659,1.0,0.14,0.14,0.75,0.08726646259971647,5.0,0.184,0.175,0.174,0.0,0.0,0.0,-0.012244828181637574,0.0,0.001632671501860404,0.0,6.081011608928433,0.0,-0.5210937495672303,0.0,0.14055095516091884,0.0,-3.761196019248019,0.0,-0.028346066663414177,0.0,-0.0060413217003556395,0.427079404535199,-0.01714319994220218,0.09083922679773596,0.0,0.0,0.0,0.40997328431160834,0.09083922679773596,0.0,0.0,-0.006562810456465826,0.0,0.0,-0.0028130385737916695,0.0,1.0943530609886418,0.0,4.939006356900842,0.0,-0.011068835293808229,0.0,86.05101401727387,-1.315823670820744,0.0,-4.884669946159102,0.0,-0.011068835293808229,0.0
sim_raptor_glider_3dof,raptor_glider_3dof,0.03,-14.642459918683791,0.0,-0.007055759470558046,11.840865351708688,0.0,-0.5341660544453433,0.0,0.0,0.0,-27.29136071690702,-0.47632410185946755,-0.020093132669940495,0.0,0.0,0.0,0.0,0.0,-0.011241173765186206,-0.6440718135183543,0.0,0.0,11.852907898529248,0.007055759470558046,0.03483178435607642,-0.04508151389465664,-2.582980480224204,0.0,0.0,0.03384034012947043,1.9389086667058495,-4.931318422957549,0.0,-13.588702033367,11.846121757081647,0.0,-0.4010298834424497,0.0,-1.3804379508172722,0.0,0.0,-0.47632410185946755,0.0,-0.05591488655849525,0.3490658503988659,1.0,0.14,0.14,0.75,0.08726646259971647,5.0,0.184,0.175,0.174,0.0,0.0,0.0,-0.012326297394139778,0.0,0.0016633588769832993,0.0,6.080862850746198,0.0,-0.5211141505861456,0.0,0.14054897550646978,0.0,-3.7606855318056582,0.0,-0.028321966238135876,0.0,-0.006053232557689721,0.4269036406119389,-0.01674288028789053,0.0908998031445689,0.0,0.0,0.0,0.4097979388508531,0.0908998031445689,0.0,0.0,-0.006163926823020974,0.0,0.0,-0.0028130385737916695,0.0,1.0950828328385027,0.0,4.936893945242658,0.0,-0.010396078207604877,0.0,86.05101401727387,-1.3164575027609877,0.0,-4.882526792632634,0.0,-0.010396078207604877,0.0
sim_raptor_glider_3dof,raptor_glider_3dof,0.031,-14.630616099813512,0.0,-0.007460750373040001,11.835933356603524,0.0,-0.5476430895257659,0.0,0.0,0.0,-27.36777664775957,-0.47765781145382086,-0.020156725923543575,0.0,0.0,0.0,0.0,0.0,-0.011718168114626271,-0.6714015765928584,0.0,0.0,11.848596177415505,0.007460750373040001,0.034819113630772294,-0.046236554691101564,-2.6491594430259275,0.0,0.0,0.034518386576475296,1.977757866433069,-4.9326619841095845,0.0,-13.366442939627234,11.841537964485646,0.0,-0.4089132073074051,0.0,-1.2874349482581886,0.0,0.0,-0.47765781145382086,0.0,-0.05591488655849525,0.3490658503988659,1.0,0.14,0.14,0.75,0.08726646259971647,5.0,0.184,0.175,0.174,0.0,0.0,0.0,-0.012378382456367215,0.0,0.0016521060173110042,0.0,6.080920109052471,0.0,-0.5212288333224478,0.0,0.13920122041256916,0.0,-3.7600773448609854,0.0,-0.02797335657857351,0.0,-0.005950523489130526,0.42198024262735084,-0.016363553567777595,0.09071538603279888,0.0,0.0,0.0,0.4048202410271919,0.09071538603279888,0.0,0.0,-0.005752834778941229,0.0,0.0,-0.0028219416292961006,0.0,1.0920661802034777,0.0,4.873379408072796,0.0,-0.00969567259533242,0.0,85.98842001200107,-1.316147065175678,0.0,-4.817695745872878,0.0,-0.00969567259533242,0.0
sim_raptor_glider_3dof,raptor_glider_3dof,0.032,-14.61877685024831,0.0,-0.007873489700554629,11.831000293122786,0.0,-0.5608997388275869,0.0,0.0,0.0,-27.438932365659234,-0.4788997130127903,-0.020216482489439073,0.0,0.0,0.0,0.0,0.0,-0.01219644688139567,-0.6988049313594668,0.0,0.0,11.84428876939803,0.007873489700554629,0.03480645558023459,-0.04737385313371891,-2.714321843834703,0.0,0.0,0.03517740625232324,2.015516912475236,-4.933464792204608,0.0,-13.146855593363046,11.836961168033442,0.0,-0.41656543226329606,0.0,-1.1963683144456063,0.0,0.0,-0.4788997130127903,0.0,-0.05591488655849525,0.3490658503988659,1.0,0.14,0.14,0.75,0.08726646259971647,5.0,0.184,0.175,0.174,0.0,0.0,0.0,-0.01242964136722851,0.0,0.001640915021197167,0.0,6.080970379547653,0.0,-0.5213402135827341,0.0,0.13787371920643,0.0,-3.759473565161616,0.0,-0.02763027579758939,0.0,-0.005850345528873044,0.4171299067878912,-0.015990263761961717,0.09053664648909511,0.0,0.0,0.0,0.399918890420322,0.09053664648909511,0.0,0.0,-0.005349797352017871,0.0,0.0,-0.0028303075485214702,0.0,1.0891221405530986,0.0,4.810875318147147,0.0,-0.009009849776089861,0.0,85.92591136044092,-1.3157246819137685,0.0,-4.753901232167459,0.0,-0.009009849776089861,0.0
sim_raptor_glider_3dof,raptor_glider_3dof,0.033,-14.606942173865658,0.0,-0.008293767329878205,11.826066688237534,0.0,-0.573938132759133,0.0,0.0,0.0,-27.504925061139605,-0.48005150283118875,-0.020272469928196393,0.0,0.0,0.0,0.0,0.0,-0.012675922509904281,-0.7262768612523928,0.0,0.0,11.839985569876195,0.008293767329878205,0.034793809897076595,-0.048493567756924885,-2.7784767660034864,0.0,0.0,0.03581764524702061,2.052199904751094,-4.933744627003289,0.0,-12.929933051057153,11.832391601076035,0.0,-0.42398973296746445,0.0,-1.1072121022247712,0.0,0.0,-0.48005150283118875,0.0,-0.05591488655849525,0.3490658503988659,1.0,0.14,0.14,0.75,0.08726646259971647,5.0,0.184,0.175,0.174,0.0,0.0,0.0,-0.012480084343850326,0.0,0.0016297910699810557,0.0,6.081013954412043,0.0,-0.5214483806868325,0.0,0.13656631129522004,0.0,-3.7588743346182447,0.0,-0.027292666169012044,0.0,-0.005752643875821335,0.412352249715728,-0.01562295068251766,0.09036344202521347,0.0,0.0,0.0,0.39509344556240145,0.09036344202521347,0.0,0.0,-0.004954717314779198,0.0,0.0,-0.002838145789947495,0.0,1.0862488255310265,0.0,4.749374100838445,0.0,-0.008338414341854752,0.0,85.86348647719238,-1.3151956868577712,0.0,-4.691135381328621,0.0,-0.008338414341854752,0.0
sim_raptor_glider_3dof,raptor_glider_3dof,0.034,-14.595112064240789,0.0,-0.008721384315538601,11.821132994435988,0.0,-0.5867606082992196,0.0,0.0,0.0,-27.565850288040235,-0.48111484863812937,-0.020324754776963022,0.0,0.0,0.0,0.0,0.0,-0.013156516500307096,-0.7538128685618248,0.0,0.0,11.835686430604472,0.008721384315538601,0.034781176145653625,-0.04959587500648987,-2.841634319130234,0.0,0.0,0.036439358506182774,2.087821450568409,-4.933518888758633,0.0,-12.715663683306609,11.82782942895145,0.0,-0.4311893820873275,0.0,-1.0199392906766727,0.0,0.0,-0.48111484863812937,0.0,-0.05591488655849525,0.3490658503988659,1.0,0.14,0.14,0.75,0.08726646259971647,5.0,0.184,0.175,0.174,0.0,0.0,0.0,-0.012529722204825221,0.0,0.0016187388762503876,0.0,6.081051118428729,0.0,-0.5215534234718687,0.0,0.13527881425460553,0.0,-3.7582797794148086,0.0,-0.026960464960786516,0.0,-0.005657363090760715,0.4076467920918646,-0.01526154839150887,0.09019562980889961,0.0,0.0,0.0,0.3903433699043109,0.09019562980889961,0.0,0.0,-0.004567492305533414,0.0,0.0,-0.002845465668774824,0.0,1.0834443402169625,0.0,4.688867030033342,0.0,-0.007681162798086022,0.0,85.80114314633099,-1.3145652514347295,0.0,-4.629389145816347,0.0,-0.007681162798086022,0.0
sim_raptor_glider_3dof,raptor_glider_3dof,0.034999999999999996,-14.583286512703044,0.0,-0.009156081951320272,11.816199790968149,0.0,-0.5993702321747749,0.0,0.0,0.0,-27.62183235727735,-0.4820919200683964,-0.02037342457281254,0.0,0.0,0.0,0.0,0.0,-0.013638127174425405,-0.7814071275572544,0.0,0.0,11.831391387968406,0.009156081951320272,0.034768554432890786,-0.05068101259836544,-2.9038081233356934,0.0,0.0,0.037042885423940033,2.122400995778439,-4.932805631782062,0.0,-12.504029153842968,11.823274944259072,0.0,-0.4381686521746946,0.0,-0.9345160927600767,0.0,0.0,-0.4820919200683964,0.0,-0.05591488655849525,0.3490658503988659,1.0,0.14,0.14,0.75,0.08726646259971647,5.0,0.184,0.175,0.174,0.0,0.0,0.0,-0.012578568329916523,0.0,0.0016077622458071877,0.0,6.0810821498024366,0.0,-0.5216554342718855,0.0,0.13401097315717067,0.0,-3.75768998607924,0.0,-0.026633591376707327,0.0,-0.005564443468621858,0.4030127742582282,-0.014905971016399054,0.09003306043494679,0.0,0.0,0.0,0.38566782866821747,0.09003306043494679,0.0,0.0,-0.004187989126483277,0.0,0.0,-0.002852279440193756,0.0,1.0807067501328798,0.0,4.629341974351601,0.0,-0.007037840694576138,0.0,85.73888183105981,-1.3138384268826675,0.0,-4.568649995712391,0.0,-0.007037840694576138,0.0
sim_raptor_glider_3dof,raptor_glider_3dof,0.036,-14.571465511724758,0.0,-0.009597649871101295,11.811267538081719,0.0,-0.6117695356120807,0.0,0.0,0.0,-27.67297246867161,-0.48298448339206296,-0.020418550146333616,0.0,0.0,0.0,0.0,0.0,-0.014120672416621209,-0.8090549333591921,0.0,0.0,11.827100355575157,0.009597649871101295,0.034755944504908036,-0.05174917379024526,-2.965009251470071,0.0,0.0,0.03762850137362405,2.155954318110879,-4.931621705009334,0.0,-12.295014336816513,11.818728323443308,0.0,-0.44493104801188466,0.0,-0.8509140423291808,0.0,0.0,-0.48298448339206296,0.0,-0.05591488655849525,0.3490658503988659,1.0,0.14,0.14,0.75,0.08726646259971647,5.0,0.184,0.175,0.174,0.0,0.0,0.0,-0.012626633908490541,0.0,0.001596865145193265,0.0,6.0811073165590805,0.0,-0.5217544988431913,0.0,0.13276258407901592,0.0,-3.7571050584591275,0.0,-0.026311978411462864,0.0,-0.00547383020208098,0.3984496084542593,-0.014556147424009982,0.08987559410829637,0.0,0.0,0.0,0.3810661731978836,0.08987559410829637,0.0,0.0,-0.0038160980982431866,0.0,0.0,-0.0028585970204867066,0.0,1.0780342192116954,0.0,4.5707889729927045,0.0,-0.006408233652781061,0.0,85.67670121503959,-1.3130200606089084,0.0,-4.508907620905717,0.0,-0.006408233652781061,0.0
sim_raptor_glider_3dof,raptor_glider_3dof,0.037,-14.55964905336013,0.0,-0.010045873251446723,11.806336697553625,0.0,-0.6239611271616059,0.0,0.0,0.0,-27.719374013838365,-0.4837943431332357,-0.020460204011274675,0.0,0.0,0.0,0.0,0.0,-0.014604068721971526,-0.8367515014879825,0.0,0.0,11.822813273676035,0.010045873251446723,0.0347433461861237,-0.05280055858707228,-3.0252491629724787,0.0,0.0,0.038196489865100755,2.1884976614844964,-4.929983667488911,0.0,-12.08860261709272,11.814189746403276,0.0,-0.45148016588765855,0.0,-0.7691041292202329,0.0,0.0,-0.4837943431332357,0.0,-0.05591488655849525,0.3490658503988659,1.0,0.14,0.14,0.75,0.08726646259971647,5.0,0.184,0.175,0.174,0.0,0.0,0.0,-0.012673930237670364,0.0,0.0015860511883460963,0.0,6.081126878620006,0.0,-0.5218507012870515,0.0,0.13153343438755913,0.0,-3.756525090456928,0.0,-0.025995557388029052,0.0,-0.005385468866877903,0.3939566612580927,-0.014212004460655098,0.08972309272345756,0.0,0.0,0.0,0.37653770774039114,0.08972309272345756,0.0,0.0,-0.0034517066992641853,0.0,0.0,-0.0028644285615784548,0.0,1.0754249418432467,0.0,4.513197552123958,0.0,-0.005792123197157574,0.0,85.61460036969336,-1.3121148434793204,0.0,-4.450151187044939,0.0,-0.005792123197157574,0.0
sim_raptor_glider_3dof,raptor_glider_3dof,0.038,-14.54783712949126,0.0,-0.010500540379683516,11.801407716373195,0.0,-0.6359476023539388,0.0,0.0,0.0,-27.76113895661157,-0.4845232788965351,-0.020498457730729527,0.0,0.0,0.0,0.0,0.0,-0.015088234169007002,-0.86449213818918,0.0,0.0,11.818530088002168,0.010500540379683516,0.03473075931705947,-0.05383536618787642,-3.0845392711066144,0.0,0.0,0.03874713201886942,2.2200471329174345,-4.927907655773968,0.0,-11.884776666816094,11.80965938051712,0.0,-0.45781956836345855,0.0,-0.6890579004413315,0.0,0.0,-0.4845232788965351,0.0,-0.05591488655849525,0.3490658503988659,1.0,0.14,0.14,0.75,0.08726646259971647,5.0,0.184,0.175,0.174,0.0,0.0,0.0,-0.01272046779862156,0.0,0.0015753232476895195,0.0,6.081141086117007,0.0,-0.5219441212373452,0.0,0.1303233132198364,0.0,-3.755950171975215,0.0,-0.02568425986158602,0.0,-0.005299304628262572,0.38953328696986833,-0.01387347054005063,0.08957542082856894,0.0,0.0,0.0,0.37208172507869625,0.08957542082856894,0.0,0.0,-0.0030947045225961974,0.0,0.0,-0.0028697840823021336,0.0,1.0728771504314452,0.0,4.456557136293451,0.0,-0.005189295048223668,0.0,85.55257844709246,-1.3111273053433254,0.0,-4.392369756537937,0.0,-0.005189295048223668,0.0
sim_raptor_glider_3dof,raptor_glider_3dof,0.039,-14.536029731816766,0.0,-0.010961443559791013,11.796481023447743,0.0,-0.6477315368338455,0.0,0.0,0.0,-27.798367430720536,-0.48517303834523,-0.02053338162494652,0.0,0.0,0.0,0.0,0.0,-0.015573088839294322,-0.8922722644738506,0.0,0.0,11.81425074561954,0.010961443559791013,0.03471818374215974,-0.05485379442235478,-3.1428909106791845,0.0,0.0,0.03928070558306046,2.250618646205334,-4.925409374258404,0.0,-11.683518509083104,11.805137377650016,0.0,-0.46395277257751244,0.0,-0.6107475592492755,0.0,0.0,-0.48517303834523,0.0,-0.05591488655849525,0.3490658503988659,1.0,0.14,0.14,0.75,0.08726646259971647,5.0,0.184,0.175,0.174,0.0,0.0,0.0,-0.012766256175106362,0.0,0.0015646834181840047,0.0,6.081150179400392,0.0,-0.5220348336307447,0.0,0.1291320123497193,0.0,-3.755380389558079,0.0,-0.02537801773621274,0.0,-0.0052152821164162975,0.38517883091049615,-0.01354047595026816,0.08943244565935837,0.0,0.0,0.0,0.3676975100811825,0.08943244565935837,0.0,0.0,-0.0027449837342790693,0.0,0.0,-0.002874673427492513,0.0,1.0703891149029823,0.0,4.400857087895623,0.0,-0.004599539868706294,0.0,85.4906346198221,-1.3100618177014303,0.0,-4.335552329194604,0.0,-0.004599539868706294,0.0
sim_raptor_glider_3dof,raptor_glider_3dof,0.04,-14.52422685190341,0.0,-0.01142837832246527,11.79155703342688,0.0,-0.6593154892195888,0.0,0.0,0.0,-27.83115811290213,-0.48574534371327394,-0.020565045038323897,0.0,0.0,0.0,0.0,0.0,-0.016058554412665044,-0.9200873929268916,0.0,0.0,11.809975198402567,0.01142837832246527,0.03470561931999931,-0.05585603997671564,-3.2003153509798112,0.0,0.0,0.0397974855640506,2.2802279580529197,-4.922504121682126,0.0,-11.484809577024032,11.800623878033802,0.0,-0.4698832579080543,0.0,-0.5341456015932493,0.0,0.0,-0.48574534371327394,0.0,-0.05591488655849525,0.3490658503988659,1.0,0.14,0.14,0.75,0.08726646259971647,5.0,0.184,0.175,0.174,0.0,0.0,0.0,-0.012811304829412425,0.0,0.0015541336316389183,0.0,6.0811543912827135,0.0,-0.5221229115224708,0.0,0.12795932387494813,0.0,-3.7548158241669,0.0,-0.0250767636425863,0.0,-0.005133347227260757,0.38089262897010834,-0.013212951363070722,0.0892940372914471,0.0,0.0,0.0,0.3633843390182661,0.0892940372914471,0.0,0.0,-0.0024024374482262256,0.0,0.0,-0.002879106305365345,0.0,1.067959145017727,0.0,4.346086701669956,0.0,-0.004022650525598761,0.0,85.42876813119685,-1.3089226004335324,0.0,-4.279687836739234,0.0,-0.004022650525598761,0.0
sim_raptor_glider_3dof,raptor_glider_3dof,0.04,-14.52422685190341,0.0,-0.01142837832246527,11.79155703342688,0.0,-0.6593154892195888,0.0,0.0,0.0,-27.83115811290213,-0.48574534371327394,-0.020565045038323897,0.0,0.0,0.0,0.0,0.0,-0.016058554412665044,-0.9200873929268916,0.0,0.0,11.809975198402567,0.01142837832246527,0.03470561931999931,-0.05585603997671564,-3.2003153509798112,0.0,0.0,0.0397974855640506,2.2802279580529197,-4.924618064436601,0.0,-11.477705107092712,11.800623878033802,0.0,-0.4698832579080543,0.0,-0.4526365881949737,0.0,0.0,-0.48574534371327394,0.0,-0.056553402941129816,0.3490658503988659,1.0,0.14,0.14,0.75,0.08726646259971647,5.0,0.184,0.175,0.174,0.0,0.0,0.0,-0.012886299263427013,0.0,0.0015821844558393632,0.0,6.0809989573758,0.0,-0.5221424371249211,0.0,0.12795749698591632,0.0,-3.7542964795792013,0.0,-0.02505485255649973,0.0,-0.005144388956263865,0.3807317948588932,-0.012844851380856101,0.08935168753362865,0.0,0.0,0.0,0.36322395241779243,0.08935168753362865,0.0,0.0,-0.002035832714288704,0.0,0.0,-0.002879106305365345,0.0,1.068648643501812,0.0,4.344168473511505,0.0,-0.0034088061456963472,0.0,85.42876813119685,-1.309503934691013,0.0,-4.277734107508121,0.0,-0.0034088061456963472,0.0
sim_raptor_glider_3dof,raptor_glider_3dof,0.041,-14.512428501588158,0.0,-0.011901149525884329,11.786634103588169,0.0,-0.6706938714111191,0.0,0.0,0.0,-27.854942438572298,-0.48616045850658496,-0.02059007180464762,0.0,0.0,0.0,0.0,0.0,-0.0165445094427165,-0.9479305651819931,0.0,0.0,11.805700900879037,0.011901149525884329,0.03469305857027546,-0.056841620714492246,-3.2567849676238008,0.0,0.0,0.040297111271775744,2.3088544024418076,-4.921267080997824,0.0,-11.280824746128364,11.796116811849172,0.0,-0.47560689884124463,0.0,-0.37826567169030306,0.0,0.0,-0.48616045850658496,0.0,-0.056553402941129816,0.3490658503988659,1.0,0.14,0.14,0.75,0.08726646259971647,5.0,0.184,0.175,0.174,0.0,0.0,0.0,-0.012930799846981084,0.0,0.0015717081805137936,0.0,6.080996921415682,0.0,-0.522227987229547,0.0,0.12680400910464273,0.0,-3.7537334958682997,0.0,-0.024758685502774543,0.0,-0.005064548697705603,0.3765162316825953,-0.012523115223801708,0.08921796372947538,0.0,0.0,0.0,0.3589870888267847,0.08921796372947538,0.0,0.0,-0.0017025653136402141,0.0,0.0,-0.0028826100526506675,0.0,1.0662770642687358,0.0,4.2903882041654695,0.0,-0.0028487187734996724,0.0,85.3669421089966,-1.3082962895444905,0.0,-4.222882728538868,0.0,-0.0028487187734996724,0.0
sim_raptor_glider_3dof,raptor_glider_3dof,0.042,-14.500634633939981,0.0,-0.012379520892144268,11.781714700568259,0.0,-0.6818775146631328,0.0,0.0,0.0,-27.874532095225092,-0.4865023625145114,-0.02061200838447725,0.0,0.0,0.0,0.0,0.0,-0.017030840857239403,-0.9757953026787828,0.0,0.0,11.80143034680921,0.012379520892144268,0.03468050882132655,-0.05781142342941032,-3.312350570148935,0.0,0.0,0.04078058257217092,2.3365552674701524,-4.917538788418888,0.0,-11.086461771793788,11.791618487456763,0.0,-0.48113581955334433,0.0,-0.30554247797910306,0.0,0.0,-0.4865023625145114,0.0,-0.056553402941129816,0.3490658503988659,1.0,0.14,0.14,0.75,0.08726646259971647,5.0,0.184,0.175,0.174,0.0,0.0,0.0,-0.012974576851422238,0.0,0.0015613252622343856,0.0,6.080990480610159,0.0,-0.5223110448802926,0.0,0.12566870143542977,0.0,-3.753175937986394,0.0,-0.024467369630911374,0.0,-0.004986690094051142,0.3723675069221444,-0.012206704483628955,0.08908854875988273,0.0,0.0,0.0,0.35481970717402755,0.08908854875988273,0.0,0.0,-0.0013762353373218197,0.0,0.0,-0.002885681173826815,0.0,1.0639602132745363,0.0,4.237514883494032,0.0,-0.002301040401660625,0.0,85.30519258526793,-1.3070230768113396,0.0,-4.168960829744896,0.0,-0.002301040401660625,0.0
sim_raptor_glider_3dof,raptor_glider_3dof,0.043000000000000003,-14.488845260197104,0.0,-0.012863325123221215,11.776799207560929,0.0,-0.6928680478016082,0.0,0.0,0.0,-27.890001623722384,-0.4867723567205202,-0.020630906673557627,0.0,0.0,0.0,0.0,0.0,-0.017517478251186127,-1.0036775715051753,0.0,0.0,11.797163460208226,0.012863325123221215,0.034667969849858135,-0.058765566967217686,-3.3670189679149782,0.0,0.0,0.041248088716031556,2.363341396409803,-4.913446767786019,0.0,-10.894606520695698,11.787129007648591,0.0,-0.4864724698493111,0.0,-0.23444739285187838,0.0,0.0,-0.4867723567205202,0.0,-0.056553402941129816,0.3490658503988659,1.0,0.14,0.14,0.75,0.08726646259971647,5.0,0.184,0.175,0.174,0.0,0.0,0.0,-0.013017636194515757,0.0,0.0015510381078173202,0.0,6.080979846849674,0.0,-0.5223916718976425,0.0,0.12455145406374508,0.0,-3.752623912666041,0.0,-0.02418086211902153,0.0,-0.004910768900164366,0.3682852507383695,-0.011895575064729928,0.08896333088979866,0.0,0.0,0.0,0.3507213928597898,0.08896333088979866,0.0,0.0,-0.0010567703434856014,0.0,0.0,-0.0028883269342980683,0.0,1.0616966267475687,0.0,4.185541570927689,0.0,-0.0017656233155674962,0.0,85.2435184031627,-1.305688105598237,0.0,-4.115961192736185,0.0,-0.0017656233155674962,0.0
