name,vehicle,t,north,east,down,u,v,w,p_rad,p_deg,p_hat_div_b,q_deg,q_rad,q_hat_div_c,r_rad,r_deg,r_hat_div_b,phi_rad,phi_deg,theta_rad,theta_deg,psi_rad,psi_deg,speed,altitude,mach,alpha_rad,alpha_deg,beta_rad,beta_deg,gamma_rad,gamma_deg,u_dot,v_dot,w_dot,north_dot,east_dot,down_dot,p_rad_dot,q_rad_dot,r_rad_dot,phi_rad_dot,theta_rad_dot,psi_rad_dot,del_tail_alt_rad,del_tail_splay_rad,DIM_b,DIM_c_bar,DIM_S,DIM_wing_position,DIM_wing_incidence_rad,DIM_wing_incidence_deg,DIM_empennage_length,DIM_nose_length,DIM_tail_length,CDp,CDq,CDr,CYp,CYq,CYr,CLp,CLq,CLr,Clp,Clq,Clr,Cmp,Cmq,Cmr,Cnp,Cnq,Cnr,CL_0,Cm_0,CD_0,Cl_0,CY_0,Cn_0,CL,CD,CY,Cl,Cm,Cn,p_hat,q_hat,r_hat,drag_force_wind,side_force_wind,lift_force_wind,roll_moment_wind,pitch_moment_wind,yaw_moment_wind,qbar,X_total,Y_total,Z_total,L_total,M_total,N_total
sim_raptor_glider_3dof,raptor_glider_3dof,0.0,-15.0,0.0,0.0,12.0,0.0,0.0,0.0,0.0,0.0,0.0,0.0,0.0,0.0,0.0,0.0,0.0,0.0,0.0,0.0,0.0,0.0,12.0,-0.0,0.035264039495724236,0.0,0.0,0.0,0.0,0.0,0.0,-7.487178041450953,0.0,-25.024054441263395,12.0,0.0,0.0,0.0,-89.41363838472799,0.0,0.0,0.0,0.0,0.4363323129985824,0.3490658503988659,1.0,0.14,0.14,0.75,0.08726646259971647,5.0,0.184,0.175,0.174,0.0,0.0,0.0,-0.053153656886407115,0.0,0.055671173493162154,0.0,6.024209384397437,0.0,-0.5269202128147928,0.0,0.19813275846416445,0.0,-3.4552995296441478,0.0,-0.03588346466142729,0.0,-0.029845922084054996,0.7757079658211316,-0.38952171953159265,0.1667455120831285,0.0,0.0,0.0,0.7757079658211316,0.1667455120831285,0.0,0.0,-0.38952171953159265,0.0,0.0,0.0,0.0,2.0589739613990123,0.0,9.578443721347433,0.0,-0.6733741106753866,0.0,88.20001620075907,-2.0589739613990123,0.0,-9.578443721347433,0.0,-0.6733741106753866,0.0
sim_raptor_glider_3dof,raptor_glider_3dof,0.001,-14.988003746590733,0.0,-0.000012415174634177188,11.992502827180262,0.0,-0.02526770405029525,0.0,0.0,0.0,-5.103039651887635,-0.0890648437852645,-0.0037133468875430262,0.0,0.0,0.0,0.0,0.0,-0.000044590487564095195,-0.0025548467438532376,0.0,0.0,11.992529446150822,0.000012415174634177188,0.03524208600355821,-0.002106955238988487,-0.12071964281701804,0.0,0.0,0.002062364751424392,0.1181647960731648,-7.507675599275719,0.0,-25.508550485583747,11.99250394195709,0.0,-0.024732952477174667,0.0,-88.71856693472195,0.0,0.0,-0.0890648437852645,0.0,0.4363323129985824,0.3490658503988659,1.0,0.14,0.14,0.75,0.08726646259971647,5.0,0.184,0.175,0.174,0.0,0.0,0.0,-0.053430186057496054,0.0,0.0554080780660455,0.0,6.0240249874908525,0.0,-0.5274002219771142,0.0,0.1957017793236076,0.0,-3.453669819760639,0.0,-0.03525814560644711,0.0,-0.029499655008724115,0.7671435812705255,-0.38877083359862435,0.165760584735996,0.0,0.0,0.0,0.7640118800492363,0.165760584735996,0.0,0.0,-0.386975379228011,0.0,0.0,-0.0005198685642560238,0.0,2.0442643995802876,0.0,9.422277857722193,0.0,-0.6681395275853911,0.0,88.09023322213056,-2.064112165078258,0.0,-9.417949773357746,0.0,-0.6681395275853911,0.0
sim_raptor_glider_3dof,raptor_glider_3dof,0.002,-14.976014997218163,0.0,-0.000049270492086499364,11.984983638081903,0.0,-0.051011581957007696,0.0,0.0,0.0,-10.166686259086081,-0.1774421492383174,-0.0074026192836820276,0.0,0.0,0.0,0.0,0.0,-0.00017790069037163533,-0.010192958730758345,0.0,0.0,11.985092197667264,0.000049270492086499364,0.03522023038486956,-0.004256265628603735,-0.24386605700559036,0.0,0.0,0.0040783649382321,0.233673098274832,-7.5312069778045,0.0,-25.97647568606275,11.984992523423195,0.0,-0.04887944429772272,0.0,-88.03854836579413,0.0,0.0,-0.1774421492383174,0.0,0.4363323129985824,0.3490658503988659,1.0,0.14,0.14,0.75,0.08726646259971647,5.0,0.184,0.175,0.174,0.0,0.0,0.0,-0.05371000072613438,0.0,0.05518325282971427,0.0,6.023796383437123,0.0,-0.5278990096560925,0.0,0.1932332307470952,0.0,-3.4519868033346692,0.0,-0.03462545852853912,0.0,-0.029153229463314653,0.758374006898808,-0.388063512765844,0.16478068235403653,0.0,0.0,0.0,0.7521311449211472,0.16478068235403653,0.0,0.0,-0.38448598859501065,0.0,0.0,-0.001036366699715484,0.0,2.0296598650783366,0.0,9.264255835778041,0.0,-0.6630183077427956,0.0,87.98100758981425,-2.069072495287059,0.0,-9.25553317577674,0.0,-0.6630183077427956,0.0
sim_raptor_glider_3dof,raptor_glider_3dof,0.003,-14.964033765483153,0.0,-0.00010997650410396534,11.977439408842296,0.0,-0.07721526894416839,0.0,0.0,0.0,-15.191799193026208,-0.2651469152201249,-0.011068367643203196,0.0,0.0,0.0,0.0,0.0,-0.0003992506169425001,-0.022875375318799577,0.0,0.0,11.97768829909372,0.00010997650410396534,0.035198472770559576,-0.006446636600632963,-0.3693650692708328,0.0,0.0,0.006047385983690463,0.3464896939520332,-7.557751963901034,0.0,-26.428240508352538,11.977469282477013,0.0,-0.07243326284374174,0.0,-87.37346069275941,0.0,0.0,-0.2651469152201249,0.0,0.4363323129985824,0.3490658503988659,1.0,0.14,0.14,0.75,0.08726646259971647,5.0,0.184,0.175,0.174,0.0,0.0,0.0,-0.0539933342342998,0.0,0.0549956890768542,0.0,6.023523849844041,0.0,-0.5284156910211553,0.0,0.1907277346999606,0.0,-3.450251759098094,0.0,-0.033984927296559594,0.0,-0.028807107836358457,0.7494038488665931,-0.387399686775176,0.16380724554970857,0.0,0.0,0.0,0.7400699681597184,0.16380724554970857,0.0,0.0,-0.38205327508479314,0.0,0.0,-0.0015495714700484477,0.0,2.015177614704102,0.0,9.104435082498677,0.0,-0.6580095324771711,0.0,87.87233904709669,-2.0738283182350847,0.0,-9.09125486919839,0.0,-0.6580095324771711,0.0
sim_raptor_glider_3dof,raptor_glider_3dof,0.004,-14.95206006146447,0.0,-0.00019393750269191865,11.969867139046595,0.0,-0.10386280993339823,0.0,0.0,0.0,-20.179227607931264,-0.35219396226773997,-0.01471113674262299,0.0,0.0,0.0,0.0,0.0,-0.0007079751977142588,-0.040563990828967035,0.0,0.0,11.970317740549529,0.00019393750269191865,0.03517681313159225,-0.008676805031272569,-0.49714430794979647,0.0,0.0,0.00796882983355831,0.4565803171208294,-7.587282867422961,0.0,-26.864252771312174,11.96993767151242,0.0,-0.09538841555743248,0.0,-86.72306067972036,0.0,0.0,-0.35219396226773997,0.0,0.4363323129985824,0.3490658503988659,1.0,0.14,0.14,0.75,0.08726646259971647,5.0,0.184,0.175,0.174,0.0,0.0,0.0,-0.054280487125545326,0.0,0.054843901706905056,0.0,6.023207997132767,0.0,-0.5289492506950555,0.0,0.18818569052618506,0.0,-3.4484661334741316,0.0,-0.033335929119057396,0.0,-0.028461722112779208,0.7402377623774763,-0.38677875516894367,0.16284159593212236,0.0,0.0,0.0,0.727832609270965,0.16284159593212236,0.0,0.0,-0.37967643521108574,0.0,0.0,-0.0020595591439672187,0.0,2.000833340210975,0.0,8.942873240625298,0.0,-0.6531113699789741,0.0,87.76422654166264,-2.078352616244555,0.0,-8.925175978978858,0.0,-0.6531113699789741,0.0
sim_raptor_glider_3dof,raptor_glider_3dof,0.005,-14.94009389182307,0.0,-0.0003005518855746,11.962263859629724,0.0,-0.13093865674169305,0.0,0.0,0.0,-25.12980322664479,-0.4385978066832464,-0.01833146045868009,0.0,0.0,0.0,0.0,0.0,-0.0011034240774344013,-0.06322154265010774,0.0,0.0,11.962980463882431,0.0003005518855746,0.035155251297077285,-0.010945539172903748,-0.6271331991024985,0.0,0.0,0.009842115095469346,0.5639116564523908,-7.619764933048298,0.0,-27.284916404279006,11.96240105817221,0.0,-0.11773912974501546,0.0,-86.08698535636344,0.0,0.0,-0.4385978066832464,0.0,0.4363323129985824,0.3490658503988659,1.0,0.14,0.14,0.75,0.08726646259971647,5.0,0.184,0.175,0.174,0.0,0.0,0.0,-0.05457182683161292,0.0,0.05472593032343835,0.0,6.022849768199583,0.0,-0.529498543215881,0.0,0.18560727572066893,0.0,-3.446631540314975,0.0,-0.03267769521599154,0.0,-0.028117473742245224,0.7308804509402165,-0.3861995880247053,0.16188493539638366,0.0,0.0,0.0,0.7154233824078116,0.16188493539638366,0.0,0.0,-0.37735413745313595,0.0,0.0,-0.002566404464215213,0.0,1.9866411722863777,0.0,8.779628219436473,0.0,-0.6483210867187731,0.0,87.65666831823584,-2.0826180146542357,0.0,-8.757357879177162,0.0,-0.6483210867187731,0.0
sim_raptor_glider_3dof,raptor_glider_3dof,0.006,-14.92813525992473,0.0,-0.0004292124397594923,11.954626639550906,0.0,-0.15842765930436845,0.0,0.0,0.0,-30.04433358782197,-0.5243725426750143,-0.02192985685369944,0.0,0.0,0.0,0.0,0.0,-0.0015849610904613313,-0.09081158117588696,0.0,0.0,11.955676367913814,0.0004292124397594923,0.03513378696968413,-0.01325163807797221,-0.7592629335026617,0.0,0.0,0.01166667698751088,0.6684513523267749,-7.65515672930522,0.0,-27.690630360815796,11.954862725505864,0.0,-0.13947985016959272,0.0,-85.46475387002384,0.0,0.0,-0.5243725426750143,0.0,0.4363323129985824,0.3490658503988659,1.0,0.14,0.14,0.75,0.08726646259971647,5.0,0.184,0.175,0.174,0.0,0.0,0.0,-0.05486778710977721,0.0,0.05463934182373924,0.0,6.022450437086101,0.0,-0.5300622937916623,0.0,0.18299244783751023,0.0,-3.444749760445701,0.0,-0.03200931203935526,0.0,-0.02777473367758559,0.7213366671206888,-0.3856605284654083,0.16093834608201854,0.0,0.0,0.0,0.7028466604815571,0.16093834608201854,0.0,0.0,-0.37508452678533377,0.0,0.0,-0.003070179959517922,0.0,1.9726136922696764,0.0,8.61475825857789,0.0,-0.6436350613951496,0.0,87.54966199755503,-2.0865968109073574,0.0,-8.58786227075033,0.0,-0.6436350613951496,0.0
sim_raptor_glider_3dof,raptor_glider_3dof,0.007,-14.916184165882276,0.0,-0.0005793064854676666,11.946952592434664,0.0,-0.18631506489291877,0.0,0.0,0.0,-34.923595341205655,-0.6095317253381911,-0.025506823267053384,0.0,0.0,0.0,0.0,0.0,-0.00215196395569408,-0.12329845232554847,0.0,0.0,11.94840531406963,0.0005793064854676666,0.03511241974218939,-0.015593931681301612,-0.8934664713539263,0.0,0.0,0.013441967725607532,0.7701680190283778,-7.693410528399182,0.0,-28.081787400130356,11.947325872576652,0.0,-0.1606052419691676,0.0,-84.85576962259707,0.0,0.0,-0.6095317253381911,0.0,0.4363323129985824,0.3490658503988659,1.0,0.14,0.14,0.75,0.08726646259971647,5.0,0.184,0.175,0.174,0.0,0.0,0.0,-0.05516886739682447,0.0,0.05458123429015566,0.0,6.022011606567932,0.0,-0.5306390995932566,0.0,0.18034094615955698,0.0,-3.442822740123928,0.0,-0.031329722669104235,0.0,-0.027433842397851762,0.7116112100401488,-0.3851593965008954,0.16000279048359145,0.0,0.0,0.0,0.6901068760336266,0.16000279048359145,0.0,0.0,-0.3728652305367967,0.0,0.0,-0.0035709552573874744,0.0,1.9587619456352325,0.0,8.448321951825605,0.0,-0.6390488010277785,0.0,87.4432046606849,-2.090261009781001,0.0,-8.416751218395161,0.0,-0.6390488010277785,0.0
sim_raptor_glider_3dof,raptor_glider_3dof,0.008,-14.904240606651282,0.0,-0.0007502161182813057,11.939238882633015,0.0,-0.21458650998107728,0.0,0.0,0.0,-39.768327695755914,-0.6940882563029905,-0.02906283149078703,0.0,0.0,0.0,0.0,0.0,-0.0028038236298313884,-0.16064726048838937,0.0,0.0,11.941167131685324,0.0007502161182813057,0.035091149113066274,-0.017971280258754233,-1.0296785112733915,0.0,0.0,0.015167456628922844,0.8690312507850021,-7.734472659743328,0.0,-28.458772998507442,11.939793614875626,0.0,-0.18111019026309105,0.0,-84.25932271685393,0.0,0.0,-0.6940882563029905,0.0,0.4363323129985824,0.3490658503988659,1.0,0.14,0.14,0.75,0.08726646259971647,5.0,0.184,0.175,0.174,0.0,0.0,0.0,-0.05547563193059443,0.0,0.054548242134604644,0.0,6.021535204946049,0.0,-0.5312274312413525,0.0,0.17765229454057654,0.0,-3.440852589499303,0.0,-0.030637728722487007,0.0,-0.027095110104628704,0.7017089249620452,-0.38469349440195466,0.1590791122370665,0.0,0.0,0.0,0.6772085241452388,0.1590791122370665,0.0,0.0,-0.37069336574289874,0.0,0.0,-0.004068796408710184,0.0,1.9450954633896698,0.0,8.280378294547667,0.0,-0.634556959380627,0.0,87.33729292823296,-2.0935823601488033,0.0,-8.244087212286694,0.0,-0.634556959380627,0.0
sim_raptor_glider_3dof,raptor_glider_3dof,0.009000000000000001,-14.892304576113405,0.0,-0.0009413184291606596,11.931482731000013,0.0,-0.24322801242629782,0.0,0.0,0.0,-44.57922600410458,-0.7780542717623,-0.03259832301805841,0.0,0.0,0.0,0.0,0.0,-0.0035399435977275817,-0.2028238278641469,0.0,0.0,11.933961623290918,0.0009413184291606596,0.03506997450201568,-0.020382573901800104,-1.1678354601866447,0.0,0.0,0.01684263030407252,0.9650116323224979,-7.778283843616755,0.0,-28.821964269395146,11.932268984822977,0.0,-0.20098980076623565,0.0,-83.67459264387269,0.0,0.0,-0.7780542717623,0.0,0.4363323129985824,0.3490658503988659,1.0,0.14,0.14,0.75,0.08726646259971647,5.0,0.184,0.175,0.174,0.0,0.0,0.0,-0.055788708736007504,0.0,0.0545365423304085,0.0,6.021023482042527,0.0,-0.531825634606743,0.0,0.17492580464570248,0.0,-3.4388415806117196,0.0,-0.029931992558805562,0.0,-0.02675881698380161,0.6916347024036031,-0.3842596132891834,0.15816803727685969,0.0,0.0,0.0,0.6641561648322319,0.15816803727685969,0.0,0.0,-0.3685655476778038,0.0,0.0,-0.004563765222528177,0.0,1.9316222876944662,0.0,8.110986723910683,0.0,-0.6301533572010052,0.0,87.23192303897322,-2.096532395351765,0.0,-8.0699332223392,0.0,-0.6301533572010052,0.0
sim_raptor_glider_3dof,raptor_glider_3dof,0.01,-14.88037606515921,0.0,-0.0011519857253842968,11.923681420343334,0.0,-0.27222596258209436,0.0,0.0,0.0,-49.356935507178044,-0.8614410332947542,-0.03611370438294382,0.0,0.0,0.0,0.0,0.0,-0.004359739052099519,-0.24979464746366856,0.0,0.0,11.926788569792983,0.0011519857253842968,0.03504889526519434,-0.022826731891997996,-1.3078753974881616,0.0,0.0,0.01846699283989848,1.058080750024493,-7.824779502619,0.0,-29.171728920063018,11.924754932281528,0.0,-0.22023940058925584,0.0,-83.10065118556057,0.0,0.0,-0.8614410332947542,0.0,0.4363323129985824,0.3490658503988659,1.0,0.14,0.14,0.75,0.08726646259971647,5.0,0.184,0.175,0.174,0.0,0.0,0.0,-0.05610878847395166,0.0,0.05454186162840115,0.0,6.020479004498773,0.0,-0.5324319328652451,0.0,0.17216057968112747,0.0,-3.4367921450673697,0.0,-0.02921103978427371,0.0,-0.02642521354291394,0.6813934773072167,-0.3838540408424605,0.15727017538811427,0.0,0.0,0.0,0.6509544254455103,0.15727017538811427,0.0,0.0,-0.3664778994650984,0.0,0.0,-0.0050559186136121355,0.0,1.9183490019530007,0.0,7.940207158086878,0.0,-0.6258310040784566,0.0,87.12709092666549,-2.099082476605616,0.0,-7.894352751368246,0.0,-0.6258310040784566,0.0
sim_raptor_glider_3dof,raptor_glider_3dof,0.01,-14.88037606515921,0.0,-0.0011519857253842968,11.923681420343334,0.0,-0.27222596258209436,0.0,0.0,0.0,-49.356935507178044,-0.8614410332947542,-0.03611370438294382,0.0,0.0,0.0,0.0,0.0,-0.004359739052099519,-0.24979464746366856,0.0,0.0,11.926788569792983,0.0011519857253842968,0.03504889526519434,-0.022826731891997996,-1.3078753974881616,0.0,0.0,0.01846699283989848,1.058080750024493,-6.43921631497036,0.0,-18.458369277746336,11.924754932281528,0.0,-0.22023940058925584,0.0,39.76790472619572,0.0,0.0,-0.8614410332947542,0.0,-0.32391784770288484,0.3490658503988659,1.0,0.14,0.14,0.75,0.08726646259971647,5.0,0.184,0.175,0.174,0.0,0.0,0.0,-0.1622859420137832,0.0,0.04759416312854716,0.0,5.993651655183682,0.0,-0.5385434581286318,0.0,0.16702209466938722,0.0,-3.4336899147721134,0.0,0.010263712514861809,0.0,-0.02468452963366238,0.4390744105318924,0.158017930566759,0.1315536431727858,0.0,0.0,0.0,0.408770995564942,0.1315536431727858,0.0,0.0,0.1753783873202276,0.0,0.0,-0.0050559186136121355,0.0,1.6046640722629184,0.0,4.986103877827839,0.0,0.29949209049298,0.0,87.12709092666549,-1.7180526000022398,0.0,-4.948178849731159,0.0,0.29949209049298,0.0
sim_raptor_glider_3dof,raptor_glider_3dof,0.011,-14.868454394285875,0.0,-0.001376286154740556,11.917241606433661,0.0,-0.2903216144954982,0.0,0.0,0.0,-47.082421685173365,-0.8217432782186522,-0.034466849338081716,0.0,0.0,0.0,0.0,0.0,-0.005201315109563535,-0.2980134036956159,0.0,0.0,11.920777413657083,0.001376286154740556,0.03503123046124506,-0.024356659956473518,-1.395533818541228,0.0,0.0,0.019155344846909984,1.0975204148456121,-6.44014928363146,0.0,-17.734654060995833,11.918590451574739,0.0,-0.22833263802677764,0.0,39.627432961764455,0.0,0.0,-0.8217432782186522,0.0,-0.32391784770288484,0.3490658503988659,1.0,0.14,0.14,0.75,0.08726646259971647,5.0,0.184,0.175,0.174,0.0,0.0,0.0,-0.16321140825231906,0.0,0.04743530922236932,0.0,5.992446629840531,0.0,-0.5389337945271281,0.0,0.16529301601895433,0.0,-3.4296042991028775,0.0,0.010947761112197817,0.0,-0.024448289912841283,0.43277269874513763,0.158386120218157,0.13131047252680286,0.0,0.0,0.0,0.40385699302312833,0.13131047252680286,0.0,0.0,0.1749351918714553,0.0,0.0,-0.004825358907331441,0.0,1.6000838077881256,0.0,4.921199526308973,0.0,0.29843419763504814,0.0,87.03928815195275,-1.7194613411876252,0.0,-4.880771011413121,0.0,0.29843419763504814,0.0
sim_raptor_glider_3dof,raptor_glider_3dof,0.012,-14.856538882253412,0.0,-0.0016085618139538708,11.910802049887065,0.0,-0.30770024803510393,0.0,0.0,0.0,-44.81601687712575,-0.7821870521351912,-0.03282424521618914,0.0,0.0,0.0,0.0,0.0,-0.006003271791558089,-0.34396213692621896,0.0,0.0,11.914775907008691,0.0016085618139538708,0.03501359401395483,-0.025827968852873705,-1.4798336086650097,0.0,0.0,0.019824697061315615,1.1358714717387906,-6.438688966211539,0.0,-17.02418123889128,11.912434619336999,0.0,-0.23619135093427507,0.0,39.484759581812284,0.0,0.0,-0.7821870521351912,0.0,-0.32391784770288484,0.3490658503988659,1.0,0.14,0.14,0.75,0.08726646259971647,5.0,0.184,0.175,0.174,0.0,0.0,0.0,-0.16409978994553542,0.0,0.04727920453758622,0.0,5.991278129623613,0.0,-0.5393077333689684,0.0,0.16362848787558756,0.0,-3.425669779431554,0.0,0.011603867171384584,0.0,-0.024221473622563,0.42670548460829644,0.15873869759327008,0.13108140033036692,0.0,0.0,0.0,0.3991731990603745,0.13108140033036692,0.0,0.0,0.17448100107503506,0.0,0.0,-0.00459539433026648,0.0,1.5956845418878514,0.0,4.859228705760187,0.0,0.2973597244106283,0.0,86.95167048142918,-1.7206423981883854,0.0,-4.816399330377433,0.0,0.2973597244106283,0.0
sim_raptor_glider_3dof,raptor_glider_3dof,0.013000000000000001,-14.84462952229061,0.0,-0.0018485945598807956,11.904364963242472,0.0,-0.3243743371853109,0.0,0.0,0.0,-42.55784256878503,-0.7427744753707001,-0.03118599296226459,0.0,0.0,0.0,0.0,0.0,-0.006765737201488303,-0.3876481869399324,0.0,0.0,11.908783476438696,0.0018485945598807956,0.03499598423826353,-0.02724161215072444,-1.560829403368812,0.0,0.0,0.02047587494923614,1.1731812164288795,-6.4350006294195605,0.0,-16.32680908574516,11.906287116716047,0.0,-0.24382572263979715,0.0,39.33993062385932,0.0,0.0,-0.7427744753707001,0.0,-0.32391784770288484,0.3490658503988659,1.0,0.14,0.14,0.75,0.08726646259971647,5.0,0.184,0.175,0.174,0.0,0.0,0.0,-0.16495182329831615,0.0,0.0471263042512853,0.0,5.990146732737571,0.0,-0.5396656017891525,0.0,0.16202755347004363,0.0,-3.421884398905042,0.0,0.012232717002568711,0.0,-0.024004081748165804,0.42087001721892353,0.1590759245991191,0.13086566193987784,0.0,0.0,0.0,0.39471680287991145,0.13086566193987784,0.0,0.0,0.17401600538859008,0.0,0.0,-0.004366039014717043,0.0,1.591456281955906,0.0,4.800147924406491,0.0,0.29626901752828455,0.0,86.86422933722734,-1.7216133995031713,0.0,-4.755018453824548,0.0,0.29626901752828455,0.0
sim_raptor_glider_3dof,raptor_glider_3dof,0.014,-14.832726305472097,0.0,-0.0020961487242726366,11.897932667883213,0.0,-0.3403578486209737,0.0,0.0,0.0,-40.308029634144305,-0.7035078321072634,-0.029552199422654066,0.0,0.0,0.0,0.0,0.0,-0.007488866193391846,-0.42908042621955533,0.0,0.0,11.902799890555182,0.0020961487242726366,0.03497840045418667,-0.028598670204877427,-1.638583102426014,0.0,0.0,0.02110980401148558,1.2095026762064585,-6.429245593033648,0.0,-15.642369083835584,11.900147903429644,0.0,-0.25124711162420127,0.0,39.19300683167961,0.0,0.0,-0.7035078321072634,0.0,-0.32391784770288484,0.3490658503988659,1.0,0.14,0.14,0.75,0.08726646259971647,5.0,0.184,0.175,0.174,0.0,0.0,0.0,-0.16576831597147904,0.0,0.046976986925293666,0.0,5.9890527974071,0.0,-0.5400077679858151,0.0,0.16048911787939074,0.0,-3.4182458316070545,0.0,0.012835027119550355,0.0,-0.023796054005856278,0.41526288532840044,0.15939811554917893,0.13066252161877412,0.0,0.0,0.0,0.3904843297613514,0.13066252161877412,0.0,0.0,0.173540451097962,0.0,0.0,-0.004137307919171569,0.0,1.5873895186370957,0.0,4.743906091631235,0.0,0.2951625344493792,0.0,86.77696114556217,-1.7223913256008716,0.0,-4.696575200248551,0.0,0.2951625344493792,0.0
sim_raptor_glider_3dof,raptor_glider_3dof,0.015,-14.820829223849458,0.0,-0.002351022199660751,11.891507093738232,0.0,-0.35566331790152844,0.0,0.0,0.0,-38.06669340342735,-0.6643891352370134,-0.02792296067930443,0.0,0.0,0.0,0.0,0.0,-0.00817280238965795,-0.46826708372183423,0.0,0.0,11.896824675354654,0.002351022199660751,0.03496084126878443,-0.02990010594752291,-1.7131498777870742,0.0,0.0,0.02172730355786496,1.2448827940652398,-6.421577245963102,0.0,-14.970705925958148,11.894016684786067,0.0,-0.25846558408828446,0.0,39.04404459482874,0.0,0.0,-0.6643891352370134,0.0,-0.32391784770288484,0.3490658503988659,1.0,0.14,0.14,0.75,0.08726646259971647,5.0,0.184,0.175,0.174,0.0,0.0,0.0,-0.16654999945328985,0.0,0.04683158668598169,0.0,5.987996665986998,0.0,-0.540334577317992,0.0,0.15901222278814206,0.0,-3.414752036652731,0.0,0.013411437781511985,0.0,-0.023597311924672022,0.40988103839608697,0.1597055751165921,0.13047130681096963,0.0,0.0,0.0,0.38647267503278443,0.13047130681096963,0.0,0.0,0.17305457327545617,0.0,0.0,-0.00390921449510262,0.0,1.5834754831582536,0.0,4.690456628227384,0.0,0.2940406998436553,0.0,86.68985880399828,-1.7229919635673243,0.0,-4.641021081672425,0.0,0.2940406998436553,0.0
sim_raptor_glider_3dof,raptor_glider_3dof,0.016,-14.808938269531573,0.0,-0.0026130164680591185,11.885090089853865,0.0,-0.37030345211273974,0.0,0.0,0.0,-35.83394916660048,-0.6254203969494565,-0.026298372474374495,0.0,0.0,0.0,0.0,0.0,-0.00881769461127073,-0.5052166862610619,0.0,0.0,11.890857458173029,0.0026130164680591185,0.03494330558692006,-0.031146898690653825,-1.7845858398960142,0.0,0.0,0.022329204079383096,1.2793691536349523,-6.4121434720855355,0.0,-14.311656962072794,11.887893230082266,0.0,-0.2654913195443867,0.0,38.893105454035556,0.0,0.0,-0.6254203969494565,0.0,-0.32391784770288484,0.3490658503988659,1.0,0.14,0.14,0.75,0.08726646259971647,5.0,0.184,0.175,0.174,0.0,0.0,0.0,-0.16729760947501318,0.0,0.046690384328907056,0.0,5.98697856672988,0.0,-0.5406463844401592,0.0,0.15759589349998246,0.0,-3.4114009006143777,0.0,0.01396257466776457,0.0,-0.023407743246326284,0.40472124670707826,0.1599986269698107,0.13029138450921163,0.0,0.0,0.0,0.38267855577892396,0.13029138450921163,0.0,0.0,0.172558627785939,0.0,0.0,-0.0036817721464124297,0.0,1.5797059487200982,0.0,4.639751072480487,0.0,0.2929039771743418,0.0,86.60291670038642,-1.7234302427041626,0.0,-4.588305689199245,0.0,0.2929039771743418,0.0
sim_raptor_glider_3dof,raptor_glider_3dof,0.017,-14.797053434883336,0.0,-0.0028819438829813296,11.878683348669792,0.0,-0.3842907819389109,0.0,0.0,0.0,-33.60990835947715,-0.5866035621664423,-0.024678527671337228,0.0,0.0,0.0,0.0,0.0,-0.00942369380970739,-0.5399378827197934,0.0,0.0,11.884897875162757,0.0028819438829813296,0.034925792339365706,-0.0323400151131858,-1.8529463753748436,0.0,0.0,0.022916321303478412,1.3130084926550505,-6.4010862351683535,0.0,-13.665057174563222,11.881777288428834,0.0,-0.27233430049288565,0.0,38.74025303253618,0.0,0.0,-0.5866035621664423,0.0,-0.32391784770288484,0.3490658503988659,1.0,0.14,0.14,0.75,0.08726646259971647,5.0,0.184,0.175,0.174,0.0,0.0,0.0,-0.168011868273201,0.0,0.04655361546168114,0.0,5.985998644843771,0.0,-0.5409435443350985,0.0,0.15623917042058108,0.0,-3.4081903157257507,0.0,0.014489037893066697,0.0,-0.023227210937260823,0.3997802322852959,0.16027760381743675,0.1301221628746772,0.0,0.0,0.0,0.37909864363766493,0.1301221628746772,0.0,0.0,0.17205288047965175,0.0,0.0,-0.0034549938739872124,0.0,1.5760732226594232,0.0,4.5917406211521445,0.0,0.29175284558803,0.0,86.51612936207631,-1.7237201829781392,0.0,-4.538378285898671,0.0,0.29175284558803,0.0
sim_raptor_glider_3dof,raptor_glider_3dof,0.018000000000000002,-14.785174712532859,0.0,-0.0031576271305932962,11.872288417417852,0.0,-0.39763766485162005,0.0,0.0,0.0,-31.39467856256964,-0.5479405085221208,-0.023063516246151113,0.0,0.0,0.0,0.0,0.0,-0.009990952938549244,-0.5724394366926995,0.0,0.0,11.878945575212589,0.0031576271305932962,0.03490830049432128,-0.03348040951103727,-1.9182861613520958,0.0,0.0,0.023489456572488028,1.3458467246593964,-6.388541710317934,0.0,-13.030739640067516,11.875668594636458,0.0,-0.27900431757968464,0.0,38.58555245414837,0.0,0.0,-0.5479405085221208,0.0,-0.32391784770288484,0.3490658503988659,1.0,0.14,0.14,0.75,0.08726646259971647,5.0,0.184,0.175,0.174,0.0,0.0,0.0,-0.1686934845527502,0.0,0.04642147510171759,0.0,5.9850569696435105,0.0,-0.5412264109403103,0.0,0.15494110756938165,0.0,-3.4051181798143495,0.0,0.014991403905640025,0.0,-0.023055557270934807,0.3950546781210373,0.16054284475134026,0.12996308853468533,0.0,0.0,0.0,0.3757295739095455,0.12996308853468533,0.0,0.0,0.17153760453577005,0.0,0.0,-0.003228892274461156,0.0,1.5725701120443614,0.0,4.546376242694644,0.0,0.2905877955321914,0.0,86.42949151259889,-1.7238749205328578,0.0,-4.491187922564732,0.0,0.2905877955321914,0.0
sim_raptor_glider_3dof,raptor_glider_3dof,0.019000000000000003,-14.773302095364201,0.0,-0.003439897995128279,11.865906718718431,0.0,-0.4103563001387298,0.0,0.0,0.0,-29.188363799928766,-0.5094330515786804,-0.021453425484276586,0.0,0.0,0.0,0.0,0.0,-0.010519626676729668,-0.602730210629842,0.0,0.0,11.873000233740028,0.003439897995128279,0.03489082909794595,-0.03456902501030949,-1.980659234972921,0.0,0.0,0.024049398333579823,1.377929024343079,-6.374640444087796,0.0,-12.408535851636389,11.869566884516916,0.0,-0.2855109881775689,0.0,38.42906996105458,0.0,0.0,-0.5094330515786804,0.0,-0.32391784770288484,0.3490658503988659,1.0,0.14,0.14,0.75,0.08726646259971647,5.0,0.184,0.175,0.174,0.0,0.0,0.0,-0.16934315406805645,0.0,0.04629412177935793,0.0,5.984153540364201,0.0,-0.5414953361702094,0.0,0.15370077013418898,0.0,-3.402182393665938,0.0,0.015470227668252245,0.0,-0.022892607372740115,0.3905412325244185,0.16079469309172437,0.12981364392611536,0.0,0.0,0.0,0.37256794963536427,0.12981364392611536,0.0,0.0,0.17101307839702456,0.0,0.0,-0.0030034795677987224,0.0,1.5691898926431105,0.0,4.503608736407774,0.0,0.28940932587670204,0.0,86.34299827177254,-1.7239067384365943,0.0,-4.446683497506274,0.0,0.28940932587670204,0.0
sim_raptor_glider_3dof,raptor_glider_3dof,0.02,-14.761435576526745,0.0,-0.003728597795545201,11.859539547311943,0.0,-0.42245871789524647,0.0,0.0,0.0,-26.99106427993896,-0.4710829403023673,-0.019848339819992112,0.0,0.0,0.0,0.0,0.0,-0.011009871487898771,-0.6308191692380196,0.0,0.0,11.86706154204071,0.003728597795545201,0.03487337724305948,-0.035606792650989906,-2.040118940899158,0.0,0.0,0.024596921163091135,1.4092997716611382,-6.3595074620548955,0.0,-11.798276217241744,11.863471886293558,0.0,-0.29186374510043134,0.0,38.270872287349405,0.0,0.0,-0.4710829403023673,0.0,-0.32391784770288484,0.3490658503988659,1.0,0.14,0.14,0.75,0.08726646259971647,5.0,0.184,0.175,0.174,0.0,0.0,0.0,-0.1699615589711719,0.0,0.04617168153229074,0.0,5.983288293230733,0.0,-0.541750668556262,0.0,0.15251723457927296,0.0,-3.3993808641515972,0.0,0.01592604377029168,0.0,-0.022738172720529165,0.38623652148749665,0.16103349399562228,0.1296733451024946,0.0,0.0,0.0,0.3696103539875933,0.1296733451024946,0.0,0.0,0.1704795833153186,0.0,0.0,-0.002778767574798896,0.0,1.565926277223355,0.0,4.4633888729061875,0.0,0.2882179391960284,0.0,86.25664499987793,-1.7238270890523557,0.0,-4.404813901123479,0.0,0.2882179391960284,0.0
sim_raptor_glider_3dof,raptor_glider_3dof,0.02,-14.761435576526745,0.0,-0.003728597795545201,11.859539547311943,0.0,-0.42245871789524647,0.0,0.0,0.0,-26.99106427993896,-0.4710829403023673,-0.019848339819992112,0.0,0.0,0.0,0.0,0.0,-0.011009871487898771,-0.6308191692380196,0.0,0.0,11.86706154204071,0.003728597795545201,0.03487337724305948,-0.035606792650989906,-2.040118940899158,0.0,0.0,0.024596921163091135,1.4092997716611382,-6.298978180691437,0.0,-11.925395279230658,11.863471886293558,0.0,-0.29186374510043134,0.0,36.864064550210195,0.0,0.0,-0.4710829403023673,0.0,-0.31665357821835205,0.3490658503988659,1.0,0.14,0.14,0.75,0.08726646259971647,5.0,0.184,0.175,0.174,0.0,0.0,0.0,-0.1494674693069387,0.0,0.04260911782562322,0.0,5.9863358643616325,0.0,-0.5390021867428563,0.0,0.15221775959597736,0.0,-3.4104165677340887,0.0,0.009932762652769224,0.0,-0.02161428640344061,0.38908891285398484,0.15473613039231715,0.12819275759209,0.0,0.0,0.0,0.37245427686224103,0.12819275759209,0.0,0.0,0.1642128853672936,0.0,0.0,-0.002778767574798896,0.0,1.5480468056446843,0.0,4.4977318873189605,0.0,0.277623270127633,0.0,86.25664499987793,-1.7071815366774046,0.0,-4.43977164317043,0.0,0.277623270127633,0.0
sim_raptor_glider_3dof,raptor_glider_3dof,0.021,-14.749575125168334,0.0,-0.004023635740110231,11.853248264822678,0.0,-0.43409030491812195,0.0,0.0,0.0,-24.88322556864145,-0.4342942146892316,-0.018307356151023597,0.0,0.0,0.0,0.0,0.0,-0.011462516046874486,-0.6567537920868886,0.0,0.0,11.861194240899428,0.004023635740110231,0.03485613518146118,-0.0366056955500744,-2.0973518611600817,0.0,0.0,0.025143179503199917,1.4405980690731932,-6.283618768326506,0.0,-11.33920259460597,11.857445236632115,0.0,-0.29819671463004077,0.0,36.713741333201206,0.0,0.0,-0.4342942146892316,0.0,-0.31665357821835205,0.3490658503988659,1.0,0.14,0.14,0.75,0.08726646259971647,5.0,0.184,0.175,0.174,0.0,0.0,0.0,-0.14999245646230416,0.0,0.04250510164054417,0.0,5.985589313531387,0.0,-0.5392300103275361,0.0,0.1510759835763634,0.0,-3.4079144857250068,0.0,0.010353933811168987,0.0,-0.021473687218100855,0.38493823798115606,0.15497051403686044,0.12806013882672304,0.0,0.0,0.0,0.3695969938340349,0.12806013882672304,0.0,0.0,0.16370510062799645,0.0,0.0,-0.0025630298611433035,0.0,1.5449165047034978,0.0,4.458815218337436,0.0,0.2764911859803383,0.0,86.17137223059537,-1.7070631274679247,0.0,-4.399288082931398,0.0,0.2764911859803383,0.0
sim_raptor_glider_3dof,raptor_glider_3dof,0.022,-14.737720690288416,0.0,-0.004324929023328897,11.846972826258925,0.0,-0.44514205391329714,0.0,0.0,0.0,-22.784037296728172,-0.3976564677250949,-0.016771206397500005,0.0,0.0,0.0,0.0,0.0,-0.011878491399762475,-0.6805874241888353,0.0,0.0,11.855332833551302,0.004324929023328897,0.03483891043977578,-0.03755666104631757,-2.1518381705573795,0.0,0.0,0.0256781696465551,1.471250746368544,-6.267257407117682,0.0,-10.764296107594348,11.85142453240963,0.0,-0.30438979430778473,0.0,36.561752184019504,0.0,0.0,-0.3976564677250949,0.0,-0.31665357821835205,0.3490658503988659,1.0,0.14,0.14,0.75,0.08726646259971647,5.0,0.184,0.175,0.174,0.0,0.0,0.0,-0.1504915504212215,0.0,0.0424054021818788,0.0,5.984875236935284,0.0,-0.5394459554541519,0.0,0.1499880877760493,0.0,-3.405529954077876,0.0,0.010754432292254059,0.0,-0.02134068530932284,0.3809851495802442,0.15519255362855797,0.1279356813312934,0.0,0.0,0.0,0.3669328486795742,0.1279356813312934,0.0,0.0,0.1631886320339372,0.0,0.0,-0.002347968895650001,0.0,1.5418900186846192,0.0,4.422301042361044,0.0,0.2753465556978509,0.0,86.0862272264902,-1.706850546126297,0.0,-4.361287946487275,0.0,0.2753465556978509,0.0
sim_raptor_glider_3dof,raptor_glider_3dof,0.023,-14.725872273276405,0.0,-0.004632349725883148,11.840714197216268,0.0,-0.4556244633902277,0.0,0.0,0.0,-20.693603226669747,-0.36117151040670953,-0.015239976789325843,0.0,0.0,0.0,0.0,0.0,-0.012257905396464937,-0.7023262448880769,0.0,0.0,11.849477049718208,0.004632349725883148,0.03482170222374507,-0.03846049983865291,-2.2036243187183957,0.0,0.0,0.026202594442187976,1.5012980738303185,-6.249999644816175,0.0,-10.200525053323423,11.845409499435911,0.0,-0.3104515138825589,0.0,36.40816171470359,0.0,0.0,-0.36117151040670953,0.0,-0.31665357821835205,0.3490658503988659,1.0,0.14,0.14,0.75,0.08726646259971647,5.0,0.184,0.175,0.174,0.0,0.0,0.0,-0.15096527174963723,0.0,0.04231007295408273,0.0,5.98419356641433,0.0,-0.539650324733695,0.0,0.14895326088047564,0.0,-3.403261300432303,0.0,0.011134680753213413,0.0,-0.0212150879655919,0.3772266096178342,0.155402565176164,0.12781900328186657,0.0,0.0,0.0,0.36445875367013597,0.12781900328186657,0.0,0.0,0.1626637524278879,0.0,0.0,-0.0021335967505056183,0.0,1.5389623793531535,0.0,4.388144926207929,0.0,0.27418986587343275,0.0,86.0012059373537,-1.7065529378742958,0.0,-4.325725161022291,0.0,0.27418986587343275,0.0
sim_raptor_glider_3dof,raptor_glider_3dof,0.024,-14.714029869317885,0.0,-0.004945785740194989,11.834473122737363,0.0,-0.4655472375646431,0.0,0.0,0.0,-18.612002424620925,-0.3248407226988029,-0.013713735531178117,0.0,0.0,0.0,0.0,0.0,-0.012600892580902244,-0.7219779629834098,0.0,0.0,11.84362648529567,0.004945785740194989,0.03480450934583934,-0.03931795790471136,-2.2527530470129946,0.0,0.0,0.026717065323809117,1.5307750840295846,-6.231945530770853,0.0,-9.647744491921413,11.83939973708007,0.0,-0.31638929948005656,0.0,36.25302834437258,0.0,0.0,-0.3248407226988029,0.0,-0.31665357821835205,0.3490658503988659,1.0,0.14,0.14,0.75,0.08726646259971647,5.0,0.184,0.175,0.174,0.0,0.0,0.0,-0.15141410197726993,0.0,0.04221915561760105,0.0,5.9835442332272,0.0,-0.5398434021852758,0.0,0.14797076139380647,0.0,-3.401106991398643,0.0,0.0114950657893281,0.0,-0.02109670701327415,0.3736598039014096,0.1556008482100141,0.1277097536083753,0.0,0.0,0.0,0.3621718598599079,0.1277097536083753,0.0,0.0,0.16213071166107357,0.0,0.0,-0.0019199229743649365,0.0,1.5361289730913583,0.0,4.356305383496585,0.0,0.2730215564614699,0.0,85.91630237924005,-1.7061786782511974,0.0,-4.292556712978063,0.0,0.2730215564614699,0.0
sim_raptor_glider_3dof,raptor_glider_3dof,0.025,-14.702193472314343,0.0,-0.00526509649203654,11.828250494956853,0.0,-0.47492308611846684,0.0,0.0,0.0,-16.539336143931237,-0.28866587180570286,-0.012192566707367352,0.0,0.0,0.0,0.0,0.0,-0.012907632796701284,-0.7395528827556269,0.0,0.0,11.837781114261883,0.00526509649203654,0.03478733172958912,-0.04013003589175728,-2.299281688306205,0.0,0.0,0.027222403095055997,1.5597288055505782,-6.213192559819197,0.0,-9.105765520389426,11.833395136647368,0.0,-0.32221304931014344,0.0,36.096426959008014,0.0,0.0,-0.28866587180570286,0.0,-0.31665357821835205,0.3490658503988659,1.0,0.14,0.14,0.75,0.08726646259971647,5.0,0.184,0.175,0.174,0.0,0.0,0.0,-0.15183865064063382,0.0,0.042132648098662524,0.0,5.98292692933318,0.0,-0.5400255245110749,0.0,0.14703955111983077,0.0,-3.3990648303732875,0.0,0.011836072919676845,0.0,-0.020985316531815977,0.37028081836865145,0.1557877584094027,0.12760757022409566,0.0,0.0,0.0,0.36006820537188355,0.12760757022409566,0.0,0.0,0.16158982386558168,0.0,0.0,-0.0017069593390314293,0.0,1.5333851698754422,0.0,4.326727993420064,0.0,0.27184219142828936,0.0,85.83151606257799,-1.705735788748612,0.0,-4.261726249681097,0.0,0.27184219142828936,0.0
sim_raptor_glider_3dof,raptor_glider_3dof,0.026000000000000002,-14.690363077465847,0.0,-0.005590177151440779,11.822046931976974,0.0,-0.48376229759622,0.0,0.0,0.0,-14.475683123759454,-0.25264833198498027,-0.010676538168538365,0.0,0.0,0.0,0.0,0.0,-0.013178276784646156,-0.7550596410154576,0.0,0.0,11.831940653267399,0.005590177151440779,0.03477016854232389,-0.04089753283597315,-2.343256023998962,0.0,0.0,0.027719256051326996,1.5881963829835044,-6.19383220719905,0.0,-8.574431310973159,11.827395366176852,0.0,-0.3279305941508,0.0,35.93841828369209,0.0,0.0,-0.25264833198498027,0.0,-0.31665357821835205,0.3490658503988659,1.0,0.14,0.14,0.75,0.08726646259971647,5.0,0.184,0.175,0.174,0.0,0.0,0.0,-0.15223941636382454,0.0,0.042050554808685914,0.0,5.982341456002766,0.0,-0.5401969778289699,0.0,0.14615881753779317,0.0,-3.397133104317608,0.0,0.01215809552396166,0.0,-0.02088071743982799,0.3670865416231868,0.1559636010414175,0.12751213706979408,0.0,0.0,0.0,0.35814464405827284,0.12751213706979408,0.0,0.0,0.1610413480166768,0.0,0.0,-0.001494715343595371,0.0,1.5307268435830215,0.0,4.29936814756241,0.0,0.27065222809448514,0.0,85.74684276890073,-1.7052314061920673,0.0,-4.233187568402338,0.0,0.27065222809448514,0.0
sim_raptor_glider_3dof,raptor_glider_3dof,0.027,-14.678538680095839,0.0,-0.005920925608803217,11.815862996599202,0.0,-0.4920754295899449,0.0,0.0,0.0,-12.421122175732087,-0.21678947875900662,-0.009165717748890833,0.0,0.0,0.0,0.0,0.0,-0.013412982466293782,-0.7685072860016077,0.0,0.0,11.826104877888088,0.005920925608803217,0.03475301912453521,-0.04162127228319046,-2.384723239791645,0.0,0.0,0.028208289816896676,1.6162159537900374,-6.173951905902874,0.0,-8.053579819981126,11.821400129017562,0.0,-0.33354995498722323,0.0,35.7790638714495,0.0,0.0,-0.21678947875900662,0.0,-0.31665357821835205,0.3490658503988659,1.0,0.14,0.14,0.75,0.08726646259971647,5.0,0.184,0.175,0.174,0.0,0.0,0.0,-0.15261690538491085,0.0,0.04197286450377849,0.0,5.9817875564082295,0.0,-0.5403580484513831,0.0,0.14532771462953328,0.0,-3.395310016851697,0.0,0.01246153065541537,0.0,-0.02078270737875005,0.36407372881963246,0.15612868270628188,0.1274231537433305,0.0,0.0,0.0,0.35639789612701134,0.1274231537433305,0.0,0.0,0.1604855461661041,0.0,0.0,-0.0012832004848447169,0.0,1.528150087108853,0.0,4.274179848891167,0.0,0.2694521300158862,0.0,85.6622791415925,-1.7046720928799397,0.0,-4.206893048932246,0.0,0.2694521300158862,0.0
sim_raptor_glider_3dof,raptor_glider_3dof,0.028,-14.666720275802044,0.0,-0.0062572471264482,11.809699171982643,0.0,-0.4998728941802433,0.0,0.0,0.0,-10.375728896897838,-0.18109063154518654,-0.0076601709072288025,0.0,0.0,0.0,0.0,0.0,-0.013611909105555087,-0.7799049428640019,0.0,0.0,11.820273577335833,0.0062572471264482,0.03473588285678637,-0.04230206739344912,-2.42372992632261,0.0,0.0,0.028690158287894032,1.6438249834586078,-6.153634909977209,0.0,-7.543049798591037,11.81540912859715,0.0,-0.33907899806209757,0.0,35.61842367465886,0.0,0.0,-0.18109063154518654,0.0,-0.31665357821835205,0.3490658503988659,1.0,0.14,0.14,0.75,0.08726646259971647,5.0,0.184,0.175,0.174,0.0,0.0,0.0,-0.15297161335075357,0.0,0.04189955555384095,0.0,5.981264945075129,0.0,-0.5405090147842608,0.0,0.14454540267855118,0.0,-3.393593776696872,0.0,0.012746765015349095,0.0,-0.020691086631107986,0.36123915065679296,0.15628330263925455,0.1273403387688162,0.0,0.0,0.0,0.3548246990158961,0.1273403387688162,0.0,0.0,0.1599226738039434,0.0,0.0,-0.0010724239270120325,0.0,1.5256512387397605,0.0,4.251117492092227,0.0,0.2682423486938559,0.0,85.57782202798558,-1.7040638224967,0.0,-4.1827954913787755,0.0,0.2682423486938559,0.0
sim_raptor_glider_3dof,raptor_glider_3dof,0.029,-14.65490786052397,0.0,-0.006599055833251916,11.803555848469232,0.0,-0.5071649207964274,0.0,0.0,0.0,-8.339575026812913,-0.1455530424349797,-0.006159960265833696,0.0,0.0,0.0,0.0,0.0,-0.013775217442336351,-0.7892618213208694,0.0,0.0,11.814446534849555,0.006599055833251916,0.03471875910208808,-0.042940717833213675,-2.460321901105293,0.0,0.0,0.029165500390877324,1.6710600797844235,-6.132960389536553,0.0,-7.042681365648193,11.809422050888879,0.0,-0.34452539644878166,0.0,35.45655561772099,0.0,0.0,-0.1455530424349797,0.0,-0.31665357821835205,0.3490658503988659,1.0,0.14,0.14,0.75,0.08726646259971647,5.0,0.184,0.175,0.174,0.0,0.0,0.0,-0.153304023788248,0.0,0.04183059770303761,0.0,5.980773313125482,0.0,-0.5406501464719355,0.0,0.14381105172526454,0.0,-3.3919826063252247,0.0,0.013014174243196681,0.0,-0.020605659469211297,0.35857960979619313,0.15642775150540486,0.12726342883938238,0.0,0.0,0.0,0.3534218241606995,0.12726342883938238,0.0,0.0,0.1593529784362356,0.0,0.0,-0.0008623944372167176,0.0,1.5232268668224738,0.0,4.230136047665508,0.0,0.2670233203570568,0.0,85.49346819506623,-1.703412000438371,0.0,-4.1608483060947465,0.0,0.2670233203570568,0.0
sim_raptor_glider_3dof,raptor_glider_3dof,0.03,-14.64310143049457,0.0,-0.006946272812943621,11.797433346093543,0.0,-0.5139615924418872,0.0,0.0,0.0,-6.312729319122779,-0.11017791140587233,-0.004665146236885271,0.0,0.0,0.0,0.0,0.0,-0.013903069331080271,-0.7965871949486721,0.0,0.0,11.80862354696877,0.006946272812943621,0.034701647262537154,-0.04353801273803636,-2.494544378276301,0.0,0.0,0.02963494340695609,1.6979571833276288,-6.112003612005794,0.0,-6.552315806369263,11.803438583485653,0.0,-0.349896670329232,0.0,35.29351584537743,0.0,0.0,-0.11017791140587233,0.0,-0.31665357821835205,0.3490658503988659,1.0,0.14,0.14,0.75,0.08726646259971647,5.0,0.184,0.175,0.174,0.0,0.0,0.0,-0.1536146097537381,0.0,0.04176595303460816,0.0,5.980312328650614,0.0,-0.5407817049426239,0.0,0.1431238380941156,0.0,-3.390474735304103,0.0,0.013264124697638942,0.0,-0.020526234546345862,0.35609193165292513,0.15656231167226817,0.12719217738967042,0.0,0.0,0.0,0.3521860672351687,0.12719217738967042,0.0,0.0,0.15877670013564035,0.0,0.0,-0.000653120473163938,0.0,1.5208737565271804,0.0,4.2111909558046845,0.0,0.2657954678315374,0.0,85.40921460847942,-1.7027214984201862,0.0,-4.141005403082926,0.0,0.2657954678315374,0.0
sim_raptor_glider_3dof,raptor_glider_3dof,0.03,-14.64310143049457,0.0,-0.006946272812943621,11.797433346093543,0.0,-0.5139615924418872,0.0,0.0,0.0,-6.312729319122779,-0.11017791140587233,-0.004665146236885271,0.0,0.0,0.0,0.0,0.0,-0.013903069331080271,-0.7965871949486721,0.0,0.0,11.80862354696877,0.006946272812943621,0.034701647262537154,-0.04353801273803636,-2.494544378276301,0.0,0.0,0.02963494340695609,1.6979571833276288,-6.00161689098885,0.0,-6.786765198795058,11.803438583485653,0.0,-0.349896670329232,0.0,32.6825066824009,0.0,0.0,-0.11017791140587233,0.0,-0.30260368572574914,0.3490658503988659,1.0,0.14,0.14,0.75,0.08726646259971647,5.0,0.184,0.175,0.174,0.0,0.0,0.0,-0.11755299309820016,0.0,0.03568197864831485,0.0,5.9874836330254135,0.0,-0.5358488721124843,0.0,0.14260619992724097,0.0,-3.4149167831249647,0.0,0.002752949712951995,0.0,-0.018618619174834972,0.36137299890976704,0.14480007091466116,0.12442116936714345,0.0,0.0,0.0,0.3574624507663042,0.12442116936714345,0.0,0.0,0.1470304229798712,0.0,0.0,-0.000653120473163938,0.0,1.487740009884285,0.0,4.27428220407612,0.0,0.24613195782516117,0.0,85.40921460847942,-1.6723651501405266,0.0,-4.20547898600002,0.0,0.24613195782516117,0.0
sim_raptor_glider_3dof,raptor_glider_3dof,0.031,-14.631300925904759,0.0,-0.007298936664659348,11.791441515039198,0.0,-0.5205194457623243,0.0,0.0,0.0,-4.444395506182947,-0.07756933484373243,-0.00328602173835586,0.0,0.0,0.0,0.0,0.0,-0.01399693927180868,-0.8019655463755532,0.0,0.0,11.802924785662519,0.007298936664659348,0.034684900483888795,-0.044115194192188685,-2.527614439612453,0.0,0.0,0.030118254920380005,1.7256488932368996,-5.982049305402604,0.0,-6.329046765975109,11.797571919018267,0.0,-0.3554297562082955,0.0,32.534679344696706,0.0,0.0,-0.07756933484373243,0.0,-0.30260368572574914,0.3490658503988659,1.0,0.14,0.14,0.75,0.08726646259971647,5.0,0.184,0.175,0.174,0.0,0.0,0.0,-0.11778477122041293,0.0,0.03563454799556953,0.0,5.9871253545375,0.0,-0.5359586738377484,0.0,0.14194097931966107,0.0,-3.413654782601014,0.0,0.0029777460437759593,0.0,-0.01854895659709154,0.35896247846294055,0.144936328832592,0.1243533698716144,0.0,0.0,0.0,0.3562081430938025,0.1243533698716144,0.0,0.0,0.14650675696779372,0.0,0.0,-0.00046004304336982047,0.0,1.4854944940320642,0.0,4.255174072415829,0.0,0.24501867014491088,0.0,85.32679868930467,-1.671706179222288,0.0,-4.185522515613733,0.0,0.24501867014491088,0.0
sim_raptor_glider_3dof,raptor_glider_3dof,0.032,-14.619506285980627,0.0,-0.007657098675753257,11.785469336746637,0.0,-0.5266242057300651,0.0,0.0,0.0,-2.5845642669078535,-0.04510915618693557,-0.0019118538266665434,0.0,0.0,0.0,0.0,0.0,-0.014058278526451617,-0.8054800267850717,0.0,0.0,11.797229358686556,0.007657098675753257,0.03466816350373668,-0.044654490243184235,-2.5585138272425696,0.0,0.0,0.030596211716732616,1.753033800457498,-5.962307062827914,0.0,-5.880473790547159,11.79170793006347,0.0,-0.36089421377229614,0.0,32.3856776452973,0.0,0.0,-0.04510915618693557,0.0,-0.30260368572574914,0.3490658503988659,1.0,0.14,0.14,0.75,0.08726646259971647,5.0,0.184,0.175,0.174,0.0,0.0,0.0,-0.11800114182343173,0.0,0.03559014903765998,0.0,5.986789549162157,0.0,-0.536060901753826,0.0,0.14131913644082,0.0,-3.4124747310235066,0.0,0.0031876905896696807,0.0,-0.01848422530437128,0.35670988486573596,0.1450632529543107,0.1242905898011744,0.0,0.0,0.0,0.35510746355447415,0.1242905898011744,0.0,0.0,0.14597663435651811,0.0,0.0,-0.0002676595357333161,0.0,1.4833119763705496,0.0,4.2379326900896475,0.0,0.24389653834673397,0.0,85.24447073952024,-1.671013180453659,0.0,-4.1674935939632745,0.0,0.24389653834673397,0.0
sim_raptor_glider_3dof,raptor_glider_3dof,0.033,-14.60771750885207,0.0,-0.008020694205412965,11.7795169584052,0.0,-0.532284894269665,0.0,0.0,0.0,-0.733302368358623,-0.012798540740530258,-0.000542700270589539,0.0,0.0,0.0,0.0,0.0,-0.0140872323868023,-0.807138960783777,0.0,0.0,11.791537091576457,0.008020694205412965,0.034651435809387454,-0.04515660951747229,-2.587283142471447,0.0,0.0,0.031069377130669987,1.78014418168767,-5.942449404615206,0.0,-5.440904139298587,11.785846327472807,0.0,-0.36629677478665956,0.0,32.23555281777373,0.0,0.0,-0.012798540740530258,0.0,-0.30260368572574914,0.3490658503988659,1.0,0.14,0.14,0.75,0.08726646259971647,5.0,0.184,0.175,0.174,0.0,0.0,0.0,-0.11820242721147933,0.0,0.03554874539548169,0.0,5.986475993053799,0.0,-0.536155761351259,0.0,0.14073990965900232,0.0,-3.41137525574255,0.0,0.003383080528501471,0.0,-0.018424274053743393,0.3546123350669882,0.14518108404371818,0.12423263042249647,0.0,0.0,0.0,0.35415749436720506,0.12423263042249647,0.0,0.0,0.14544027364213052,0.0,0.0,-0.00007597803788253547,0.0,1.4811898665351413,0.0,4.222517788041529,0.0,0.24276594827065395,0.0,85.16222816926125,-1.670289753818258,0.0,-4.151350627126461,0.0,0.24276594827065395,0.0
sim_raptor_glider_3dof,raptor_glider_3dof,0.034,-14.595934592565673,0.0,-0.008389671445281266,11.77358445781209,0.0,-0.5375093386767762,0.0,0.0,0.0,1.1093349111841933,0.01936154670748304,0.0008213896493502047,0.0,0.0,0.0,0.0,0.0,-0.014083932142178459,-0.8069498706954702,0.0,0.0,11.785847753742585,0.008389671445281266,0.03463471672321427,-0.04562216104760445,-2.6139572802938775,0.0,0.0,0.03153822890542599,1.8070074095984072,-5.922532390607229,0.0,-5.010212097184709,11.779986784601757,0.0,-0.37164314739697707,0.0,32.08434866780421,0.0,0.0,0.01936154670748304,0.0,-0.30260368572574914,0.3490658503988659,1.0,0.14,0.14,0.75,0.08726646259971647,5.0,0.184,0.175,0.174,0.0,0.0,0.0,-0.11838890665189107,0.0,0.03551030514929586,0.0,5.986184502540238,0.0,-0.5362434336924985,0.0,0.1402026479052876,0.0,-3.410355186267001,0.0,0.0035641717477072035,0.0,-0.018368967573308765,0.3526673496271211,0.1452900342278938,0.12417931556865205,0.0,0.0,0.0,0.3533557282256493,0.12417931556865205,0.0,0.0,0.14489786196480875,0.0,0.0,0.00011499455090902867,0.0,1.4791258385431707,0.0,4.208894093371348,0.0,0.2416272298172335,0.0,85.08006758325001,-1.6695390332240105,0.0,-4.137057185005266,0.0,0.2416272298172335,0.0
sim_raptor_glider_3dof,raptor_glider_3dof,0.034999999999999996,-14.584157534798806,0.0,-0.008763967560793519,11.767671886400784,0.0,-0.5423078358539533,0.0,0.0,0.0,2.943276565358455,0.05136986686229512,0.002180354993000837,0.0,0.0,0.0,0.0,0.0,-0.014048553779801902,-0.8049228398452091,0.0,0.0,11.780161264380721,0.008763967560793519,0.03461800600776021,-0.046051964600808966,-2.638583209912223,0.0,0.0,0.032003410821007064,1.8336603700670135,-5.902609432945722,0.0,-4.588235901502102,11.774129050869139,0.0,-0.3769409878155885,0.0,31.932120917335098,0.0,0.0,0.05136986686229512,0.0,-0.30260368572574914,0.3490658503988659,1.0,0.14,0.14,0.75,0.08726646259971647,5.0,0.184,0.175,0.174,0.0,0.0,0.0,-0.11856094075804166,0.0,0.03547477574682998,0.0,5.985914741319619,0.0,-0.536324133946809,0.0,0.13970645260524747,0.0,-3.4094128750081025,0.0,0.0037312997972275106,0.0,-0.018318149892095386,0.35087155791518393,0.14539035957731625,0.12413045547166984,0.0,0.0,0.0,0.35269875658833183,0.12413045547166984,0.0,0.0,0.1443496373233847,0.0,0.0,0.0003052496990201172,0.0,1.4771174507742268,0.0,4.197015843077273,0.0,0.24048080262845065,0.0,84.99798775417872,-1.6687639189398893,0.0,-4.124566029689398,0.0,0.24048080262845065,0.0
sim_raptor_glider_3dof,raptor_glider_3dof,0.036,-14.5723863339933,0.0,-0.009143539733839624,11.761779219969153,0.0,-0.5466886599134929,0.0,0.0,0.0,4.768467931395499,0.08322546567861454,0.003534146892088904,0.0,0.0,0.0,0.0,0.0,-0.013981243383351714,-0.8010662382112609,0.0,0.0,11.7744774368197,0.009143539733839624,0.03460130311446031,-0.04644667023369149,-2.6611981768264314,0.0,0.0,0.032465426850339776,1.8601319386151705,-5.8827308356412535,0.0,-4.174842464851496,11.768272809015292,0.0,-0.3821962882702045,0.0,31.77891356363224,0.0,0.0,0.08322546567861454,0.0,-0.30260368572574914,0.3490658503988659,1.0,0.14,0.14,0.75,0.08726646259971647,5.0,0.184,0.175,0.174,0.0,0.0,0.0,-0.11871881914971309,0.0,0.035442115877959424,0.0,5.985666459882905,0.0,-0.5363980397907735,0.0,0.1392506167500512,0.0,-3.408547031404659,0.0,0.0038847321059531075,0.0,-0.018271689746151783,0.34922228899907887,0.14548227099381045,0.1240858898342044,0.0,0.0,0.0,0.3521838804313575,0.1240858898342044,0.0,0.0,0.14379578816814959,0.0,0.0,0.0004947805648924466,0.0,1.4751625945386235,0.0,4.186845800968687,0.0,0.23932699804771443,0.0,84.91598593002459,-1.667966835564365,0.0,-4.113838727620767,0.0,0.23932699804771443,0.0
sim_raptor_glider_3dof,raptor_glider_3dof,0.037,-14.560620988812659,0.0,-0.009528348512137835,11.755906390108303,0.0,-0.5506603247830106,0.0,0.0,0.0,6.584854158710272,0.11492738583313548,0.004882716327668948,0.0,0.0,0.0,0.0,0.0,-0.01388215415119798,-0.79538884341366,0.0,0.0,11.768796108620428,0.009528348512137835,0.034584607565959706,-0.04680694982359645,-2.6818406767726897,0.0,0.0,0.03292479567239847,1.8864518333590299,-5.862944220077694,0.0,-3.7698949447336787,11.762417749216198,0.0,-0.38741520259680523,0.0,31.62477084472049,0.0,0.0,0.11492738583313548,0.0,-0.30260368572574914,0.3490658503988659,1.0,0.14,0.14,0.75,0.08726646259971647,5.0,0.184,0.175,0.174,0.0,0.0,0.0,-0.11886283730973826,0.0,0.03541228009301434,0.0,5.9854393771414625,0.0,-0.5364653276959244,0.0,0.13883440402444303,0.0,-3.4077563031464226,0.0,0.004024742703962042,0.0,-0.018229457828004683,0.3477167728530855,0.14556597915759167,0.12404546519403156,0.0,0.0,0.0,0.3518083012135913,0.12404546519403156,0.0,0.0,0.1432365041296991,0.0,0.0,0.0006835802858736527,0.0,1.4732592562015212,0.0,4.178345700592321,0.0,0.23816614923159002,0.0,84.83405971333939,-1.6671498871866754,0.0,-4.104835792488569,0.0,0.23816614923159002,0.0
sim_raptor_glider_3dof,raptor_glider_3dof,0.038,-14.548861498211307,0.0,-0.009918360141936354,11.7500532849822,0.0,-0.5542312172171606,0.0,0.0,0.0,8.392382724887444,0.14647471063677936,0.006226015991725375,0.0,0.0,0.0,0.0,0.0,-0.013751440161995806,-0.7878994835090567,0.0,0.0,11.763117122687294,0.009918360141936354,0.03456791890060623,-0.04713346595277137,-2.700548672917361,0.0,0.0,0.033382025790775566,1.9126491894083044,-5.843294582109443,0.0,-3.3732581040377685,11.756563559790973,0.0,-0.3926037527253687,0.0,31.46973534478334,0.0,0.0,0.14647471063677936,0.0,-0.30260368572574914,0.3490658503988659,1.0,0.14,0.14,0.75,0.08726646259971647,5.0,0.184,0.175,0.174,0.0,0.0,0.0,-0.11899328421622934,0.0,0.035385221737972414,0.0,5.985233201127122,0.0,-0.5365261672141683,0.0,0.13845708482073169,0.0,-3.4070393450145517,0.0,0.004151600298266594,0.0,-0.018191330529446523,0.34635227152295,0.14564168730566426,0.12400903794822991,0.0,0.0,0.0,0.3515692535903692,0.12400903794822991,0.0,0.0,0.14267196790315453,0.0,0.0,0.0008716422388415526,0.0,1.4714055478915167,0.0,4.171477811293936,0.0,0.23699857688156337,0.0,84.75220678821954,-1.6663148561776528,0.0,-4.097518299723045,0.0,0.23699857688156337,0.0
sim_raptor_glider_3dof,raptor_glider_3dof,0.039,-14.537107861502596,0.0,-0.010313547673661638,11.744219742556586,0.0,-0.5574095706555183,0.0,0.0,0.0,10.191003847039948,0.17786657121425567,0.0075640006000266,0.0,0.0,0.0,0.0,0.0,-0.013589256522923088,-0.778607045484117,0.0,0.0,11.757440316281187,0.010313547673661638,0.03455123664016335,-0.04742686969295677,-2.7173594689233376,0.0,0.0,0.033837613170033684,1.9387524234392206,-5.8238243753688135,0.0,-2.9847986638293023,11.750709917597295,0.0,-0.39776780085225444,0.0,31.31384781473242,0.0,0.0,0.17786657121425567,0.0,-0.30260368572574914,0.3490658503988659,1.0,0.14,0.14,0.75,0.08726646259971647,5.0,0.184,0.175,0.174,0.0,0.0,0.0,-0.1191104415619017,0.0,0.03536089345918136,0.0,5.985047631550383,0.0,-0.5365807207316214,0.0,0.1381179389222089,0.0,-3.4063948244145075,0.0,0.004265567576013876,0.0,-0.018157190197452565,0.3451260894132772,0.145709590815289,0.12397647407480385,0.0,0.0,0.0,0.3514640159559501,0.12397647407480385,0.0,0.0,0.14210235466587717,0.0,0.0,0.0010589600840037242,0.0,1.4695997008549906,0.0,4.166205052730486,0.0,0.23582458789274985,0.0,84.67042476187147,-1.6654632184716318,0.0,-4.091848004272426,0.0,0.23582458789274985,0.0
sim_raptor_glider_3dof,raptor_glider_3dof,0.04,-14.525360078299494,0.0,-0.01071388944112833,11.738405563511114,0.0,-0.560203497486047,0.0,0.0,0.0,11.9806698199348,0.20910213495217844,0.00889662639936877,0.0,0.0,0.0,0.0,0.0,-0.01339575911051334,-0.7675204604063361,0.0,0.0,11.751765532551449,0.01071388944112833,0.034534560323698754,-0.04768780326881829,-2.732309861553459,0.0,0.0,0.034292044158304946,1.964789401147123,-5.804573628887973,0.0,-2.6043849873376264,11.744856498841765,0.0,-0.4029130845214772,0.0,31.15714745457862,0.0,0.0,0.20910213495217844,0.0,-0.30260368572574914,0.3490658503988659,1.0,0.14,0.14,0.75,0.08726646259971647,5.0,0.184,0.175,0.174,0.0,0.0,0.0,-0.11921458492497383,0.0,0.03533924726120363,0.0,5.984882359197258,0.0,-0.5366291441409534,0.0,0.1378162525570631,0.0,-3.405821416177169,0.0,0.00436690238680248,0.0,-0.01812692478597969,0.344035563052739,0.1457698779413097,0.12394764833765481,0.0,0.0,0.0,0.35148989978789213,0.12394764833765481,0.0,0.0,0.14152783304013206,0.0,0.0,0.001245527695911628,0.0,1.4678400583514428,0.0,4.162490873639791,0.0,0.2346444774804316,0.0,84.58871133081655,-1.6645961663189073,0.0,-4.087787214754716,0.0,0.2346444774804316,0.0
sim_raptor_glider_3dof,raptor_glider_3dof,0.04,-14.525360078299494,0.0,-0.01071388944112833,11.738405563511114,0.0,-0.560203497486047,0.0,0.0,0.0,11.9806698199348,0.20910213495217844,0.00889662639936877,0.0,0.0,0.0,0.0,0.0,-0.01339575911051334,-0.7675204604063361,0.0,0.0,11.751765532551449,0.01071388944112833,0.034534560323698754,-0.04768780326881829,-2.732309861553459,0.0,0.0,0.034292044158304946,1.964789401147123,-5.663317691115979,0.0,-2.9076853105661566,11.744856498841765,0.0,-0.4029130845214772,0.0,27.76407679837074,0.0,0.0,0.20910213495217844,0.0,-0.28339154056866406,0.3490658503988659,1.0,0.14,0.14,0.75,0.08726646259971647,5.0,0.184,0.175,0.174,0.0,0.0,0.0,-0.07854933062015866,0.0,0.0282939288917192,0.0,5.995174805164196,0.0,-0.5310243007112707,0.0,0.13725975558837725,0.0,-3.4408471527713678,0.0,-0.007483636218520851,0.0,-0.015889427269448232,0.3509014913715954,0.13040086217668934,0.12033544404255561,0.0,0.0,0.0,0.358368647633259,0.12033544404255561,0.0,0.0,0.12611519175051392,0.0,0.0,0.001245527695911628,0.0,1.425062819457391,0.0,4.24395189185308,0.0,0.20909126236853007,0.0,84.58871133081655,-1.6257507834316087,0.0,-4.171194803642561,0.0,0.20909126236853007,0.0
sim_raptor_glider_3dof,raptor_glider_3dof,0.041,-14.51361807913317,0.0,-0.011119520016994785,11.732750765243708,0.0,-0.5629395509326215,0.0,0.0,0.0,13.567492368508669,0.23679741306968008,0.010079704327793168,0.0,0.0,0.0,0.0,0.0,-0.013172794056190486,-0.7547455038147315,0.0,0.0,11.74624797360123,0.011119520016994785,0.034518346038970374,-0.047943417292960526,-2.7469554663211646,0.0,0.0,0.03477062323677004,1.9922099625064331,-5.64629744205987,0.0,-2.564806120940297,11.739148104135396,0.0,-0.4083420704573083,0.0,27.626629529396805,0.0,0.0,0.23679741306968008,0.0,-0.28339154056866406,0.3490658503988659,1.0,0.14,0.14,0.75,0.08726646259971647,5.0,0.184,0.175,0.174,0.0,0.0,0.0,-0.07861786554636872,0.0,0.028280259438593677,0.0,5.995056194798119,0.0,-0.5310633278745736,0.0,0.13696394766946418,0.0,-3.440383241828251,0.0,-0.0073925698152746,0.0,-0.015862944809407056,0.3498295850541009,0.1304637006265809,0.1203074277105296,0.0,0.0,0.0,0.3582895601961907,0.1203074277105296,0.0,0.0,0.12560877420731162,0.0,0.0,0.0014111586058910435,0.0,1.4233935044517056,0.0,4.2390319733474024,0.0,0.20805614698588734,0.0,84.50929966545596,-1.6249137619910294,0.0,-4.165944839489481,0.0,0.20805614698588734,0.0
sim_raptor_glider_3dof,raptor_glider_3dof,0.042,-14.50188178560404,0.0,-0.011530567657906726,11.727112862772115,0.0,-0.5653364636067538,0.0,0.0,0.0,15.146420689661461,0.26435491092678276,0.011258025357482219,0.0,0.0,0.0,0.0,0.0,-0.01292221790103848,-0.7403885476779062,0.0,0.0,11.740731723929246,0.011530567657906726,0.034502135601778616,-0.04817034993412606,-2.7599577488937066,0.0,0.0,0.03524813203308758,2.0195692012158,-5.629507290150946,0.0,-2.2290197546253605,11.733438955615918,0.0,-0.4137531729345526,0.0,27.488365946474865,0.0,0.0,0.26435491092678276,0.0,-0.28339154056866406,0.3490658503988659,1.0,0.14,0.14,0.75,0.08726646259971647,5.0,0.184,0.175,0.174,0.0,0.0,0.0,-0.07867868484336925,0.0,0.028268119382633294,0.0,5.9949506899330585,0.0,-0.5310979056134733,0.0,0.13670128904999024,0.0,-3.4399712133635254,0.0,-0.007311734404679181,0.0,-0.01583949622796739,0.34887791336570856,0.13051942552271656,0.12028266245222563,0.0,0.0,0.0,0.3583266963294856,0.12028266245222563,0.0,0.0,0.1250976058818488,0.0,0.0,0.0015761235500475108,0.0,1.4217641857881076,0.0,4.235490412887905,0.0,0.2070148839429022,0.0,84.42994412389767,-1.6240611480615166,0.0,-4.1621169883861,0.0,0.2070148839429022,0.0
sim_raptor_glider_3dof,raptor_glider_3dof,0.043000000000000003,-14.490151201744899,0.0,-0.011947019938552912,11.721491620916268,0.0,-0.5674010813759671,0.0,0.0,0.0,16.71740472245187,0.29177375479523393,0.012431545301392812,0.0,0.0,0.0,0.0,0.0,-0.012644153575077574,-0.7244566353671963,0.0,0.0,11.73521664931487,0.011947019938552912,0.03448592861769335,-0.048369144336264325,-2.7713478291270555,0.0,0.0,0.03572499076118675,2.0468911937598593,-5.612976228463817,0.0,-1.9002167186246286,11.727728764140535,0.0,-0.41915133437412927,0.0,27.34932143976836,0.0,0.0,0.29177375479523393,0.0,-0.28339154056866406,0.3490658503988659,1.0,0.14,0.14,0.75,0.08726646259971647,5.0,0.184,0.175,0.174,0.0,0.0,0.0,-0.07873194306717604,0.0,0.028257481476856885,0.0,5.9948581102179395,0.0,-0.5311281414209836,0.0,0.13647116585252989,0.0,-3.4396101416530787,0.0,-0.007240931903209895,0.0,-0.0158190036321778,0.348044213680733,0.13056819218596,0.12026105096546869,0.0,0.0,0.0,0.3584777627048965,0.12026105096546869,0.0,0.0,0.12458183848464734,0.0,0.0,0.0017404163421949938,0.0,1.4201735725434381,0.0,4.233296157408212,0.0,0.20596773976289554,0.0,84.3506427500919,-1.623193675714958,0.0,-4.159679269318355,0.0,0.20596773976289554,0.0
sim_raptor_glider_3dof,raptor_glider_3dof,0.044,-14.478426328584108,0.0,-0.012368867258725403,11.715886801523373,0.0,-0.5691394794305804,0.0,0.0,0.0,18.280405997691734,0.3190532732610397,0.013600228577792231,0.0,0.0,0.0,0.0,0.0,-0.012338722793492483,-0.7069567406489885,0.0,0.0,11.729702608896616,0.012368867258725403,0.03446972467276915,-0.04854027906942062,-2.7811531270650085,0.0,0.0,0.03620155627592814,2.07419638641602,-5.59673157512567,0.0,-1.5782977431091059,11.72201725171433,0.0,-0.42454074441412126,0.0,27.209526326870716,0.0,0.0,0.3190532732610397,0.0,-0.28339154056866406,0.3490658503988659,1.0,0.14,0.14,0.75,0.08726646259971647,5.0,0.184,0.175,0.174,0.0,0.0,0.0,-0.07877777620186571,0.0,0.028248321515511803,0.0,5.994778294680028,0.0,-0.5311541294450437,0.0,0.136273036856486,0.0,-3.4392992094733774,0.0,-0.00717998794593009,0.0,-0.015801398788827994,0.34732649129882803,0.13061013702981367,0.12024250852832917,0.0,0.0,0.0,0.3587407410101451,0.12024250852832917,0.0,0.0,0.12406160127433753,0.0,0.0,0.0019040320008909125,0.0,1.4186205251625372,0.0,4.2324215008297905,0.0,0.20491494276766337,0.0,84.27139349619974,-1.6223118600127084,0.0,-4.158603152978274,0.0,0.20491494276766337,0.0
