name,vehicle,t,north,east,down,u,v,w,p_rad,p_deg,p_hat_div_b,q_deg,q_rad,q_hat_div_c,r_rad,r_deg,r_hat_div_b,phi_rad,phi_deg,theta_rad,theta_deg,psi_rad,psi_deg,speed,altitude,mach,alpha_rad,alpha_deg,beta_rad,beta_deg,gamma_rad,gamma_deg,u_dot,v_dot,w_dot,north_dot,east_dot,down_dot,p_rad_dot,q_rad_dot,r_rad_dot,phi_rad_dot,theta_rad_dot,psi_rad_dot,del_tail_alt_rad,del_tail_splay_rad,DIM_b,DIM_c_bar,DIM_S,DIM_wing_position,DIM_wing_incidence_rad,DIM_wing_incidence_deg,DIM_empennage_length,DIM_nose_length,DIM_tail_length,CDp,CDq,CDr,CYp,CYq,CYr,CLp,CLq,CLr,Clp,Clq,Clr,Cmp,Cmq,Cmr,Cnp,Cnq,Cnr,CL_0,Cm_0,CD_0,Cl_0,CY_0,Cn_0,CL,CD,CY,Cl,Cm,Cn,p_hat,q_hat,r_hat,drag_force_wind,side_force_wind,lift_force_wind,roll_moment_wind,pitch_moment_wind,yaw_moment_wind,qbar,X_total,Y_total,Z_total,L_total,M_total,N_total
sim_raptor_glider_3dof,raptor_glider_3dof,0.0,-15.0,0.0,0.0,12.0,0.0,0.0,0.0,0.0,0.0,0.0,0.0,0.0,0.0,0.0,0.0,0.0,0.0,0.0,0.0,0.0,0.0,12.0,-0.0,0.035264039495724236,0.0,0.0,0.0,0.0,0.0,0.0,-5.992326561669304,0.0,-20.905774956736145,12.0,0.0,0.0,0.0,-43.296081453823234,0.0,0.0,0.0,0.0,0.19765247809178588,0.3490658503988659,1.0,0.14,0.14,0.75,0.08726646259971647,5.0,0.184,0.175,0.174,0.0,0.0,0.0,0.0003447739502394304,0.0,0.011197498314358038,0.0,6.079844218414465,0.0,-0.5142778543140102,0.0,0.19415338076432737,0.0,-3.7422725820835923,0.0,-0.04629964792341154,0.0,-0.014281132617124824,0.6839905500274688,-0.1886151195895598,0.13345396029893866,0.0,0.0,0.0,0.6839905500274688,0.13345396029893866,0.0,0.0,-0.1886151195895598,0.0,0.0,0.0,0.0,1.6478898044590589,0.0,8.44591686310244,0.0,-0.3260627894287428,0.0,88.20001620075907,-1.6478898044590589,0.0,-8.44591686310244,0.0,-0.3260627894287428,0.0
sim_raptor_glider_3dof,raptor_glider_3dof,0.001,-14.988002999905081,0.0,-0.000010382471040272671,11.993995926335504,0.0,-0.02095142623772702,0.0,0.0,0.0,-2.469447438606748,-0.043099988508628284,-0.0017967290891125417,0.0,0.0,0.0,0.0,0.0,-0.000021583268440530384,-0.001236630189740297,0.0,0.0,11.994014225571608,0.000010382471040272671,0.03524644928023629,-0.0017468244158192789,-0.10008566657685024,0.0,0.0,0.0017252411473787485,0.09884903638710994,-6.015884230501005,0.0,-20.99593158565935,11.993996375742135,0.0,-0.020692556599114415,0.0,-42.904141726598105,0.0,0.0,-0.043099988508628284,0.0,0.19765247809178588,0.3490658503988659,1.0,0.14,0.14,0.75,0.08726646259971647,5.0,0.184,0.175,0.174,0.0,0.0,0.0,0.00030974047245643115,0.0,0.011178936090055549,0.0,6.080981638858419,0.0,-0.5145294238807174,0.0,0.1921514321463477,0.0,-3.743483618448945,0.0,-0.04577362172210735,0.0,-0.014064491112396327,0.6769219415537996,-0.1880359204903986,0.13291736904881019,0.0,0.0,0.0,0.6753923188296741,0.13291736904881019,0.0,0.0,-0.18709427686273492,0.0,0.0,-0.00025154207247575586,0.0,1.6396270102032806,0.0,8.331427986889365,0.0,-0.32311109134301036,0.0,88.11204724606938,-1.654178043053348,0.0,-8.328551136613841,0.0,-0.32311109134301036,0.0
sim_raptor_glider_3dof,raptor_glider_3dof,0.002,-14.976012014178218,0.0,-0.00004124330990359601,11.98796811480851,0.0,-0.0419896559511993,0.0,0.0,0.0,-4.916480511139914,-0.08580877252952526,-0.003578932031587409,0.0,0.0,0.0,0.0,0.0,-0.00008607021142342745,-0.004931459856361078,0.0,0.0,11.988041652116179,0.00004124330990359601,0.03522889785805101,-0.0035026356287270245,-0.20068623869821006,0.0,0.0,0.003416565417303597,0.195754778841849,-6.039796240820852,0.0,-21.07942461835917,11.98797168446315,0.0,-0.040957848846762984,0.0,-42.51367324940486,0.0,0.0,-0.08580877252952526,0.0,0.19765247809178588,0.3490658503988659,1.0,0.14,0.14,0.75,0.08726646259971647,5.0,0.184,0.175,0.174,0.0,0.0,0.0,0.00027444012524880453,0.0,0.011160155556063147,0.0,6.082110797347229,0.0,-0.5147782572069506,0.0,0.19013799629957115,0.0,-3.744689330433806,0.0,-0.045245434125277546,0.0,-0.013848795010505358,0.6697909809485809,-0.1874525936855743,0.1323835271595327,0.0,0.0,0.0,0.6667435363872604,0.1323835271595327,0.0,0.0,-0.18557631528254964,0.0,0.0,-0.0005010504844222373,0.0,1.6314157207077546,0.0,8.216550127355733,0.0,-0.320170473241268,0.0,88.02431604337043,-1.6601852356162032,0.0,-8.210785482069538,0.0,-0.320170473241268,0.0
sim_raptor_glider_3dof,raptor_glider_3dof,0.003,-14.964027062727219,0.0,-0.00009215533185985846,11.9819162273471,0.0,-0.06310810671056868,0.0,0.0,0.0,-7.341184329980092,-0.12812783755396648,-0.005346643140402388,0.0,0.0,0.0,0.0,0.0,-0.00019307095770580137,-0.011062151023091238,0.0,0.0,11.982082419692178,0.00009215533185985846,0.035211385640753996,-0.005266897378355313,-0.3017709909082773,0.0,0.0,0.005073826420649512,0.2907088398851861,-6.064030998365069,0.0,-21.15639681131216,11.981928188368306,0.0,-0.06079474550755504,0.0,-42.12470904582438,0.0,0.0,-0.12812783755396648,0.0,0.19765247809178588,0.3490658503988659,1.0,0.14,0.14,0.75,0.08726646259971647,5.0,0.184,0.175,0.174,0.0,0.0,0.0,0.0002388984563197271,0.0,0.011141163269309504,0.0,6.083231109067015,0.0,-0.5150242348217206,0.0,0.1881136761058503,0.0,-3.7458891752544217,0.0,-0.044715242468885835,0.0,-0.013634147215964579,0.6626001666073248,-0.18686530695538808,0.1318527338038488,0.0,0.0,0.0,0.6580466853840162,0.1318527338038488,0.0,0.0,-0.18406139638248667,0.0,0.0,-0.0007485300396563345,0.0,1.623259497121231,0.0,8.101315010941175,0.0,-0.31724118382410343,0.0,87.93682435869697,-1.6659055799143287,0.0,-8.092653143457058,0.0,-0.31724118382410343,0.0
sim_raptor_glider_3dof,raptor_glider_3dof,0.004,-14.952048163302633,0.0,-0.00016268965174600467,11.975839956042064,0.0,-0.08430032548947698,0.0,0.0,0.0,-9.74364596434348,-0.17005870322645175,-0.0070998982440868535,0.0,0.0,0.0,0.0,0.0,-0.00034219650743442186,-0.01960641564010947,0.0,0.0,11.976136655767219,0.00016268965174600467,0.035193913002930496,-0.007039083143286349,-0.4033097557519891,0.0,0.0,0.006696886635851927,0.3837033401118796,-6.088557292732275,0.0,-21.226991064546183,11.97586810214232,0.0,-0.08020223002718714,0.0,-41.737281404967554,0.0,0.0,-0.17005870322645175,0.0,0.19765247809178588,0.3490658503988659,1.0,0.14,0.14,0.75,0.08726646259971647,5.0,0.184,0.175,0.174,0.0,0.0,0.0,0.0002031413612071541,0.0,0.011121965896542158,0.0,6.084342010805496,0.0,-0.5152672437078901,0.0,0.18607906479525235,0.0,-3.747082629978731,0.0,-0.04418320020045995,0.0,-0.013420647253656971,0.6553520046662411,-0.1862742263450529,0.13132528062620347,0.0,0.0,0.0,0.6493042553839893,0.13132528062620347,0.0,0.0,-0.1825496795911481,0.0,0.0,-0.0009939857541721596,0.0,1.6151617899519044,0.0,7.985754291547564,0.0,-0.31432346626081065,0.0,87.84957376992594,-1.671333699753329,0.0,-7.974187286285658,0.0,-0.31432346626081065,0.0
sim_raptor_glider_3dof,raptor_glider_3dof,0.005,-14.940075331360694,0.0,-0.0002524163767471734,11.969739025410355,0.0,-0.10556000854992904,0.0,0.0,0.0,-12.123954396153668,-0.21160292257452243,-0.008838734666499452,0.0,0.0,0.0,0.0,0.0,-0.00053305946418074,-0.030542057527061482,0.0,0.0,11.97020447828009,0.0002524163767471734,0.03517648029116368,-0.008818677823868167,-0.5052730201932591,0.0,0.0,0.008285618359687427,0.47473096266619763,-6.113344370119751,0.0,-21.291350008034055,11.969793594554337,0.0,-0.09917941118327268,0.0,-41.35142176765958,0.0,0.0,-0.21160292257452243,0.0,0.19765247809178588,0.3490658503988659,1.0,0.14,0.14,0.75,0.08726646259971647,5.0,0.184,0.175,0.174,0.0,0.0,0.0,0.00016719500537511604,0.0,0.01110257018716423,0.0,6.085442961867418,0.0,-0.5155071774266098,0.0,0.1840347439807263,0.0,-3.748269192487299,0.0,-0.04364945641441864,0.0,-0.013208391081138747,0.648048999786539,-0.18567951556782816,0.1308014512007811,0.0,0.0,0.0,0.6405187335930101,0.1308014512007811,0.0,0.0,-0.18104132160868686,0.0,0.0,-0.0012374228533099233,0.0,1.6071259338755715,0.0,7.869899442555402,0.0,-0.3114175573322443,0.0,87.76256571215725,-1.6764646500663696,0.0,-7.855420884990639,0.0,-0.3114175573322443,0.0
sim_raptor_glider_3dof,raptor_glider_3dof,0.006,-14.928108580235019,0.0,-0.00036090479563657377,11.963613190174376,0.0,-0.1268809932876542,0.0,0.0,0.0,-14.482200366544562,-0.25276207932973227,-0.01056319112785553,0.0,0.0,0.0,0.0,0.0,-0.0007652739868299192,-0.04384696961650452,0.0,0.0,11.964285994181683,0.00036090479563657377,0.03515908781974693,-0.010605177087889417,-0.6076318881249044,0.0,0.0,0.009839903101059498,0.5637849185084,-6.13836196645439,0.0,-21.349615985221327,11.96370678567787,0.0,-0.11772551506479527,0.0,-40.967160768087965,0.0,0.0,-0.25276207932973227,0.0,0.19765247809178588,0.3490658503988659,1.0,0.14,0.14,0.75,0.08726646259971647,5.0,0.184,0.175,0.174,0.0,0.0,0.0,0.00013108579347225144,0.0,0.011082982970984066,0.0,6.086533443471429,0.0,-0.5157439359065401,0.0,0.18198128437166586,0.0,-3.7494483808170225,0.0,-0.04311415609083732,0.0,-0.012997471190346704,0.6406936554287399,-0.18508133618350825,0.1302815212058669,0.0,0.0,0.0,0.6316926051790136,0.1302815212058669,0.0,0.0,-0.17953647660162445,0.0,0.0,-0.0014788467578997744,0.0,1.5991551501410604,0.0,7.753781760667318,0.0,-0.3085236877444705,0.0,87.67580145669557,-1.6812939099478514,0.0,-7.736386726027346,0.0,-0.3085236877444705,0.0
sim_raptor_glider_3dof,raptor_glider_3dof,0.007,-14.916147921203006,0.0,-0.0004877235000653727,11.957462234510533,0.0,-0.14825725676101772,0.0,0.0,0.0,-16.818476316025105,-0.29353778688332444,-0.012273307713306864,0.0,0.0,0.0,0.0,0.0,-0.0010384558068005612,-0.05949913494052497,0.0,0.0,11.958381299487314,0.0004877235000653727,0.03514173587083756,-0.012398087273130007,-0.710358074785209,0.0,0.0,0.011359631466329446,0.650858939844684,-6.163580347442629,0.0,-21.401930957330556,11.957609745686009,0.0,-0.13583988296117533,0.0,-40.58452823576813,0.0,0.0,-0.29353778688332444,0.0,0.19765247809178588,0.3490658503988659,1.0,0.14,0.14,0.75,0.08726646259971647,5.0,0.184,0.175,0.174,0.0,0.0,0.0,0.000094840327704372,0.0,0.011063211149979654,0.0,6.087612958494041,0.0,-0.5159774253094087,0.0,0.17991924584814425,0.0,-3.7506197328786954,0.0,-0.042577440166812905,0.0,-0.012787976642560792,0.6332884718760897,-0.18447984759121372,0.1297657584331001,0.0,0.0,0.0,0.6228283512850141,0.1297657584331001,0.0,0.0,-0.17803529617760278,0.0,0.0,-0.0017182630798629613,0.0,1.5912525473466745,0.0,7.637432343548099,0.0,-0.3056420821435698,0.0,87.58928211223403,-1.685817378083031,0.0,-7.6171173838575665,0.0,-0.3056420821435698,0.0
sim_raptor_glider_3dof,raptor_glider_3dof,0.008,-14.904193363482731,0.0,-0.0006324404738310557,11.951285972247646,0.0,-0.1696829186547101,0.0,0.0,0.0,-19.13287638275269,-0.33393168825609726,-0.013969125882364666,0.0,0.0,0.0,0.0,0.0,-0.001352222293095247,-0.07747663035785986,0.0,0.0,11.952490480369626,0.0006324404738310557,0.035124424697668535,-0.014196925659617558,-0.8134239223570684,0.0,0.0,0.012844703366522311,0.7359472919992086,-6.1889703520470425,0.0,-21.448436353690504,11.951504494710894,0.0,-0.1535219731238761,0.0,-40.203553171244145,0.0,0.0,-0.33393168825609726,0.0,0.19765247809178588,0.3490658503988659,1.0,0.14,0.14,0.75,0.08726646259971647,5.0,0.184,0.175,0.174,0.0,0.0,0.0,0.000058485359144952784,0.0,0.011043261685928778,0.0,6.08868103141892,0.0,-0.5162075579395907,0.0,0.1778491771087565,0.0,-3.751782806402675,0.0,-0.04203944549739787,0.0,-0.012579993062745985,0.6258359427366497,-0.18387520689704162,0.12925442269726392,0.0,0.0,0.0,0.6139284454866857,0.12925442269726392,0.0,0.0,-0.17653792921421138,0.0,0.0,-0.0019556776235310535,0.0,1.5834211212681253,0.0,7.5208820498759055,0.0,-0.30277295893263967,0.0,87.50300864126879,-1.6900313691969966,0.0,-7.497645178758043,0.0,-0.30277295893263967,0.0
sim_raptor_glider_3dof,raptor_glider_3dof,0.009000000000000001,-14.892244914296349,0.0,-0.0007946232162325162,11.94508424609124,0.0,-0.19115223985095403,0.0,0.0,0.0,-21.42549634370813,-0.3739454550717135,-0.015650688436764117,0.0,0.0,0.0,0.0,0.0,-0.0017061924729866896,-0.09775762773912604,0.0,0.0,11.946613613280425,0.0007946232162325162,0.035107154524906474,-0.016001220375555958,-0.9168023945780945,0.0,0.0,0.014295027902569268,0.8190447668389684,-6.2145034260548835,0.0,-21.489272977225355,11.945393001825943,0.0,-0.17077135867850612,0.0,-39.82426374798983,0.0,0.0,-0.3739454550717135,0.0,0.19765247809178588,0.3490658503988659,1.0,0.14,0.14,0.75,0.08726646259971647,5.0,0.184,0.175,0.174,0.0,0.0,0.0,0.00002204774699557755,0.0,0.01102314159200283,0.0,6.0897372080427905,0.0,-0.5164342521005172,0.0,0.17577161573819824,0.0,-3.7529371786274757,0.0,-0.04150030492652025,0.0,-0.01237360268011784,0.6183385529611105,-0.18326756890314097,0.12874776586091238,0.0,0.0,0.0,0.6049953518024318,0.12874776586091238,0.0,0.0,-0.17504452183237837,0.0,0.0,-0.002191096381146977,0.0,1.5756637558296516,0.0,7.404161477336455,0.0,-0.2999165302861114,0.0,87.41698186225273,-1.6939326082340682,0.0,-7.3780021532031075,0.0,-0.2999165302861114,0.0
sim_raptor_glider_3dof,raptor_glider_3dof,0.01,-14.880302578922798,0.0,-0.0009738388565458028,11.938856926984357,0.0,-0.21265962167938604,0.0,0.0,0.0,-23.69643356633932,-0.41358078671272325,-0.017318039495326617,0.0,0.0,0.0,0.0,0.0,-0.00209998705933521,-0.12032039553199632,0.0,0.0,11.940750765244838,0.0009738388565458028,0.03508992554951611,-0.017810510359694706,-1.0204670745845363,0.0,0.0,0.015710523300359495,0.90014667905254,-6.240151653541407,0.0,-21.524580903362853,11.939277184264286,0.0,-0.18758772614823088,0.0,-39.44668731034409,0.0,0.0,-0.41358078671272325,0.0,0.19765247809178588,0.3490658503988659,1.0,0.14,0.14,0.75,0.08726646259971647,5.0,0.184,0.175,0.174,0.0,0.0,0.0,-0.00001444558262835511,0.0,0.011002857923756994,0.0,6.090781055202117,0.0,-0.5166574319558097,0.0,0.17368708820919332,0.0,-3.7540824460153748,0.0,-0.04096014734090842,0.0,-0.012168884364134214,0.6107987766503569,-0.18265708607719694,0.12824603184855785,0.0,0.0,0.0,0.596031522488364,0.12824603184855785,0.0,0.0,-0.17355521734756402,0.0,0.0,-0.0024245255293457264,0.0,1.567983223985097,0.0,7.287300938337456,0.0,-0.29707300213420135,0.0,87.33120245426187,-1.6975182242877005,0.0,-7.258220045906834,0.0,-0.29707300213420135,0.0
sim_raptor_glider_3dof,raptor_glider_3dof,0.01,-14.880302578922798,0.0,-0.0009738388565458028,11.938856926984357,0.0,-0.21265962167938604,0.0,0.0,0.0,-23.69643356633932,-0.41358078671272325,-0.017318039495326617,0.0,0.0,0.0,0.0,0.0,-0.00209998705933521,-0.12032039553199632,0.0,0.0,11.940750765244838,0.0009738388565458028,0.03508992554951611,-0.017810510359694706,-1.0204670745845363,0.0,0.0,0.015710523300359495,0.90014667905254,-4.728788200068757,0.0,-18.57790337435403,11.939277184264286,0.0,-0.18758772614823088,0.0,-4.790976527224809,0.0,0.0,-0.41358078671272325,0.0,-0.048256244443167506,0.3490658503988659,1.0,0.14,0.14,0.75,0.08726646259971647,5.0,0.184,0.175,0.174,0.0,0.0,0.0,-0.010119382985104949,0.0,0.0015422549816097345,0.0,6.07874615870939,0.0,-0.517732389178008,0.0,0.17224870312955076,0.0,-3.777647067955131,0.0,-0.03690435290472882,0.0,-0.00861958711213608,0.5438969273828131,-0.030238058813233,0.09543765583041709,0.0,0.0,0.0,0.52915885213461,0.09543765583041709,0.0,0.0,-0.021079057056117755,0.0,0.0,-0.0024245255293457264,0.0,1.166855934032085,0.0,6.469691038472543,0.0,-0.03608084422653004,0.0,87.33120245426187,-1.2818932745827216,0.0,-6.447883725429407,0.0,-0.03608084422653004,0.0
sim_raptor_glider_3dof,raptor_glider_3dof,0.011,-14.868365609549143,0.0,-0.0011681941261686242,11.93411961023722,0.0,-0.23110500511097679,0.0,0.0,0.0,-23.966761404743618,-0.41829889755267746,-0.017522050265022706,0.0,0.0,0.0,0.0,0.0,-0.0025159366508369875,-0.14415255161523882,0.0,0.0,11.936357082243976,0.0011681941261686242,0.035077013965276606,-0.019362645137413415,-1.1093978465832945,0.0,0.0,0.016846708486576427,0.9652452949680558,-4.745721306124249,0.0,-18.31326164076569,11.934663284082255,0.0,-0.201078816424973,0.0,-4.64562051308625,0.0,0.0,-0.41829889755267746,0.0,-0.048256244443167506,0.3490658503988659,1.0,0.14,0.14,0.75,0.08726646259971647,5.0,0.184,0.175,0.174,0.0,0.0,0.0,-0.01018599327870697,0.0,0.0015317010855693636,0.0,6.079053135702529,0.0,-0.5179350392887888,0.0,0.1704534259037867,0.0,-3.7770690185633624,0.0,-0.036430427960958744,0.0,-0.008452364190112662,0.5374349228611758,-0.0297200572941025,0.09510155775198291,0.0,0.0,0.0,0.5225224764161225,0.09510155775198291,0.0,0.0,-0.02045457824642069,0.0,0.0,-0.002453087037103179,0.0,1.1618911509625103,0.0,6.383851704198305,0.0,-0.03498616808405255,0.0,87.26694602120783,-1.2852738858835422,0.0,-6.360159169875107,0.0,-0.03498616808405255,0.0
sim_raptor_glider_3dof,raptor_glider_3dof,0.012,-14.856433254479295,0.0,-0.0013758852862382975,11.929365829162327,0.0,-0.2492869327377499,0.0,0.0,0.0,-24.22883402041431,-0.42287292757544476,-0.01772016356811861,0.0,0.0,0.0,0.0,0.0,-0.00293653365914352,-0.16825098506703196,0.0,0.0,11.931970208679687,0.0013758852862382975,0.03506412239172378,-0.020893873112875168,-1.1971307470496146,0.0,0.0,0.01795733945373165,1.0288797619825827,-4.761693307343175,0.0,-18.0509571445185,11.930046432783728,0.0,-0.2142549239663643,0.0,-4.5028361473077725,0.0,0.0,-0.42287292757544476,0.0,-0.048256244443167506,0.3490658503988659,1.0,0.14,0.14,0.75,0.08726646259971647,5.0,0.184,0.175,0.174,0.0,0.0,0.0,-0.010251592577150522,0.0,0.001521027636128675,0.0,6.079344779300852,0.0,-0.5181320582356933,0.0,0.16868135418194036,0.0,-3.7764898973687724,0.0,-0.03596326903078117,0.0,-0.008288979972526948,0.5310474423354555,-0.029209284979425335,0.09477451999129463,0.0,0.0,0.0,0.5159656645927877,0.09477451999129463,0.0,0.0,-0.01984048236216424,0.0,0.0,-0.0024808228995366055,0.0,1.15704466106819,0.0,6.299112014140736,0.0,-0.033910859025374836,0.0,87.20281276734268,-1.288395385395394,0.0,-6.27356372768225,0.0,-0.033910859025374836,0.0
sim_raptor_glider_3dof,raptor_glider_3dof,0.013000000000000001,-14.844505517340249,0.0,-0.0015966033425689153,11.92459652616086,0.0,-0.26720768934612815,0.0,0.0,0.0,-24.482795515764714,-0.4273053918425975,-0.017912478265306002,0.0,0.0,0.0,0.0,0.0,-0.0033616367339622606,-0.19260759711217987,0.0,0.0,11.927589960296814,0.0015966033425689153,0.03505125028739255,-0.022404362150039537,-1.2836753938799124,0.0,0.0,0.019042725416077277,1.0910677967677325,-4.776728206622279,0.0,-17.791019603902946,11.92542740215973,0.0,-0.22712009332329794,0.0,-4.3625913921731145,0.0,0.0,-0.4273053918425975,0.0,-0.048256244443167506,0.3490658503988659,1.0,0.14,0.14,0.75,0.08726646259971647,5.0,0.184,0.175,0.174,0.0,0.0,0.0,-0.010316196355056356,0.0,0.0015102483394183344,0.0,6.079621581322828,0.0,-0.5183235919177732,0.0,0.16693234286537395,0.0,-3.775909993430122,0.0,-0.035502806129084484,0.0,-0.008129359210887506,0.5247347320244843,-0.028705681078918424,0.0944563541379745,0.0,0.0,0.0,0.509488579503342,0.0944563541379745,0.0,0.0,-0.019236654282448792,0.0,0.0,-0.0025077469571428406,0.0,1.1523138678284879,0.0,6.215471272629913,0.0,-0.03285467577445573,0.0,87.13879989067885,-1.291266694577752,0.0,-6.188096695620699,0.0,-0.03285467577445573,0.0
sim_raptor_glider_3dof,raptor_glider_3dof,0.014,-14.832582400037513,0.0,-0.0018300282399938926,11.919812660922457,0.0,-0.2848697371934638,0.0,0.0,0.0,-24.728795701563715,-0.4315989050453079,-0.01809909749492252,0.0,0.0,0.0,0.0,0.0,-0.0037911004610718183,-0.21721405612951564,0.0,0.0,11.923216203636333,0.0018300282399938926,0.0350383972600909,-0.023894295067840347,-1.3690422618275109,0.0,0.0,0.02010319460676853,1.1518282056979954,-4.7908501028356,0.0,-17.533474889296485,11.920806969817837,0.0,-0.2396785910306856,0.0,-4.224852682649002,0.0,0.0,-0.4315989050453079,0.0,-0.048256244443167506,0.3490658503988659,1.0,0.14,0.14,0.75,0.08726646259971647,5.0,0.184,0.175,0.174,0.0,0.0,0.0,-0.010379820316897973,0.0,0.001499376189758904,0.0,6.0798840247124595,0.0,-0.5185097847045099,0.0,0.16520622779296862,0.0,-3.7753295817813677,0.0,-0.03504896535647232,0.0,-0.00797342609141924,0.5184969268310021,-0.028209179629322487,0.09414687080753903,0.0,0.0,0.0,0.5030912689100492,0.09414687080753903,0.0,0.0,-0.01864297148466484,0.0,0.0,-0.002533873649289153,0.0,1.1476961808450121,0.0,6.132927446148303,0.0,-0.03181736555302963,0.0,87.07490533527321,-1.2938965991772031,0.0,-6.103755989051581,0.0,-0.03181736555302963,0.0
sim_raptor_glider_3dof,raptor_glider_3dof,0.015,-14.820663903573609,0.0,-0.002075860013171176,11.91501512032451,0.0,-0.3022754465576302,0.0,0.0,0.0,-24.966975054406742,-0.43575591896268806,-0.01828011780911333,0.0,0.0,0.0,0.0,0.0,-0.004224789262466145,-0.2420625940714979,0.0,0.0,11.91884875997482,0.002075860013171176,0.03502556278460965,-0.02536384723816934,-1.4532413989616526,0.0,0.0,0.021139057975703195,1.2111788048901546,-4.80408257269485,0.0,-17.278346250076837,11.916185832119691,0.0,-0.251934470732475,0.0,-4.089587852159764,0.0,0.0,-0.43575591896268806,0.0,-0.048256244443167506,0.3490658503988659,1.0,0.14,0.14,0.75,0.08726646259971647,5.0,0.184,0.175,0.174,0.0,0.0,0.0,-0.010442479453507921,0.0,0.0014884236469960045,0.0,6.080132579495584,0.0,-0.5186907766311379,0.0,0.1635028517212522,0.0,-3.774748932037438,0.0,-0.034601675714356704,0.0,-0.00782110662395484,0.5123341458514408,-0.027719716983484,0.09384588444224015,0.0,0.0,0.0,0.49677377027269176,0.09384588444224015,0.0,0.0,-0.018059317258638328,0.0,0.0,-0.0025592164932758663,0.0,1.143189055698607,0.0,6.0514783435538675,0.0,-0.03079868611461518,0.0,87.01112638731276,-1.2962936701197487,0.0,-6.0205393512855645,0.0,-0.03079868611461518,0.0
sim_raptor_glider_3dof,raptor_glider_3dof,0.016,-14.80875002833645,0.0,-0.0023337979511928466,11.910204782881697,0.0,-0.3194272432620762,0.0,0.0,0.0,-25.197474451797017,-0.43977889237101114,-0.018455636190128192,0.0,0.0,0.0,0.0,0.0,-0.0046625677835390265,-0.267145455690453,0.0,0.0,11.914487472565325,0.0023337979511928466,0.03501274640032127,-0.02681319884314953,-1.5362831289575294,0.0,0.0,0.0221506310596105,1.2691376732670763,-4.816449014181829,0.0,-17.025654126495134,11.91156466771682,0.0,-0.2638918352589014,0.0,-3.9567644194949896,0.0,0.0,-0.43977889237101114,0.0,-0.048256244443167506,0.3490658503988659,1.0,0.14,0.14,0.75,0.08726646259971647,5.0,0.184,0.175,0.174,0.0,0.0,0.0,-0.010504188581482173,0.0,0.0014774025681975485,0.0,6.08036770518208,0.0,-0.5188667050126974,0.0,0.16182205017929083,0.0,-3.774168303769798,0.0,-0.034160865351539296,0.0,-0.007672327353865244,0.5062464430752556,-0.027237227741065354,0.09355321077045872,0.0,0.0,0.0,0.4905360554775893,0.09355321077045872,0.0,0.0,-0.017485572942208948,0.0,0.0,-0.0025837890666179472,0.0,1.1387899758013766,0.0,5.971121013875679,0.0,-0.029798392843216767,0.0,86.94746065771068,-1.298466306398563,0.0,-5.938443737418171,0.0,-0.029798392843216767,0.0
sim_raptor_glider_3dof,raptor_glider_3dof,0.017,-14.796840774031839,0.0,-0.002603545547755011,11.905382503242434,0.0,-0.3363275728345174,0.0,0.0,0.0,-25.420432863972824,-0.4436702507584976,-0.018625748382905823,0.0,0.0,0.0,0.0,0.0,-0.005104303178101804,-0.2924550294604463,0.0,0.0,11.91013219006237,0.002603545547755011,0.03499994766247133,-0.028242531908918594,-1.6181778811445917,0.0,0.0,0.02313822873081679,1.3257228516841455,-4.827972541485028,0.0,-16.77541631643485,11.906944123135851,0.0,-0.27555477364852493,0.0,-3.8263500031788507,0.0,0.0,-0.4436702507584976,0.0,-0.048256244443167506,0.3490658503988659,1.0,0.14,0.14,0.75,0.08726646259971647,5.0,0.184,0.175,0.174,0.0,0.0,0.0,-0.010564962230733693,0.0,0.001466324246728439,0.0,6.08058985034299,0.0,-0.5190377041180156,0.0,0.16016365494698345,0.0,-3.7735879476998253,0.0,-0.033726462453106745,0.0,-0.007527015686912661,0.5002338216096205,-0.026761645755044854,0.09326866748494782,0.0,0.0,0.0,0.48437804648952093,0.09326866748494782,0.0,0.0,-0.016921619808997642,0.0,0.0,-0.0026076047736068157,0.0,1.1344964572976304,0.0,5.891851921480423,0.0,-0.028816241873939927,0.0,86.88390583967863,-1.30042272258546,0.0,-5.857465494465746,0.0,-0.028816241873939927,0.0
sim_raptor_glider_3dof,raptor_glider_3dof,0.018000000000000002,-14.784936139695706,0.0,-0.0028848106196312203,11.900549111715888,0.0,-0.35297889849272135,0.0,0.0,0.0,-25.63598729951822,-0.4474323853760427,-0.018790548852717553,0.0,0.0,0.0,0.0,0.0,-0.005549865152781449,-0.31798385012110486,0.0,0.0,11.905782765662364,0.0028848106196312203,0.03498716613965254,-0.02965203014750473,-1.698936181446701,0.0,0.0,0.024102164994723282,1.380952331325596,-4.83867596560548,0.0,-16.527648080796737,11.902324812992562,0.0,-0.28692735868943203,0.0,-3.698312340618048,0.0,0.0,-0.4474323853760427,0.0,-0.048256244443167506,0.3490658503988659,1.0,0.14,0.14,0.75,0.08726646259971647,5.0,0.184,0.175,0.174,0.0,0.0,0.0,-0.010624814651912083,0.0,0.0014551994312156777,0.0,6.08079945271929,0.0,-0.5192039052035854,0.0,0.15852749428229032,0.0,-3.7730081058288505,0.0,-0.033298395273063594,0.0,-0.0073850999140608956,0.494296236127024,-0.026292904200973743,0.0929920743202938,0.0,0.0,0.0,0.478299617841838,0.0929920743202938,0.0,0.0,-0.016367339162175056,0.0,0.0,-0.0026306768393804577,0.0,1.1303060496805983,0.0,5.813666977085233,0.0,-0.02785199023719452,0.0,86.82045969603438,-1.3021709472124812,0.0,-5.777600393816767,0.0,-0.02785199023719452,0.0
sim_raptor_glider_3dof,raptor_glider_3dof,0.019000000000000003,-14.77303612380358,0.0,-0.00317730481108448,11.895705417312213,0.0,-0.3693836962971988,0.0,0.0,0.0,-25.844273029652186,-0.45106765715180075,-0.01895013094177319,0.0,0.0,0.0,0.0,0.0,-0.00599912564757501,-0.34372458037473497,0.0,0.0,11.901439059649942,0.00317730481108448,0.03497440142128755,-0.031041878551626264,-1.7785686291658576,0.0,0.0,0.025042752904051252,1.4348440487911225,-4.848581781624943,0.0,-16.282362357296645,11.897707323572655,0.0,-0.29801364594072716,0.0,-3.572619303881996,0.0,0.0,-0.45106765715180075,0.0,-0.048256244443167506,0.3490658503988659,1.0,0.14,0.14,0.75,0.08726646259971647,5.0,0.184,0.175,0.174,0.0,0.0,0.0,-0.01068375981301178,0.0,0.0014440383462046278,0.0,6.080996939302944,0.0,-0.5193654365200743,0.0,0.15691339343502742,0.0,-3.7724290116782746,0.0,-0.032876592242043326,0.0,-0.007246509258990708,0.488433596303971,-0.025830935727564504,0.09272325317273823,0.0,0.0,0.0,0.4723005999480872,0.09272325317273823,0.0,0.0,-0.01582261240398588,0.0,0.0,-0.002653018331848247,0.0,1.126216337570384,0.0,5.736561581968078,0.0,-0.02690539597753531,0.0,86.75712009619374,-1.3037188218431954,0.0,-5.698843677123837,0.0,-0.02690539597753531,0.0
sim_raptor_glider_3dof,raptor_glider_3dof,0.02,-14.76114072425702,0.0,-0.0034807438234145597,11.890852206647988,0.0,-0.3855444541797372,0.0,0.0,0.0,-26.045423484064834,-0.4545783948731842,-0.01910458679161056,0.0,0.0,0.0,0.0,0.0,-0.006451958954390581,-0.3696700176782199,0.0,0.0,11.897100937896344,0.0034807438234145597,0.03496165311321621,-0.032412263323459665,-1.85708589290091,0.0,0.0,0.025960304369069084,1.48741587522269,-4.857712152895752,0.0,-16.039569831978973,11.8930922123855,0.0,-0.30881767143323047,0.0,-3.449238915495335,0.0,0.0,-0.4545783948731842,0.0,-0.048256244443167506,0.3490658503988659,1.0,0.14,0.14,0.75,0.08726646259971647,5.0,0.184,0.175,0.174,0.0,0.0,0.0,-0.010741811409849101,0.0,0.0014328507099435816,0.0,6.081182726478007,0.0,-0.519522423360303,0.0,0.15532117477283902,0.0,-3.771850890401813,0.0,-0.032460981973593574,0.0,-0.0071111738896164,0.4826457688045744,-0.02537567249533958,0.09246202814769709,0.0,0.0,0.0,0.4663807811574645,0.09246202814769709,0.0,0.0,-0.015287321117242278,0.0,0.0,-0.002674642150825479,0.0,1.1222249408379137,0.0,5.660530652716504,0.0,-0.02597621827259537,0.0,86.69388499408741,-1.3050740004675958,0.0,-5.621190082312222,0.0,-0.02597621827259537,0.0
sim_raptor_glider_3dof,raptor_glider_3dof,0.02,-14.76114072425702,0.0,-0.0034807438234145597,11.890852206647988,0.0,-0.3855444541797372,0.0,0.0,0.0,-26.045423484064834,-0.4545783948731842,-0.01910458679161056,0.0,0.0,0.0,0.0,0.0,-0.006451958954390581,-0.3696700176782199,0.0,0.0,11.897100937896344,0.0034807438234145597,0.03496165311321621,-0.032412263323459665,-1.85708589290091,0.0,0.0,0.025960304369069084,1.48741587522269,-4.8608812357334665,0.0,-16.02878357586588,11.8930922123855,0.0,-0.30881767143323047,0.0,-3.3254393666943445,0.0,0.0,-0.4545783948731842,0.0,-0.049201528026504515,0.3490658503988659,1.0,0.14,0.14,0.75,0.08726646259971647,5.0,0.184,0.175,0.174,0.0,0.0,0.0,-0.01088220484843519,0.0,0.0014757685931608255,0.0,6.081019369476203,0.0,-0.5195528210484253,0.0,0.1553189397012618,0.0,-3.77127748712086,0.0,-0.032419025808670406,0.0,-0.007127279652289138,0.48240339521052067,-0.024825448685517233,0.09254171453316258,0.0,0.0,0.0,0.4661388444849334,0.09254171453316258,0.0,0.0,-0.014738630956004589,0.0,0.0,-0.002674642150825479,0.0,1.123192105965113,0.0,5.657594232507506,0.0,-0.025043883870575108,0.0,86.69388499408741,-1.3059454982479672,0.0,-5.618223861881121,0.0,-0.025043883870575108,0.0
sim_raptor_glider_3dof,raptor_glider_3dof,0.021,-14.749249944619976,0.0,-0.0037948392448590392,11.885987133422319,0.0,-0.40145221253219987,0.0,0.0,0.0,-26.232500658241126,-0.4578435075178874,-0.01924882548950172,0.0,0.0,0.0,0.0,0.0,-0.006908177352151079,-0.39580940640611706,0.0,0.0,11.892764775897483,0.0037948392448590392,0.034948910564217235,-0.033762417699240196,-1.9344440403242544,0.0,0.0,0.026854240347089116,1.5386346339181374,-4.869197077465907,0.0,-15.787402405804734,11.888476798601683,0.0,-0.31933277930301324,0.0,-3.205187753617371,0.0,0.0,-0.4578435075178874,0.0,-0.049201528026504515,0.3490658503988659,1.0,0.14,0.14,0.75,0.08726646259971647,5.0,0.184,0.175,0.174,0.0,0.0,0.0,-0.010939928918491807,0.0,0.0014645102940232,0.0,6.081190223462501,0.0,-0.5197055268095457,0.0,0.15374954767102703,0.0,-3.7706920643864503,0.0,-0.03200972163410421,0.0,-0.006995197620760755,0.4766944476516339,-0.02437742144466235,0.0922883484365174,0.0,0.0,0.0,0.4603066399384488,0.0922883484365174,0.0,0.0,-0.01421602635157902,0.0,0.0,-0.002694835568530241,0.0,1.1193006111023631,0.0,5.58273619699661,0.0,-0.024138268972492424,0.0,86.63070149658623,-1.307113589917043,0.0,-5.541771500731916,0.0,-0.024138268972492424,0.0
sim_raptor_glider_3dof,raptor_glider_3dof,0.022,-14.73736377400842,0.0,-0.004119307144354134,11.881114107241935,0.0,-0.4171200568624582,0.0,0.0,0.0,-26.41275709129907,-0.4609895757726493,-0.019388153984696826,0.0,0.0,0.0,0.0,0.0,-0.0073676001478722095,-0.42213239361303884,0.0,0.0,11.88843394106811,0.004119307144354134,0.034936183670011195,-0.035093409983375956,-2.0107042807697106,0.0,0.0,0.027725809835503747,1.5885718871566719,-4.876779043484118,0.0,-15.548554797282264,11.88386479215307,0.0,-0.3295742298252847,0.0,-3.087185194523122,0.0,0.0,-0.4609895757726493,0.0,-0.049201528026504515,0.3490658503988659,1.0,0.14,0.14,0.75,0.08726646259971647,5.0,0.184,0.175,0.174,0.0,0.0,0.0,-0.01099677376813942,0.0,0.0014532437472159114,0.0,6.081350234668512,0.0,-0.5198539207955907,0.0,0.15220176086361062,0.0,-3.7701082107685018,0.0,-0.031606491882241614,0.0,-0.006866240468695447,0.4710602510951863,-0.02393598689268621,0.09204224113911612,0.0,0.0,0.0,0.45455338942533874,0.09204224113911612,0.0,0.0,-0.013702625498577273,0.0,0.0,-0.0027143415578575556,0.0,1.1155028678134467,0.0,5.508944623717982,0.0,-0.023249591699953633,0.0,86.56761861324033,-1.3081040136348987,0.0,-5.466413943784677,0.0,-0.023249591699953633,0.0
sim_raptor_glider_3dof,raptor_glider_3dof,0.023,-14.725482213403785,0.0,-0.004453877114564849,11.876233867778266,0.0,-0.43255036410487996,0.0,0.0,0.0,-26.586318140255727,-0.464018787530158,-0.019522658949611426,0.0,0.0,0.0,0.0,0.0,-0.00783010863444006,-0.4486321778823598,0.0,0.0,11.884108325812702,0.004453877114564849,0.03492347211441036,-0.03640541756348903,-2.085876777799362,0.0,0.0,0.02857530892904897,1.6372445999170024,-4.8836482752456805,0.0,-15.312247057691298,11.879256681850935,0.0,-0.33954585309018176,0.0,-2.971401257374372,0.0,0.0,-0.464018787530158,0.0,-0.049201528026504515,0.3490658503988659,1.0,0.14,0.14,0.75,0.08726646259971647,5.0,0.184,0.175,0.174,0.0,0.0,0.0,-0.011052752016240959,0.0,0.0014419774083208564,0.0,6.081499787791073,0.0,-0.5199981186958176,0.0,0.15067540778403177,0.0,-3.769526132038467,0.0,-0.03120926922678568,0.0,-0.006740342283161149,0.4655006054207662,-0.02350107963403316,0.09180322511551192,0.0,0.0,0.0,0.4488788189444811,0.09180322511551192,0.0,0.0,-0.013198315403192272,0.0,0.0,-0.0027331722529455997,0.0,1.1117966233144339,0.0,5.436213755583181,0.0,-0.0223776228692864,0.0,86.50463469288404,-1.3089238607351799,0.0,-5.392145218259917,0.0,-0.0223776228692864,0.0
sim_raptor_glider_3dof,raptor_glider_3dof,0.024,-14.713605259067982,0.0,-0.004798303150904527,11.871347059246304,0.0,-0.44774546745274285,0.0,0.0,0.0,-26.753299700569116,-0.46693316554774417,-0.019652420369010264,0.0,0.0,0.0,0.0,0.0,-0.008295596469193327,-0.47530266622840506,0.0,0.0,11.879787750827047,0.004798303150904527,0.03491077537049883,-0.03769861459908278,-2.1599715100177135,0.0,0.0,0.029403018129889456,1.6846688437893085,-4.8898252992410125,0.0,-15.078482732134276,11.874652859931484,0.0,-0.34925128606974043,0.0,-2.857806609107291,0.0,0.0,-0.46693316554774417,0.0,-0.049201528026504515,0.3490658503988659,1.0,0.14,0.14,0.75,0.08726646259971647,5.0,0.184,0.175,0.174,0.0,0.0,0.0,-0.011107875865081596,0.0,0.0014307193342451307,0.0,6.0816392573192415,0.0,-0.5201382330537044,0.0,0.14917031940683406,0.0,-3.7689460281460323,0.0,-0.03081798781023822,0.0,-0.006617438476373279,0.46001529263460894,-0.023072635315716458,0.09157113583577686,0.0,0.0,0.0,0.4432826422641571,0.09157113583577686,0.0,0.0,-0.012702987678663218,0.0,0.0,-0.002751338851661437,0.0,1.108179654452149,0.0,5.364537644372025,0.0,-0.02152214157318701,0.0,86.44174704317555,-1.3095800214243059,0.0,-5.318959151179162,0.0,-0.02152214157318701,0.0
sim_raptor_glider_3dof,raptor_glider_3dof,0.025,-14.7017329061304,0.0,-0.005152298016684715,11.866454425127143,0.0,-0.4627081275259239,0.0,0.0,0.0,-26.913837176958513,-0.46973507308358176,-0.019777532466443606,0.0,0.0,0.0,0.0,0.0,-0.008763939959808818,-0.5021367716030976,0.0,0.0,11.875472177345122,0.005152298016684715,0.034898093324356054,-0.03897321106895098,-2.2330005083234346,0.0,0.0,0.03020927110914216,1.730863736720337,-4.895331064869186,0.0,-14.847261215717815,11.870053811114305,0.0,-0.35869479526319603,0.0,-2.7463677405929015,0.0,0.0,-0.46973507308358176,0.0,-0.049201528026504515,0.3490658503988659,1.0,0.14,0.14,0.75,0.08726646259971647,5.0,0.184,0.175,0.174,0.0,0.0,0.0,-0.011162158775116495,0.0,0.0014194768536720682,0.0,6.081769011664746,0.0,-0.5202743774918787,0.0,0.14768628375063655,0.0,-3.7683680756059768,0.0,-0.030432571422453827,0.0,-0.006497462109940184,0.4546039124910918,-0.022650577708614283,0.09134580488073211,0.0,0.0,0.0,0.43776437871966634,0.09134580488073211,0.0,0.0,-0.012216514634101327,0.0,0.0,-0.0027688545453021054,0.0,1.1046497239499473,0.0,5.293908141038254,0.0,-0.020682895454405142,0.0,86.3789550201379,-1.3100792706074518,0.0,-5.246847312729659,0.0,-0.020682895454405142,0.0
sim_raptor_glider_3dof,raptor_glider_3dof,0.026000000000000002,-14.689865149692107,0.0,-0.005515607038163158,11.861556612444364,0.0,-0.4774408371828701,0.0,0.0,0.0,-27.06805069998385,-0.472426606811474,-0.019898078523083656,0.0,0.0,0.0,0.0,0.0,-0.009235030004923215,-0.52912824295878,0.0,0.0,11.871161485854385,0.005515607038163158,0.03488542562477412,-0.040229394917745895,-2.3049745411518834,0.0,0.0,0.030994364912822682,1.7758462981931034,-4.900185617504396,0.0,-14.61858178904937,11.865459922773995,0.0,-0.3678802037030717,0.0,-2.6370541494261657,0.0,0.0,-0.472426606811474,0.0,-0.049201528026504515,0.3490658503988659,1.0,0.14,0.14,0.75,0.08726646259971647,5.0,0.184,0.175,0.174,0.0,0.0,0.0,-0.011215613009411509,0.0,0.0014082570820068514,0.0,6.081889406899875,0.0,-0.5204066604525973,0.0,0.14622311323487514,0.0,-3.7677924534000913,0.0,-0.030052950996753765,0.0,-0.006380349419343233,0.44926612914652814,-0.022234837890688856,0.09112707042176012,0.0,0.0,0.0,0.43232362132831953,0.09112707042176012,0.0,0.0,-0.01173878167718767,0.0,0.0,-0.0027857309932317123,0.0,1.1012046657565084,0.0,5.224317941091341,0.0,-0.019859654799328455,0.0,86.3162568064762,-1.3104281526958965,0.0,-5.17580213320745,0.0,-0.019859654799328455,0.0
sim_raptor_glider_3dof,raptor_glider_3dof,0.027,-14.678001984415062,0.0,-0.005887973916947227,11.856654263171658,0.0,-0.4919461374876443,0.0,0.0,0.0,-27.216061217477804,-0.4750098776693242,-0.020014142522050308,0.0,0.0,0.0,0.0,0.0,-0.009708757214350355,-0.5562708126994653,0.0,0.0,11.86685557839884,0.005887973916947227,0.03487277198389267,-0.04146735835095201,-2.3759046210661197,0.0,0.0,0.03175860113660166,1.8196338083666543,-4.904408704601252,0.0,-14.39244193795495,11.860871574221258,0.0,-0.3768113830628828,0.0,-2.5298350532569267,0.0,0.0,-0.4750098776693242,0.0,-0.049201528026504515,0.3490658503988659,1.0,0.14,0.14,0.75,0.08726646259971647,5.0,0.184,0.175,0.174,0.0,0.0,0.0,-0.011268250766643671,0.0,0.0013970667094281763,0.0,6.082000789888866,0.0,-0.520535188135696,0.0,0.14478061412412707,0.0,-3.7672193313883118,0.0,-0.029679056635842024,0.0,-0.006266037292470287,0.4440015610436488,-0.02182534554156772,0.0909147724553418,0.0,0.0,0.0,0.42695991675572065,0.0909147724553418,0.0,0.0,-0.011269672496135696,0.0,0.0,-0.0028019799530870433,0.0,1.0978423463133664,0.0,5.155759225191999,0.0,-0.019052187786077916,0.0,86.25365090087429,-1.3106330375055242,0.0,-5.1058155123849005,0.0,-0.019052187786077916,0.0
sim_raptor_glider_3dof,raptor_glider_3dof,0.028,-14.666143404579364,0.0,-0.006269146336799791,11.8517479991081,0.0,-0.5062265661996849,0.0,0.0,0.0,-27.35798786376045,-0.4774869649432697,-0.020125807242155937,0.0,0.0,0.0,0.0,0.0,-0.010185014362674112,-0.5835583372613526,0.0,0.0,11.862554361126831,0.006269146336799791,0.03486013212591269,-0.04268729355474787,-2.445801759523054,0.0,0.0,0.032502279192073755,1.8622434222617013,-4.908019673795969,0.0,-14.16883769527227,11.856289122448267,0.0,-0.3854921732072815,0.0,-2.424679926266377,0.0,0.0,-0.4774869649432697,0.0,-0.049201528026504515,0.3490658503988659,1.0,0.14,0.14,0.75,0.08726646259971647,5.0,0.184,0.175,0.174,0.0,0.0,0.0,-0.011320084009604199,0.0,0.001385912052266745,0.0,6.082103497995954,0.0,-0.5206600640913394,0.0,0.14335859154657243,0.0,-3.7666488723354385,0.0,-0.029310818893036373,0.0,-0.0061544636720067426,0.4388098003512545,-0.02142203036991042,0.09070875357784516,0.0,0.0,0.0,0.4216727863834032,0.09070875357784516,0.0,0.0,-0.010809071488419432,0.0,0.0,-0.002817613013901831,0.0,1.0945606705131001,0.0,5.0882238989741095,0.0,-0.018260264524712088,0.0,86.19113586381094,-1.3107001136315093,0.0,-5.0368790654185585,0.0,-0.018260264524712088,0.0
sim_raptor_glider_3dof,raptor_glider_3dof,0.029,-14.654289404101789,0.0,-0.006658875986839863,11.846838421981396,0.0,-0.5202846562834098,0.0,0.0,0.0,-27.493947948935098,-0.47985991608085926,-0.02023315424767351,0.0,0.0,0.0,0.0,0.0,-0.01066369638667671,-0.6109847969654815,0.0,0.0,11.85825774387193,0.006658875986839863,0.03484750578586479,-0.043889392575160835,-2.5146769599495276,0.0,0.0,0.03322569618848412,1.903692162984046,-4.91103747022092,0.0,-13.947763720701635,11.851712902639553,0.0,-0.3939263808197168,0.0,-2.32155850957772,0.0,0.0,-0.47985991608085926,0.0,-0.049201528026504515,0.3490658503988659,1.0,0.14,0.14,0.75,0.08726646259971647,5.0,0.184,0.175,0.174,0.0,0.0,0.0,-0.011371124470711258,0.0,0.0013747990680373905,0.0,6.0821978592566035,0.0,-0.52078138926659,0.0,0.14195684967187625,0.0,-3.7660812320849026,0.0,-0.0289481687949045,0.0,-0.006045567559542718,0.43369041472288145,-0.02102482216181096,0.09050885900487121,0.0,0.0,0.0,0.41646172807971227,0.09050885900487121,0.0,0.0,-0.010356863814885058,0.0,0.0,-0.002832641594674292,0.0,1.0913575816978907,0.0,5.021703614696298,0.0,-0.01748365713562981,0.0,86.12871031135775,-1.3106353906112689,0.0,-4.968984145462791,0.0,-0.01748365713562981,0.0
sim_raptor_glider_3dof,raptor_glider_3dof,0.03,-14.642439976593886,0.0,-0.007056918144486071,11.841926115813221,0.0,-0.5341229348217229,0.0,0.0,0.0,-27.62405714914241,-0.4821307500116133,-0.02033626402218864,0.0,0.0,0.0,0.0,0.0,-0.011144700145374428,-0.6385442822687898,0.0,0.0,11.853965642006973,0.007056918144486071,0.034834892715057665,-0.04507384722240889,-2.5825412122614977,0.0,0.0,0.03392914707703446,1.943996929992708,-4.913480640691591,0.0,-13.72921341760127,11.84714323083446,0.0,-0.4021177812221136,0.0,-2.2204408035135716,0.0,0.0,-0.4821307500116133,0.0,-0.049201528026504515,0.3490658503988659,1.0,0.14,0.14,0.75,0.08726646259971647,5.0,0.184,0.175,0.174,0.0,0.0,0.0,-0.01142138365823071,0.0,0.0013637333698578121,0.0,6.082284192552111,0.0,-0.5208992620543953,0.0,0.14057519185891829,0.0,-3.7655165597228843,0.0,-0.02859103785657854,0.0,-0.005939289016387205,0.42864294890210036,-0.02063365082030101,0.09031493658322752,0.0,0.0,0.0,0.41132621769441896,0.09031493658322752,0.0,0.0,-0.009912935368918284,0.0,0.0,-0.00284707696310641,0.0,1.0882310619887157,0.0,4.956189791407403,0.0,-0.01672213969126071,0.0,86.0663729419997,-1.3104447017186804,0.0,-4.902121864709759,0.0,-0.01672213969126071,0.0
sim_raptor_glider_3dof,raptor_glider_3dof,0.03,-14.642439976593886,0.0,-0.007056918144486071,11.841926115813221,0.0,-0.5341229348217229,0.0,0.0,0.0,-27.62405714914241,-0.4821307500116133,-0.02033626402218864,0.0,0.0,0.0,0.0,0.0,-0.011144700145374428,-0.6385442822687898,0.0,0.0,11.853965642006973,0.007056918144486071,0.034834892715057665,-0.04507384722240889,-2.5825412122614977,0.0,0.0,0.03392914707703446,1.943996929992708,-4.916530508740384,0.0,-13.718827744962875,11.84714323083446,0.0,-0.4021177812221136,0.0,-2.1012966564093705,0.0,0.0,-0.4821307500116133,0.0,-0.050123167003641445,0.3490658503988659,1.0,0.14,0.14,0.75,0.08726646259971647,5.0,0.184,0.175,0.174,0.0,0.0,0.0,-0.011559589804506939,0.0,0.0014049799330173591,0.0,6.0820919422623545,0.0,-0.5209305975081048,0.0,0.14057305960970934,0.0,-3.7648708988437116,0.0,-0.02855035973608709,0.0,-0.005954856835318896,0.42840874733242723,-0.020099905473495848,0.09039515307052808,0.0,0.0,0.0,0.41109256347611695,0.09039515307052808,0.0,0.0,-0.009381028268328193,0.0,0.0,-0.00284707696310641,0.0,1.0891976138844108,0.0,4.953374423454544,0.0,-0.015824865119418968,0.0,86.0663729419997,-1.3112834154320985,0.0,-4.899265804734201,0.0,-0.015824865119418968,0.0
sim_raptor_glider_3dof,raptor_glider_3dof,0.031,-14.630595127248816,0.0,-0.007463026301644308,11.837008670586279,0.0,-0.5477327029670132,0.0,0.0,0.0,-27.741621874920266,-0.48418264156064117,-0.020430208534688018,0.0,0.0,0.0,0.0,0.0,-0.011627861943470529,-0.6662274141216483,0.0,0.0,11.849674484197205,0.007463026301644308,0.03482228241851716,-0.046239914831416755,-2.6493519648845596,0.0,0.0,0.03461205288794623,1.9831245507629114,-4.918347961306075,0.0,-13.501753887078277,11.84257727209226,0.0,-0.41005967365508317,0.0,-2.002963837688114,0.0,0.0,-0.48418264156064117,0.0,-0.050123167003641445,0.3490658503988659,1.0,0.14,0.14,0.75,0.08726646259971647,5.0,0.184,0.175,0.174,0.0,0.0,0.0,-0.011609520094670657,0.0,0.0013939154038081518,0.0,6.0821675735383955,0.0,-0.5210452221651078,0.0,0.13921238588853788,0.0,-3.7643023621703424,0.0,-0.028198875366910438,0.0,-0.005851207457382144,0.4234369357334457,-0.019715276352849285,0.09020744272927719,0.0,0.0,0.0,0.40604054247160276,0.09020744272927719,0.0,0.0,-0.008948508838303053,0.0,0.0,-0.0028602291948563226,0.0,1.0861490339434081,0.0,4.888959598056022,0.0,-0.015084320661629187,0.0,86.00407184353203,-1.3109726016857097,0.0,-4.833528370971841,0.0,-0.015084320661629187,0.0
sim_raptor_glider_3dof,raptor_glider_3dof,0.032,-14.61875482939355,0.0,-0.007876939726258613,11.832089683497655,0.0,-0.5611271835995375,0.0,0.0,0.0,-27.853621826308537,-0.48613740947444006,-0.020520113878329818,0.0,0.0,0.0,0.0,0.0,-0.012113021973371567,-0.6940250362234186,0.0,0.0,11.84538770975885,0.007876939726258613,0.03480968500325854,-0.047388677492460764,-2.715171217024599,0.0,0.0,0.0352756555190892,2.02114618080118,-4.919626040685476,0.0,-13.287207292201774,11.838018440341099,0.0,-0.4177671608086359,0.0,-1.9065721256811992,0.0,0.0,-0.48613740947444006,0.0,-0.050123167003641445,0.3490658503988659,1.0,0.14,0.14,0.75,0.08726646259971647,5.0,0.184,0.175,0.174,0.0,0.0,0.0,-0.011658682516070416,0.0,0.0013829087423286224,0.0,6.082235840703131,0.0,-0.5211565785056526,0.0,0.13787145132334108,0.0,-3.7637372137821887,0.0,-0.02785278812227594,0.0,-0.005750062430354386,0.41853626065724203,-0.01933655648985726,0.09002540846148512,0.0,0.0,0.0,0.4010631165651898,0.09002540846148512,0.0,0.0,-0.008524032216968697,0.0,0.0,-0.002872815942966175,0.0,1.0831731080864622,0.0,4.825535256467229,0.0,-0.014358394678505111,0.0,85.94185690761067,-1.3105472565211365,0.0,-4.768807018732763,0.0,-0.014358394678505111,0.0
sim_raptor_glider_3dof,raptor_glider_3dof,0.033,-14.606919086683646,0.0,-0.00829844502403573,11.827169679451117,0.0,-0.5743083786023104,0.0,0.0,0.0,-27.960153816107784,-0.48799674345513794,-0.02060604709385554,0.0,0.0,0.0,0.0,0.0,-0.012600089070953748,-0.7219319252545643,0.0,0.0,11.841105216163761,0.00829844502403573,0.03479710016798543,-0.048520283470128045,-2.7800074636167094,0.0,0.0,0.03592019439917429,2.0580755383621447,-4.920381711951224,0.0,-13.075183426221965,11.833466983119429,0.0,-0.42524334172684025,0.0,-1.8120966023784644,0.0,0.0,-0.48799674345513794,0.0,-0.050123167003641445,0.3490658503988659,1.0,0.14,0.14,0.75,0.08726646259971647,5.0,0.184,0.175,0.174,0.0,0.0,0.0,-0.011707086255161902,0.0,0.0013719650532592012,0.0,6.082297033988451,0.0,-0.5212647536853354,0.0,0.1365501071056423,0.0,-3.7631756036822823,0.0,-0.02751204373489808,0.0,-0.005651368585315252,0.41370638730157566,-0.018963690142470135,0.0898489122658724,0.0,0.0,0.0,0.3961598934246099,0.0898489122658724,0.0,0.0,-0.008107505822800582,0.0,0.0,-0.002884846593139776,0.0,1.0802680026209992,0.0,4.763094465985029,0.0,-0.013646899512512215,0.0,85.87972657797317,-1.310012684035192,0.0,-4.705094538588027,0.0,-0.013646899512512215,0.0
sim_raptor_glider_3dof,raptor_glider_3dof,0.034,-14.595087892561152,0.0,-0.00872734025660867,11.822249110739271,0.0,-0.587278501078031,0.0,0.0,0.0,-28.0613137084086,-0.4897623166467501,-0.02068807470567479,0.0,0.0,0.0,0.0,0.0,-0.013088980062912951,-0.7499433157357909,0.0,0.0,11.836826858335131,0.00872734025660867,0.03478452748636496,-0.04963489930726802,-2.843870246863271,0.0,0.0,0.03654591924435507,2.09392693112748,-4.920631616029094,0.0,-12.865673125425308,11.828923080174437,0.0,-0.43249143057456907,0.0,-1.7195111571257595,0.0,0.0,-0.4897623166467501,0.0,-0.050123167003641445,0.3490658503988659,1.0,0.14,0.14,0.75,0.08726646259971647,5.0,0.184,0.175,0.174,0.0,0.0,0.0,-0.011754741102005322,0.0,0.0013610889792200615,0.0,6.082351436915289,0.0,-0.5213698344849391,0.0,0.13524818218607054,0.0,-3.7626176669929,0.0,-0.02717658278516526,0.0,-0.005555072044106724,0.40894688352228226,-0.018596615597438637,0.089677815512542,0.0,0.0,0.0,0.3913303837944522,0.089677815512542,0.0,0.0,-0.0076988314437289075,0.0,0.0,-0.002896330458794471,0.0,1.0774318739385538,0.0,4.701629118985199,0.0,-0.012949638524314095,0.0,85.81767868361635,-1.3093740324722971,0.0,-4.642382519628851,0.0,-0.012949638524314095,0.0
sim_raptor_glider_3dof,raptor_glider_3dof,0.034999999999999996,-14.583261238166028,0.0,-0.00916336269766699,11.817328557109432,0.0,-0.6000404572108731,0.0,0.0,0.0,-28.157226283066173,-0.4914363068685896,-0.020766284352107835,0.0,0.0,0.0,0.0,0.0,-0.013579587112363052,-0.7780530290686477,0.0,0.0,11.83255267374559,0.00916336269766699,0.034771967068516825,-0.050732749696436846,-2.9067724406994397,0.0,0.0,0.03715316258407379,2.128719411630792,-4.9203930802314355,0.0,-12.658661134600516,11.824387036747433,0.0,-0.43951562220603924,0.0,-1.6287831033065625,0.0,0.0,-0.4914363068685896,0.0,-0.050123167003641445,0.3490658503988659,1.0,0.14,0.14,0.75,0.08726646259971647,5.0,0.184,0.175,0.174,0.0,0.0,0.0,-0.01180165916034045,0.0,0.0013502843093633394,0.0,6.082399327591147,0.0,-0.5214719109171272,0.0,0.13396543667450728,0.0,-3.762063503449043,0.0,-0.02684632871277152,0.0,-0.005461114892374219,0.4042570502297164,-0.018235252071520377,0.08951197319274817,0.0,0.0,0.0,0.3865738134725406,0.08951197319274817,0.0,0.0,-0.0072978808066569995,0.0,0.0,-0.002907279809295097,0.0,1.0746628404510365,0.0,4.641127858234347,0.0,-0.012266365551001723,0.0,85.755713702675,-1.308636334247039,0.0,-4.580659227863791,0.0,-0.012266365551001723,0.0
sim_raptor_glider_3dof,raptor_glider_3dof,0.036,-14.571439115797471,0.0,-0.009606298557569429,11.812408480083917,0.0,-0.6125966480906684,0.0,0.0,0.0,-28.247993198142108,-0.49302048838854273,-0.020840746960611042,0.0,0.0,0.0,0.0,0.0,-0.014071822992238144,-0.806256067510399,0.0,0.0,11.828282578363199,0.009606298557569429,0.03475941866749889,-0.051814017419922226,-2.9687245177788704,0.0,0.0,0.03774219442768408,2.1624684502684715,-4.919682266248393,0.0,-12.454134923056548,11.819859042354254,0.0,-0.44631936154139434,0.0,-1.5398848732306667,0.0,0.0,-0.49302048838854273,0.0,-0.050123167003641445,0.3490658503988659,1.0,0.14,0.14,0.75,0.08726646259971647,5.0,0.184,0.175,0.174,0.0,0.0,0.0,-0.011847850577297201,0.0,0.0013395549633685362,0.0,6.0824409737808605,0.0,-0.5215710667921674,0.0,0.1327016787301086,0.0,-3.7615132274252887,0.0,-0.026521217925628796,0.0,-0.005369443847963996,0.39963634952789623,-0.01787953267626155,0.08935124936748659,0.0,0.0,0.0,0.3818895836746575,0.08935124936748659,0.0,0.0,-0.006904548325614894,0.0,0.0,-0.002917704574485546,0.0,1.0719591127051813,0.0,4.5815813675259,0.0,-0.011596872980300151,0.0,85.69383035200408,-1.307804425489432,0.0,-4.519915015931432,0.0,-0.011596872980300151,0.0
sim_raptor_glider_3dof,raptor_glider_3dof,0.037,-14.559621517318396,0.0,-0.010055929407254938,11.807489343380752,0.0,-0.6249495498252554,0.0,0.0,0.0,-28.333718368184783,-0.4945166748576194,-0.020911535189986827,0.0,0.0,0.0,0.0,0.0,-0.014565598906903295,-0.8345473434459241,0.0,0.0,11.824016514445368,0.010055929407254938,0.034746882113624755,-0.05287889179166018,-3.0297373249911,0.0,0.0,0.038313292884756885,2.1951899815451763,-4.918515079303358,0.0,-12.252080518952374,11.815339289320265,0.0,-0.4529061846803078,0.0,-1.4527883488568678,0.0,0.0,-0.4945166748576194,0.0,-0.050123167003641445,0.3490658503988659,1.0,0.14,0.14,0.75,0.08726646259971647,5.0,0.184,0.175,0.174,0.0,0.0,0.0,-0.011893325598737724,0.0,0.001328904505843042,0.0,6.082476635563557,0.0,-0.5216673842745458,0.0,0.13145670809948534,0.0,-3.7609669440652786,0.0,-0.026201185174346064,0.0,-0.005280005972791493,0.39508419886237317,-0.017529388507150655,0.08919550960815922,0.0,0.0,0.0,0.3772770494734128,0.08919550960815922,0.0,0.0,-0.0065187255432628925,0.0,0.0,-0.002927614926598156,0.0,1.0693189293153342,0.0,4.522979826792246,0.0,-0.010940949055241072,0.0,85.63202773106524,-1.3068829910978423,0.0,-4.460139721324979,0.0,-0.010940949055241072,0.0
sim_raptor_glider_3dof,raptor_glider_3dof,0.038,-14.547808434408047,0.0,-0.010512039870296062,11.802571596529154,0.0,-0.6371016278073176,0.0,0.0,0.0,-28.414504326479978,-0.4959266558192494,-0.020978720783680023,0.0,0.0,0.0,0.0,0.0,-0.015060827647791987,-0.862921860192424,0.0,0.0,11.819754429570501,0.010512039870296062,0.034734357252844635,-0.05392756149427149,-3.089821673053968,0.0,0.0,0.038866733846479505,2.226899812861544,-4.916907028389504,0.0,-12.052483216226971,11.810827956919423,0.0,-0.4592795961089791,0.0,-1.3674659135620992,0.0,0.0,-0.4959266558192494,0.0,-0.050123167003641445,0.3490658503988659,1.0,0.14,0.14,0.75,0.08726646259971647,5.0,0.184,0.175,0.174,0.0,0.0,0.0,-0.011938093714534428,0.0,0.0013183356177589808,0.0,6.082506563376818,0.0,-0.5217609407109061,0.0,0.13023032624188652,0.0,-3.7604247552058774,0.0,-0.0258861650436345,0.0,-0.005192747904781825,0.39060000290586105,-0.01718475201115404,0.08904462175853378,0.0,0.0,0.0,0.37273555394574337,0.08904462175853378,0.0,0.0,-0.006140305875703704,0.0,0.0,-0.002937020909715203,0.0,1.0667405621680264,0.0,4.465313305887416,0.0,-0.010298385795036169,0.0,85.57030501763114,-1.305876558411824,0.0,-4.401323069362241,0.0,-0.010298385795036169,0.0
sim_raptor_glider_3dof,raptor_glider_3dof,0.039,-14.5359998585489,0.0,-0.010974418522174357,11.79765567167485,0.0,-0.6490553304989961,0.0,0.0,0.0,-28.49045182804139,-0.49725218978015956,-0.0210423742814081,0.0,0.0,0.0,0.0,0.0,-0.015557424020963509,-0.8913747364966559,0.0,0.0,11.815496272668826,0.010974418522174357,0.03472184393508133,-0.054960214070461436,-3.148988307372963,0.0,0.0,0.03940279004949793,2.257613570876307,-4.914873217847685,0.0,-11.855327625082799,11.806325208532208,0.0,-0.46544305755680504,0.0,-1.2838905005755799,0.0,0.0,-0.49725218978015956,0.0,-0.050123167003641445,0.3490658503988659,1.0,0.14,0.14,0.75,0.08726646259971647,5.0,0.184,0.175,0.174,0.0,0.0,0.0,-0.011982163694312764,0.0,0.0013078501663861962,0.0,6.0825309983351215,0.0,-0.5218518088658136,0.0,0.12902233679718958,0.0,-3.7598867595615677,0.0,-0.025576092152680314,0.0,-0.005107616011124542,0.386183156528183,-0.01684555706732025,0.08889845601644107,0.0,0.0,0.0,0.3682644313898502,0.08889845601644107,0.0,0.0,-0.005769184844263524,0.0,0.0,-0.002945932399397135,0.0,1.0642223165558462,0.0,4.408571800238536,0.0,-0.009668979359834693,0.0,85.50866141019421,-1.3047895001525947,0.0,-4.343454709929122,0.0,-0.009668979359834693,0.0
sim_raptor_glider_3dof,raptor_glider_3dof,0.04,-14.52419578108122,0.0,-0.011442857115249023,11.792741987241985,0.0,-0.6608130917059203,0.0,0.0,0.0,-28.561660207426822,-0.49849501045544464,-0.021102565274995145,0.0,0.0,0.0,0.0,0.0,-0.016055304441208364,-0.9199011832788858,0.0,0.0,11.81124199734431,0.011442857115249023,0.03470934202399221,-0.055977036100369866,-3.207247918202641,0.0,0.0,0.039921731659161505,2.287346734923756,-4.9124283780276725,0.0,-11.660597728624602,11.80183119538912,0.0,-0.4713999950893163,0.0,-1.20203530599793,0.0,0.0,-0.49849501045544464,0.0,-0.050123167003641445,0.3490658503988659,1.0,0.14,0.14,0.75,0.08726646259971647,5.0,0.184,0.175,0.174,0.0,0.0,0.0,-0.012025544212173398,0.0,0.001297449880788796,0.0,6.082550174344643,0.0,-0.5219400597813182,0.0,0.12783254350892873,0.0,-3.7593530503092905,0.0,-0.025270901807644082,0.0,-0.005024557870428289,0.38183304436177223,-0.016511737830721886,0.08875688524198068,0.0,0.0,0.0,0.3638630066688165,0.08875688524198068,0.0,0.0,-0.005405258791695337,0.0,0.0,-0.0029543591384993207,0.0,1.0617625353374334,0.0,4.3527452256002865,0.0,-0.009052527889470412,0.0,85.44709617599297,-1.3036260424054804,0.0,-4.286524212225388,0.0,-0.009052527889470412,0.0
sim_raptor_glider_3dof,raptor_glider_3dof,0.04,-14.52419578108122,0.0,-0.011442857115249023,11.792741987241985,0.0,-0.6608130917059203,0.0,0.0,0.0,-28.561660207426822,-0.49849501045544464,-0.021102565274995145,0.0,0.0,0.0,0.0,0.0,-0.016055304441208364,-0.9199011832788858,0.0,0.0,11.81124199734431,0.011442857115249023,0.03470934202399221,-0.055977036100369866,-3.207247918202641,0.0,0.0,0.039921731659161505,2.287346734923756,-4.915298711369392,0.0,-11.650874611782076,11.80183119538912,0.0,-0.4713999950893163,0.0,-1.0903765377517152,0.0,0.0,-0.49849501045544464,0.0,-0.05099784793379397,0.3490658503988659,1.0,0.14,0.14,0.75,0.08726646259971647,5.0,0.184,0.175,0.174,0.0,0.0,0.0,-0.012156981542131308,0.0,0.0013360465554954168,0.0,6.082341214307765,0.0,-0.5219709827213984,0.0,0.12783049231641577,0.0,-3.758669992092104,0.0,-0.025232658463841554,0.0,-0.005039339340210973,0.38161295060445083,-0.016007617658794833,0.088835271401756,0.0,0.0,0.0,0.36364353025448964,0.088835271401756,0.0,0.0,-0.004903156619054357,0.0,0.0,-0.0029543591384993207,0.0,1.0627002371000798,0.0,4.350119718480618,0.0,-0.008211625705808167,0.0,85.44709617599297,-1.3044153840744532,0.0,-4.283850355093693,0.0,-0.008211625705808167,0.0
sim_raptor_glider_3dof,raptor_glider_3dof,0.041,-14.51239621384368,0.0,-0.011917155091681479,11.787828156937977,0.0,-0.672366459832786,0.0,0.0,0.0,-28.62183881625641,-0.49954532531879065,-0.0211546466686649,0.0,0.0,0.0,0.0,0.0,-0.016554329558561266,-0.9484932163742278,0.0,0.0,11.806988155910373,0.011917155091681479,0.034696841387964306,-0.05697730745412944,-3.2645592451409025,0.0,0.0,0.040422977895568174,2.3160660287666746,-4.9123834282557555,0.0,-11.457589330065755,11.797343058851425,0.0,-0.4771436529788223,0.0,-1.0109685603825174,0.0,0.0,-0.49954532531879065,0.0,-0.05099784793379397,0.3490658503988659,1.0,0.14,0.14,0.75,0.08726646259971647,5.0,0.184,0.175,0.174,0.0,0.0,0.0,-0.012200023038479049,0.0,0.0013256870016664405,0.0,6.082353000952836,0.0,-0.5220567622885569,0.0,0.1266597592692515,0.0,-3.758135150535359,0.0,-0.024932485238543616,0.0,-0.004958377364302145,0.3773330474117859,-0.015679637666971936,0.08869850306461106,0.0,0.0,0.0,0.3593192434008908,0.08869850306461106,0.0,0.0,-0.004549354692998792,0.0,0.0,-0.0029616505336130866,0.0,1.0602999821532306,0.0,4.295294443557331,0.0,-0.007613604228240739,0.0,85.38555938850119,-1.3031812770709417,0.0,-4.227943822722857,0.0,-0.007613604228240739,0.0
sim_raptor_glider_3dof,raptor_glider_3dof,0.042,-14.500601110358112,0.0,-0.012397071322284708,11.782917422338382,0.0,-0.683728609472456,0.0,0.0,0.0,-28.67753576138669,-0.5005174203946167,-0.021203445086782534,0.0,0.0,0.0,0.0,0.0,-0.0170543609353272,-0.9771429038870316,0.0,0.0,11.802738148118705,0.012397071322284708,0.03468435201774576,-0.05796210965100553,-3.320984254677114,0.0,0.0,0.04090774871567833,2.343841350790082,-4.909085607622635,0.0,-11.266709949167304,11.792863915123794,0.0,-0.4826887945950517,0.0,-0.9332217200439547,0.0,0.0,-0.5005174203946167,0.0,-0.05099784793379397,0.3490658503988659,1.0,0.14,0.14,0.75,0.08726646259971647,5.0,0.184,0.175,0.174,0.0,0.0,0.0,-0.012242386135320674,0.0,0.0013154160296287712,0.0,6.0823600218147735,0.0,-0.5221400605207944,0.0,0.1255068405051759,0.0,-3.757604871273739,0.0,-0.024637070340595167,0.0,-0.004879388174559249,0.3731186591047255,-0.015356902709994982,0.08856607840720085,0.0,0.0,0.0,0.35506328096384276,0.08856607840720085,0.0,0.0,-0.004202519113571883,0.0,0.0,-0.0029684823121495546,0.0,1.0579549327145175,0.0,4.241363694510794,0.0,-0.007028092773651023,0.0,85.32410019575207,-1.3018790315444524,0.0,-4.17295406348957,0.0,-0.007028092773651023,0.0
sim_raptor_glider_3dof,raptor_glider_3dof,0.043000000000000003,-14.4888104814674,0.0,-0.012882434712973366,11.778010170134774,0.0,-0.6949010777912338,0.0,0.0,0.0,-28.728825145999142,-0.5014125890274257,-0.021249011879943644,0.0,0.0,0.0,0.0,0.0,-0.017555325976063015,-1.0058460864047933,0.0,0.0,11.798491898361993,0.012882434712973366,0.03467187369115164,-0.0589315541671582,-3.376529333924764,0.0,0.0,0.04137622819109518,2.3706832475199704,-4.905418344738818,0.0,-11.07822859120157,11.788393875729202,0.0,-0.4880378124528907,0.0,-0.8571170024006505,0.0,0.0,-0.5014125890274257,0.0,-0.05099784793379397,0.3490658503988659,1.0,0.14,0.14,0.75,0.08726646259971647,5.0,0.184,0.175,0.174,0.0,0.0,0.0,-0.012284076265889074,0.0,0.001305235857972379,0.0,6.082362489771793,0.0,-0.5222209378986785,0.0,0.12437162467696947,0.0,-3.7570792694045014,0.0,-0.024346372831444824,0.0,-0.004802328678406878,0.368969452656921,-0.015039371340808929,0.08843788763130353,0.0,0.0,0.0,0.35087526566446114,0.08843788763130353,0.0,0.0,-0.0038625802566836544,0.0,0.0,-0.0029748616631921107,0.0,1.0556636474369643,0.0,4.188321008875495,0.0,-0.006454948145079299,0.0,85.2627174451046,-1.3005124799965015,0.0,-4.1188743485667425,0.0,-0.006454948145079299,0.0
