name,vehicle,t,north,east,down,u,v,w,p_rad,p_deg,p_hat_div_b,q_deg,q_rad,q_hat_div_c,r_rad,r_deg,r_hat_div_b,phi_rad,phi_deg,theta_rad,theta_deg,psi_rad,psi_deg,speed,altitude,mach,alpha_rad,alpha_deg,beta_rad,beta_deg,gamma_rad,gamma_deg,u_dot,v_dot,w_dot,north_dot,east_dot,down_dot,p_rad_dot,q_rad_dot,r_rad_dot,phi_rad_dot,theta_rad_dot,psi_rad_dot,del_tail_alt_rad,del_tail_splay_rad,DIM_b,DIM_c_bar,DIM_S,DIM_wing_position,DIM_wing_incidence_rad,DIM_wing_incidence_deg,DIM_empennage_length,DIM_nose_length,DIM_tail_length,CDp,CDq,CDr,CYp,CYq,CYr,CLp,CLq,CLr,Clp,Clq,Clr,Cmp,Cmq,Cmr,Cnp,Cnq,Cnr,CL_0,Cm_0,CD_0,Cl_0,CY_0,Cn_0,CL,CD,CY,Cl,Cm,Cn,p_hat,q_hat,r_hat,drag_force_wind,side_force_wind,lift_force_wind,roll_moment_wind,pitch_moment_wind,yaw_moment_wind,qbar,X_total,Y_total,Z_total,L_total,M_total,N_total
sim_raptor_glider_3dof,raptor_glider_3dof,0.0,-15.0,0.0,0.0,12.0,0.0,0.0,0.0,0.0,0.0,0.0,0.0,0.0,0.0,0.0,0.0,0.0,0.0,0.0,0.0,0.0,0.0,12.0,-0.0,0.035264039495724236,0.0,0.0,0.0,0.0,0.0,0.0,-7.487178041450953,0.0,-25.024054441263395,12.0,0.0,0.0,0.0,-89.41363838472799,0.0,0.0,0.0,0.0,0.4363323129985824,0.3490658503988659,1.0,0.14,0.14,0.75,0.08726646259971647,5.0,0.184,0.175,0.174,0.0,0.0,0.0,-0.053153656886407115,0.0,0.055671173493162154,0.0,6.024209384397437,0.0,-0.5269202128147928,0.0,0.19813275846416445,0.0,-3.4552995296441478,0.0,-0.03588346466142729,0.0,-0.029845922084054996,0.7757079658211316,-0.38952171953159265,0.1667455120831285,0.0,0.0,0.0,0.7757079658211316,0.1667455120831285,0.0,0.0,-0.38952171953159265,0.0,0.0,0.0,0.0,2.0589739613990123,0.0,9.578443721347433,0.0,-0.6733741106753866,0.0,88.20001620075907,-2.0589739613990123,0.0,-9.578443721347433,0.0,-0.6733741106753866,0.0
sim_raptor_glider_3dof,raptor_glider_3dof,0.001,-14.988003746590733,0.0,-0.000012415174634177188,11.992502827180262,0.0,-0.02526770405029525,0.0,0.0,0.0,-5.103039651887635,-0.0890648437852645,-0.0037133468875430262,0.0,0.0,0.0,0.0,0.0,-0.000044590487564095195,-0.0025548467438532376,0.0,0.0,11.992529446150822,0.000012415174634177188,0.03524208600355821,-0.002106955238988487,-0.12071964281701804,0.0,0.0,0.002062364751424392,0.1181647960731648,-7.507675599275719,0.0,-25.508550485583747,11.99250394195709,0.0,-0.024732952477174667,0.0,-88.71856693472195,0.0,0.0,-0.0890648437852645,0.0,0.4363323129985824,0.3490658503988659,1.0,0.14,0.14,0.75,0.08726646259971647,5.0,0.184,0.175,0.174,0.0,0.0,0.0,-0.053430186057496054,0.0,0.0554080780660455,0.0,6.0240249874908525,0.0,-0.5274002219771142,0.0,0.1957017793236076,0.0,-3.453669819760639,0.0,-0.03525814560644711,0.0,-0.029499655008724115,0.7671435812705255,-0.38877083359862435,0.165760584735996,0.0,0.0,0.0,0.7640118800492363,0.165760584735996,0.0,0.0,-0.386975379228011,0.0,0.0,-0.0005198685642560238,0.0,2.0442643995802876,0.0,9.422277857722193,0.0,-0.6681395275853911,0.0,88.09023322213056,-2.064112165078258,0.0,-9.417949773357746,0.0,-0.6681395275853911,0.0
sim_raptor_glider_3dof,raptor_glider_3dof,0.002,-14.976014997218163,0.0,-0.000049270492086499364,11.984983638081903,0.0,-0.051011581957007696,0.0,0.0,0.0,-10.166686259086081,-0.1774421492383174,-0.0074026192836820276,0.0,0.0,0.0,0.0,0.0,-0.00017790069037163533,-0.010192958730758345,0.0,0.0,11.985092197667264,0.000049270492086499364,0.03522023038486956,-0.004256265628603735,-0.24386605700559036,0.0,0.0,0.0040783649382321,0.233673098274832,-7.5312069778045,0.0,-25.97647568606275,11.984992523423195,0.0,-0.04887944429772272,0.0,-88.03854836579413,0.0,0.0,-0.1774421492383174,0.0,0.4363323129985824,0.3490658503988659,1.0,0.14,0.14,0.75,0.08726646259971647,5.0,0.184,0.175,0.174,0.0,0.0,0.0,-0.05371000072613438,0.0,0.05518325282971427,0.0,6.023796383437123,0.0,-0.5278990096560925,0.0,0.1932332307470952,0.0,-3.4519868033346692,0.0,-0.03462545852853912,0.0,-0.029153229463314653,0.758374006898808,-0.388063512765844,0.16478068235403653,0.0,0.0,0.0,0.7521311449211472,0.16478068235403653,0.0,0.0,-0.38448598859501065,0.0,0.0,-0.001036366699715484,0.0,2.0296598650783366,0.0,9.264255835778041,0.0,-0.6630183077427956,0.0,87.98100758981425,-2.069072495287059,0.0,-9.25553317577674,0.0,-0.6630183077427956,0.0
sim_raptor_glider_3dof,raptor_glider_3dof,0.003,-14.964033765483153,0.0,-0.00010997650410396534,11.977439408842296,0.0,-0.07721526894416839,0.0,0.0,0.0,-15.191799193026208,-0.2651469152201249,-0.011068367643203196,0.0,0.0,0.0,0.0,0.0,-0.0003992506169425001,-0.022875375318799577,0.0,0.0,11.97768829909372,0.00010997650410396534,0.035198472770559576,-0.006446636600632963,-0.3693650692708328,0.0,0.0,0.006047385983690463,0.3464896939520332,-7.557751963901034,0.0,-26.428240508352538,11.977469282477013,0.0,-0.07243326284374174,0.0,-87.37346069275941,0.0,0.0,-0.2651469152201249,0.0,0.4363323129985824,0.3490658503988659,1.0,0.14,0.14,0.75,0.08726646259971647,5.0,0.184,0.175,0.174,0.0,0.0,0.0,-0.0539933342342998,0.0,0.0549956890768542,0.0,6.023523849844041,0.0,-0.5284156910211553,0.0,0.1907277346999606,0.0,-3.450251759098094,0.0,-0.033984927296559594,0.0,-0.028807107836358457,0.7494038488665931,-0.387399686775176,0.16380724554970857,0.0,0.0,0.0,0.7400699681597184,0.16380724554970857,0.0,0.0,-0.38205327508479314,0.0,0.0,-0.0015495714700484477,0.0,2.015177614704102,0.0,9.104435082498677,0.0,-0.6580095324771711,0.0,87.87233904709669,-2.0738283182350847,0.0,-9.09125486919839,0.0,-0.6580095324771711,0.0
sim_raptor_glider_3dof,raptor_glider_3dof,0.004,-14.95206006146447,0.0,-0.00019393750269191865,11.969867139046595,0.0,-0.10386280993339823,0.0,0.0,0.0,-20.179227607931264,-0.35219396226773997,-0.01471113674262299,0.0,0.0,0.0,0.0,0.0,-0.0007079751977142588,-0.040563990828967035,0.0,0.0,11.970317740549529,0.00019393750269191865,0.03517681313159225,-0.008676805031272569,-0.49714430794979647,0.0,0.0,0.00796882983355831,0.4565803171208294,-7.587282867422961,0.0,-26.864252771312174,11.96993767151242,0.0,-0.09538841555743248,0.0,-86.72306067972036,0.0,0.0,-0.35219396226773997,0.0,0.4363323129985824,0.3490658503988659,1.0,0.14,0.14,0.75,0.08726646259971647,5.0,0.184,0.175,0.174,0.0,0.0,0.0,-0.054280487125545326,0.0,0.054843901706905056,0.0,6.023207997132767,0.0,-0.5289492506950555,0.0,0.18818569052618506,0.0,-3.4484661334741316,0.0,-0.033335929119057396,0.0,-0.028461722112779208,0.7402377623774763,-0.38677875516894367,0.16284159593212236,0.0,0.0,0.0,0.727832609270965,0.16284159593212236,0.0,0.0,-0.37967643521108574,0.0,0.0,-0.0020595591439672187,0.0,2.000833340210975,0.0,8.942873240625298,0.0,-0.6531113699789741,0.0,87.76422654166264,-2.078352616244555,0.0,-8.925175978978858,0.0,-0.6531113699789741,0.0
sim_raptor_glider_3dof,raptor_glider_3dof,0.005,-14.94009389182307,0.0,-0.0003005518855746,11.962263859629724,0.0,-0.13093865674169305,0.0,0.0,0.0,-25.12980322664479,-0.4385978066832464,-0.01833146045868009,0.0,0.0,0.0,0.0,0.0,-0.0011034240774344013,-0.06322154265010774,0.0,0.0,11.962980463882431,0.0003005518855746,0.035155251297077285,-0.010945539172903748,-0.6271331991024985,0.0,0.0,0.009842115095469346,0.5639116564523908,-7.619764933048298,0.0,-27.284916404279006,11.96240105817221,0.0,-0.11773912974501546,0.0,-86.08698535636344,0.0,0.0,-0.4385978066832464,0.0,0.4363323129985824,0.3490658503988659,1.0,0.14,0.14,0.75,0.08726646259971647,5.0,0.184,0.175,0.174,0.0,0.0,0.0,-0.05457182683161292,0.0,0.05472593032343835,0.0,6.022849768199583,0.0,-0.529498543215881,0.0,0.18560727572066893,0.0,-3.446631540314975,0.0,-0.03267769521599154,0.0,-0.028117473742245224,0.7308804509402165,-0.3861995880247053,0.16188493539638366,0.0,0.0,0.0,0.7154233824078116,0.16188493539638366,0.0,0.0,-0.37735413745313595,0.0,0.0,-0.002566404464215213,0.0,1.9866411722863777,0.0,8.779628219436473,0.0,-0.6483210867187731,0.0,87.65666831823584,-2.0826180146542357,0.0,-8.757357879177162,0.0,-0.6483210867187731,0.0
sim_raptor_glider_3dof,raptor_glider_3dof,0.006,-14.92813525992473,0.0,-0.0004292124397594923,11.954626639550906,0.0,-0.15842765930436845,0.0,0.0,0.0,-30.04433358782197,-0.5243725426750143,-0.02192985685369944,0.0,0.0,0.0,0.0,0.0,-0.0015849610904613313,-0.09081158117588696,0.0,0.0,11.955676367913814,0.0004292124397594923,0.03513378696968413,-0.01325163807797221,-0.7592629335026617,0.0,0.0,0.01166667698751088,0.6684513523267749,-7.65515672930522,0.0,-27.690630360815796,11.954862725505864,0.0,-0.13947985016959272,0.0,-85.46475387002384,0.0,0.0,-0.5243725426750143,0.0,0.4363323129985824,0.3490658503988659,1.0,0.14,0.14,0.75,0.08726646259971647,5.0,0.184,0.175,0.174,0.0,0.0,0.0,-0.05486778710977721,0.0,0.05463934182373924,0.0,6.022450437086101,0.0,-0.5300622937916623,0.0,0.18299244783751023,0.0,-3.444749760445701,0.0,-0.03200931203935526,0.0,-0.02777473367758559,0.7213366671206888,-0.3856605284654083,0.16093834608201854,0.0,0.0,0.0,0.7028466604815571,0.16093834608201854,0.0,0.0,-0.37508452678533377,0.0,0.0,-0.003070179959517922,0.0,1.9726136922696764,0.0,8.61475825857789,0.0,-0.6436350613951496,0.0,87.54966199755503,-2.0865968109073574,0.0,-8.58786227075033,0.0,-0.6436350613951496,0.0
sim_raptor_glider_3dof,raptor_glider_3dof,0.007,-14.916184165882276,0.0,-0.0005793064854676666,11.946952592434664,0.0,-0.18631506489291877,0.0,0.0,0.0,-34.923595341205655,-0.6095317253381911,-0.025506823267053384,0.0,0.0,0.0,0.0,0.0,-0.00215196395569408,-0.12329845232554847,0.0,0.0,11.94840531406963,0.0005793064854676666,0.03511241974218939,-0.015593931681301612,-0.8934664713539263,0.0,0.0,0.013441967725607532,0.7701680190283778,-7.693410528399182,0.0,-28.081787400130356,11.947325872576652,0.0,-0.1606052419691676,0.0,-84.85576962259707,0.0,0.0,-0.6095317253381911,0.0,0.4363323129985824,0.3490658503988659,1.0,0.14,0.14,0.75,0.08726646259971647,5.0,0.184,0.175,0.174,0.0,0.0,0.0,-0.05516886739682447,0.0,0.05458123429015566,0.0,6.022011606567932,0.0,-0.5306390995932566,0.0,0.18034094615955698,0.0,-3.442822740123928,0.0,-0.031329722669104235,0.0,-0.027433842397851762,0.7116112100401488,-0.3851593965008954,0.16000279048359145,0.0,0.0,0.0,0.6901068760336266,0.16000279048359145,0.0,0.0,-0.3728652305367967,0.0,0.0,-0.0035709552573874744,0.0,1.9587619456352325,0.0,8.448321951825605,0.0,-0.6390488010277785,0.0,87.4432046606849,-2.090261009781001,0.0,-8.416751218395161,0.0,-0.6390488010277785,0.0
sim_raptor_glider_3dof,raptor_glider_3dof,0.008,-14.904240606651282,0.0,-0.0007502161182813057,11.939238882633015,0.0,-0.21458650998107728,0.0,0.0,0.0,-39.768327695755914,-0.6940882563029905,-0.02906283149078703,0.0,0.0,0.0,0.0,0.0,-0.0028038236298313884,-0.16064726048838937,0.0,0.0,11.941167131685324,0.0007502161182813057,0.035091149113066274,-0.017971280258754233,-1.0296785112733915,0.0,0.0,0.015167456628922844,0.8690312507850021,-7.734472659743328,0.0,-28.458772998507442,11.939793614875626,0.0,-0.18111019026309105,0.0,-84.25932271685393,0.0,0.0,-0.6940882563029905,0.0,0.4363323129985824,0.3490658503988659,1.0,0.14,0.14,0.75,0.08726646259971647,5.0,0.184,0.175,0.174,0.0,0.0,0.0,-0.05547563193059443,0.0,0.054548242134604644,0.0,6.021535204946049,0.0,-0.5312274312413525,0.0,0.17765229454057654,0.0,-3.440852589499303,0.0,-0.030637728722487007,0.0,-0.027095110104628704,0.7017089249620452,-0.38469349440195466,0.1590791122370665,0.0,0.0,0.0,0.6772085241452388,0.1590791122370665,0.0,0.0,-0.37069336574289874,0.0,0.0,-0.004068796408710184,0.0,1.9450954633896698,0.0,8.280378294547667,0.0,-0.634556959380627,0.0,87.33729292823296,-2.0935823601488033,0.0,-8.244087212286694,0.0,-0.634556959380627,0.0
sim_raptor_glider_3dof,raptor_glider_3dof,0.009000000000000001,-14.892304576113405,0.0,-0.0009413184291606596,11.931482731000013,0.0,-0.24322801242629782,0.0,0.0,0.0,-44.57922600410458,-0.7780542717623,-0.03259832301805841,0.0,0.0,0.0,0.0,0.0,-0.0035399435977275817,-0.2028238278641469,0.0,0.0,11.933961623290918,0.0009413184291606596,0.03506997450201568,-0.020382573901800104,-1.1678354601866447,0.0,0.0,0.01684263030407252,0.9650116323224979,-7.778283843616755,0.0,-28.821964269395146,11.932268984822977,0.0,-0.20098980076623565,0.0,-83.67459264387269,0.0,0.0,-0.7780542717623,0.0,0.4363323129985824,0.3490658503988659,1.0,0.14,0.14,0.75,0.08726646259971647,5.0,0.184,0.175,0.174,0.0,0.0,0.0,-0.055788708736007504,0.0,0.0545365423304085,0.0,6.021023482042527,0.0,-0.531825634606743,0.0,0.17492580464570248,0.0,-3.4388415806117196,0.0,-0.029931992558805562,0.0,-0.02675881698380161,0.6916347024036031,-0.3842596132891834,0.15816803727685969,0.0,0.0,0.0,0.6641561648322319,0.15816803727685969,0.0,0.0,-0.3685655476778038,0.0,0.0,-0.004563765222528177,0.0,1.9316222876944662,0.0,8.110986723910683,0.0,-0.6301533572010052,0.0,87.23192303897322,-2.096532395351765,0.0,-8.0699332223392,0.0,-0.6301533572010052,0.0
sim_raptor_glider_3dof,raptor_glider_3dof,0.01,-14.88037606515921,0.0,-0.0011519857253842968,11.923681420343334,0.0,-0.27222596258209436,0.0,0.0,0.0,-49.356935507178044,-0.8614410332947542,-0.03611370438294382,0.0,0.0,0.0,0.0,0.0,-0.004359739052099519,-0.24979464746366856,0.0,0.0,11.926788569792983,0.0011519857253842968,0.03504889526519434,-0.022826731891997996,-1.3078753974881616,0.0,0.0,0.01846699283989848,1.058080750024493,-7.824779502619,0.0,-29.171728920063018,11.924754932281528,0.0,-0.22023940058925584,0.0,-83.10065118556057,0.0,0.0,-0.8614410332947542,0.0,0.4363323129985824,0.3490658503988659,1.0,0.14,0.14,0.75,0.08726646259971647,5.0,0.184,0.175,0.174,0.0,0.0,0.0,-0.05610878847395166,0.0,0.05454186162840115,0.0,6.020479004498773,0.0,-0.5324319328652451,0.0,0.17216057968112747,0.0,-3.4367921450673697,0.0,-0.02921103978427371,0.0,-0.02642521354291394,0.6813934773072167,-0.3838540408424605,0.15727017538811427,0.0,0.0,0.0,0.6509544254455103,0.15727017538811427,0.0,0.0,-0.3664778994650984,0.0,0.0,-0.0050559186136121355,0.0,1.9183490019530007,0.0,7.940207158086878,0.0,-0.6258310040784566,0.0,87.12709092666549,-2.099082476605616,0.0,-7.894352751368246,0.0,-0.6258310040784566,0.0
sim_raptor_glider_3dof,raptor_glider_3dof,0.01,-14.88037606515921,0.0,-0.0011519857253842968,11.923681420343334,0.0,-0.27222596258209436,0.0,0.0,0.0,-49.356935507178044,-0.8614410332947542,-0.03611370438294382,0.0,0.0,0.0,0.0,0.0,-0.004359739052099519,-0.24979464746366856,0.0,0.0,11.926788569792983,0.0011519857253842968,0.03504889526519434,-0.022826731891997996,-1.3078753974881616,0.0,0.0,0.01846699283989848,1.058080750024493,-5.680015206505437,0.0,-20.07083996970912,11.924754932281528,0.0,-0.22023940058925584,0.0,21.916968126557872,0.0,0.0,-0.8614410332947542,0.0,-0.22218316208615044,0.3490658503988659,1.0,0.14,0.14,0.75,0.08726646259971647,5.0,0.184,0.175,0.174,0.0,0.0,0.0,-0.006972586676024363,0.0,0.013214272771034642,0.0,6.027312884042922,0.0,-0.5186045962135355,0.0,0.1652196093314448,0.0,-3.573839778395313,0.0,-0.0357232358742956,0.0,-0.013076084758089777,0.4751977070598075,0.07858584865587677,0.11361211190756867,0.0,0.0,0.0,0.44472410365931064,0.11361211190756867,0.0,0.0,0.0966548917135331,0.0,0.0,-0.0050559186136121355,0.0,1.3858169926357724,0.0,5.42465243835264,0.0,0.16505668696110734,0.0,87.12709092666549,-1.509272295174386,0.0,-5.3916082900209235,0.0,0.16505668696110734,0.0
sim_raptor_glider_3dof,raptor_glider_3dof,0.011,-14.868454011555311,0.0,-0.0013770810883677032,11.91799566947338,0.0,-0.2920130586598919,0.0,0.0,0.0,-48.10152443454103,-0.8395299766112445,-0.035210538378584365,0.0,0.0,0.0,0.0,0.0,-0.005210219070666419,-0.29852356308775985,0.0,0.0,11.921572564222144,0.0013770810883677032,0.03503356714632268,-0.024496958379568248,-1.4035723260568966,0.0,0.0,0.01928673930890183,1.1050487629691368,-5.691235491031556,0.0,-19.504624756560148,11.919355349726679,0.0,-0.2299140077422417,0.0,21.904787684702306,0.0,0.0,-0.8395299766112445,0.0,-0.22218316208615044,0.3490658503988659,1.0,0.14,0.14,0.75,0.08726646259971647,5.0,0.184,0.175,0.174,0.0,0.0,0.0,-0.007038050350696585,0.0,0.013213199815056809,0.0,6.027242936959373,0.0,-0.5188150977140049,0.0,0.16329507508713267,0.0,-3.5721574957937903,0.0,-0.035216325641779046,0.0,-0.012909471403645978,0.46824632178383624,0.07907686263800015,0.11333495808431626,0.0,0.0,0.0,0.4385351761589959,0.11333495808431626,0.0,0.0,0.09668572504199946,0.0,0.0,-0.004929475373001813,0.0,1.3812274157610132,0.0,5.344483452632185,0.0,0.16496495605349307,0.0,87.05090008714573,-1.5117234930603192,0.0,-5.309047431511476,0.0,0.16496495605349307,0.0
sim_raptor_glider_3dof,raptor_glider_3dof,0.012,-14.856537353290733,0.0,-0.0016117066353243587,11.912299748117887,0.0,-0.3112385098868691,0.0,0.0,0.0,-46.846900605805864,-0.8176326599258386,-0.034307133939525974,0.0,0.0,0.0,0.0,0.0,-0.006038799356056952,-0.3459977164283827,0.0,0.0,11.916364995209154,0.0016117066353243587,0.035018263819710106,-0.026121548615451087,-1.4966544900111463,0.0,0.0,0.020082749259394135,1.1506567735827637,-5.700318680953121,0.0,-18.9475358567695,11.913962040768546,0.0,-0.23929728408877474,0.0,21.889408511219152,0.0,0.0,-0.8176326599258386,0.0,-0.22218316208615044,0.3490658503988659,1.0,0.14,0.14,0.75,0.08726646259971647,5.0,0.184,0.175,0.174,0.0,0.0,0.0,-0.007101689893052073,0.0,0.013211868191618585,0.0,6.027162711292294,0.0,-0.5190166600678598,0.0,0.16142218731660787,0.0,-3.5705117412200793,0.0,-0.03472373529940246,0.0,-0.012749152532459337,0.46147409630897235,0.07955314369646524,0.1130707630867522,0.0,0.0,0.0,0.43252564133134536,0.1130707630867522,0.0,0.0,0.09670230713188148,0.0,0.0,-0.004802998751533638,0.0,1.3768040212266235,0.0,5.266640341073209,0.0,0.16484913549799143,0.0,86.97486572888664,-1.5138914840544175,0.0,-5.228883472558272,0.0,0.16484913549799143,0.0
sim_raptor_glider_3dof,raptor_glider_3dof,0.013000000000000001,-14.844626085380547,0.0,-0.0018555832695835188,11.906595690323739,0.0,-0.3299111025444825,0.0,0.0,0.0,-45.59324123196268,-0.7957521761537845,-0.03340362367559335,0.0,0.0,0.0,0.0,0.0,-0.0068454900871003505,-0.39221769068949236,0.0,0.0,11.911165445430516,0.0018555832695835188,0.03500298405898062,-0.027701176765625585,-1.5871605162162024,0.0,0.0,0.020855686678525234,1.19494282552671,-5.7073765389834294,0.0,-18.399516517467507,11.908575101046967,0.0,-0.2483975264412647,0.0,21.870916087555358,0.0,0.0,-0.7957521761537845,0.0,-0.22218316208615044,0.3490658503988659,1.0,0.14,0.14,0.75,0.08726646259971647,5.0,0.184,0.175,0.174,0.0,0.0,0.0,-0.007163524392822473,0.0,0.01321031373622813,0.0,6.027073186590595,0.0,-0.5192096179023049,0.0,0.15960024981831708,0.0,-3.568902624469684,0.0,-0.034245217581192186,0.0,-0.012594935314890074,0.45487961751827605,0.08001498617975315,0.11281900335184872,0.0,0.0,0.0,0.42669396567565765,0.11281900335184872,0.0,0.0,0.09670498540812035,0.0,0.0,-0.00467650731458307,0.0,1.3725399095151394,0.0,5.19109795016219,0.0,0.1647098690553794,0.0,86.89898160118835,-1.515794462120506,0.0,-5.151090261293692,0.0,0.1647098690553794,0.0
sim_raptor_glider_3dof,raptor_glider_3dof,0.014,-14.83272020099621,0.0,-0.002108416701793695,11.900885583199777,0.0,-0.3480403584346356,0.0,0.0,0.0,-44.34073199462971,-0.773891766050681,-0.032500145957076884,0.0,0.0,0.0,0.0,0.0,-0.007630310384141903,-0.43718458138617694,0.0,0.0,11.905973700437592,0.002108416701793695,0.03498772723394044,-0.029236579467334965,-1.675132610877134,0.0,0.0,0.02160626908319306,1.237948029490957,-5.712518333942262,0.0,-17.86049479342137,11.903194770554782,0.0,-0.25722365705535877,0.0,21.84940023748196,0.0,0.0,-0.773891766050681,0.0,-0.22218316208615044,0.3490658503988659,1.0,0.14,0.14,0.75,0.08726646259971647,5.0,0.184,0.175,0.174,0.0,0.0,0.0,-0.007223576928468994,0.0,0.013208569015178884,0.0,6.026975289724911,0.0,-0.5193943029044559,0.0,0.15782849005522373,0.0,-3.567330152247936,0.0,-0.03378050882163457,0.0,-0.012446624814635246,0.44846108461268624,0.08046269948059255,0.11257916174168799,0.0,0.0,0.0,0.42103822388928047,0.11257916174168799,0.0,0.0,0.09669412456811205,0.0,0.0,-0.0045500204339907644,0.0,1.3684283307588216,0.0,5.1178266473902445,0.0,0.16454783318847663,0.0,86.82324442312168,-1.5174499514701434,0.0,-5.0756370372539745,0.0,0.16454783318847663,0.0
sim_raptor_glider_3dof,raptor_glider_3dof,0.015,-14.820819693614713,0.0,-0.0023699427063607107,11.89517124758912,0.0,-0.36563506149215547,0.0,0.0,0.0,-43.089540107272,-0.752054348042047,-0.031596826212754295,0.0,0.0,0.0,0.0,0.0,-0.008393281558819557,-0.4808996095853453,0.0,0.0,11.900789385904757,0.0023699427063607107,0.03497249224457009,-0.030728432961382186,-1.760609519737885,0.0,0.0,0.022335151402562627,1.2797099101525395,-5.715848449984133,0.0,-17.330401044295762,11.897821101428345,0.0,-0.265783833348981,0.0,21.8249436955203,0.0,0.0,-0.752054348042047,0.0,-0.22218316208615044,0.3490658503988659,1.0,0.14,0.14,0.75,0.08726646259971647,5.0,0.184,0.175,0.174,0.0,0.0,0.0,-0.00728186960248775,0.0,0.013206663675260638,0.0,6.026869903345996,0.0,-0.5195710289881502,0.0,0.1561062010322147,0.0,-3.5657943546219806,0.0,-0.03332936605868278,0.0,-0.012304036056927651,0.4422168314568594,0.08089657207680384,0.11235074693753277,0.0,0.0,0.0,0.41555663692485306,0.11235074693753277,0.0,0.0,0.09667006191148139,0.0,0.0,-0.004423555669785601,0.0,1.3644628359617774,0.0,5.046798555211059,0.0,0.1643636509709634,0.0,86.74764858867898,-1.518874505603676,0.0,-5.002494849955218,0.0,0.1643636509709634,0.0
sim_raptor_glider_3dof,raptor_glider_3dof,0.016,-14.808924556540928,0.0,-0.00263989907869495,11.88945444885519,0.0,-0.38270410543791167,0.0,0.0,0.0,-41.83983190234378,-0.7302428251768616,-0.030693789152216922,0.0,0.0,0.0,0.0,0.0,-0.009134427929978168,-0.5233641686541701,0.0,0.0,11.895612196256295,0.00263989907869495,0.034957278192883405,-0.03217742376081921,-1.8436305770989136,0.0,0.0,0.023042995830841042,1.3202664084447435,-5.717467928173488,0.0,-16.80915904170997,11.892454171956171,0.0,-0.2740862850340384,0.0,21.797628950469257,0.0,0.0,-0.7302428251768616,0.0,-0.22218316208615044,0.3490658503988659,1.0,0.14,0.14,0.75,0.08726646259971647,5.0,0.184,0.175,0.174,0.0,0.0,0.0,-0.007338426165299779,0.0,0.013204624597965323,0.0,6.026757863752102,0.0,-0.5197401012162648,0.0,0.15443265997497474,0.0,-3.5642952146061355,0.0,-0.032891545498448735,0.0,-0.012166987127370334,0.4361450406879812,0.0813168922122172,0.11213328179074096,0.0,0.0,0.0,0.4102472757681751,0.11213328179074096,0.0,0.0,0.09663313382328992,0.0,0.0,-0.00429713048131037,0.0,1.360637186860801,0.0,4.977984148008841,0.0,0.164157943625984,0.0,86.67218950340416,-1.5200839205685046,0.0,-4.931633056759684,0.0,0.164157943625984,0.0
sim_raptor_glider_3dof,raptor_glider_3dof,0.017,-14.797034783006804,0.0,-0.0029180320861668836,11.883736849402228,0.0,-0.39925630303532356,0.0,0.0,0.0,-40.59176886267486,-0.7084600158621903,-0.029791156019191738,0.0,0.0,0.0,0.0,0.0,-0.009853776783518564,-0.5645798219596092,0.0,0.0,11.890441837936631,0.0029180320861668836,0.03494208421621743,-0.03358423277554706,-1.9242347962237774,0.0,0.0,0.0237304559920285,1.3596549742641681,-5.717474198899214,0.0,-16.29668844740206,11.887094035789453,0.0,-0.2821391246399879,0.0,21.76753671041669,0.0,0.0,-0.7084600158621903,0.0,-0.22218316208615044,0.3490658503988659,1.0,0.14,0.14,0.75,0.08726646259971647,5.0,0.184,0.175,0.174,0.0,0.0,0.0,-0.007393271260469009,0.0,0.01320247611988583,0.0,6.026639963369018,0.0,-0.5199018140883729,0.0,0.15280714680307705,0.0,-3.5628326856724586,0.0,-0.03246680721172858,0.0,-0.012035300743848122,0.43024381833183134,0.08172394325508568,0.11192630556989527,0.0,0.0,0.0,0.4051081383330002,0.11192630556989527,0.0,0.0,0.09658366987236586,0.0,0.0,-0.004170761842686844,0.0,1.356945369109056,0.0,4.9113531399111094,0.0,0.1639313189661481,0.0,86.59686275586779,-1.5210932133189268,0.0,-4.863020238088294,0.0,0.1639313189661481,0.0
sim_raptor_glider_3dof,raptor_glider_3dof,0.018000000000000002,-14.785150366198428,0.0,-0.0032040965725754914,11.878020009642206,0.0,-0.4153003798916902,0.0,0.0,0.0,-39.34550759879753,-0.686708653467465,-0.028889044579605613,0.0,0.0,0.0,0.0,0.0,-0.010551358366447008,-0.6045483025274643,0.0,0.0,11.885278025986553,0.0032040965725754914,0.03492690947717109,-0.03494953481031628,-2.002460840576677,0.0,0.0,0.02439817644386927,1.3979125380492126,-5.715961146356213,0.0,-15.792905272775457,11.881740720713221,0.0,-0.2899503418588946,0.0,21.734745876556776,0.0,0.0,-0.686708653467465,0.0,-0.22218316208615044,0.3490658503988659,1.0,0.14,0.14,0.75,0.08726646259971647,5.0,0.184,0.175,0.174,0.0,0.0,0.0,-0.007446430281665948,0.0,0.013200240226742306,0.0,6.0265169523897875,0.0,-0.5200564517277422,0.0,0.15122894487090902,0.0,-3.5614066936165987,0.0,-0.03205491517596656,0.0,-0.011908804305407658,0.424511203746235,0.08211800356683409,0.11172937371754332,0.0,0.0,0.0,0.4001371593806078,0.11172937371754332,0.0,0.0,0.09652199271015349,0.0,0.0,-0.0040444662411447865,0.0,1.353381587495237,0.0,4.84687460387448,0.0,0.1636843711963491,0.0,86.52166406741269,-1.5219166435717235,0.0,-4.796624321027644,0.0,0.1636843711963491,0.0
sim_raptor_glider_3dof,raptor_glider_3dof,0.019000000000000003,-14.773271299287147,0.0,-0.0034978548015886053,11.872305404157606,0.0,-0.4308449806327536,0.0,0.0,0.0,-38.101200543956374,-0.6649913984546931,-0.02798756959834918,0.0,0.0,0.0,0.0,0.0,-0.011227205439357475,-0.6432714874015044,0.0,0.0,11.880120496313424,0.0034978548015886053,0.0349117531996633,-0.03627399905523313,-2.078347051926394,0.0,0.0,0.025046793615875657,1.4350755645248896,-5.713019213457261,0.0,-15.297722310860944,11.876394242615866,0.0,-0.2975278153165492,0.0,21.699333694010893,0.0,0.0,-0.6649913984546931,0.0,-0.22218316208615044,0.3490658503988659,1.0,0.14,0.14,0.75,0.08726646259971647,5.0,0.184,0.175,0.174,0.0,0.0,0.0,-0.007497929277436029,0.0,0.013197936733727444,0.0,6.026389540290574,0.0,-0.5202042881842404,0.0,0.1496973405559343,0.0,-3.56001713735265,0.0,-0.031655637022595474,0.0,-0.011787329837461941,0.4189451748810425,0.08249934666501271,0.1115420574538694,0.0,0.0,0.0,0.39533221534505203,0.1115420574538694,0.0,0.0,0.09644841850142895,0.0,0.0,-0.003918259743768885,0.0,1.3499402629162225,0.0,4.784517041411621,0.0,0.16341768204959603,0.0,86.44658947042842,-1.522567741326137,0.0,-4.732412651710917,0.0,0.16341768204959603,0.0
sim_raptor_glider_3dof,raptor_glider_3dof,0.02,-14.76139757543527,0.0,-0.0037990768701620034,11.866594418622821,0.0,-0.44589866112249477,0.0,0.0,0.0,-36.85899574648219,-0.6433108347546993,-0.02708684270432135,0.0,0.0,0.0,0.0,0.0,-0.011881353390815013,-0.68075140419715,0.0,0.0,11.874968998362949,0.0037990768701620034,0.034896614647397656,-0.03755828845318615,-2.151931414102499,0.0,0.0,0.025676935062371137,1.4711800099053494,-5.708735464312537,0.0,-14.811049519982094,11.871054600251945,0.0,-0.3048793038536217,0.0,21.66137569073189,0.0,0.0,-0.6433108347546993,0.0,-0.22218316208615044,0.3490658503988659,1.0,0.14,0.14,0.75,0.08726646259971647,5.0,0.184,0.175,0.174,0.0,0.0,0.0,-0.007547794820819782,0.0,0.013195583456072744,0.0,6.0262583974033435,0.0,-0.5203455876102225,0.0,0.148211624139175,0.0,-3.5586638908393997,0.0,-0.031268744128169046,0.0,-0.0116707140317325,0.4135436577604964,0.08286824106809552,0.11136394353807827,0.0,0.0,0.0,0.390691133897648,0.11136394353807827,0.0,0.0,0.09636325673491564,0.0,0.0,-0.0037921579786049896,0.0,1.3466160268152525,0.0,4.724248493061897,0.0,0.16313182032690188,0.0,86.371635201068,-1.5230593282553835,0.0,-4.670352109904302,0.0,0.16313182032690188,0.0
sim_raptor_glider_3dof,raptor_glider_3dof,0.02,-14.76139757543527,0.0,-0.0037990768701620034,11.866594418622821,0.0,-0.44589866112249477,0.0,0.0,0.0,-36.85899574648219,-0.6433108347546993,-0.02708684270432135,0.0,0.0,0.0,0.0,0.0,-0.011881353390815013,-0.68075140419715,0.0,0.0,11.874968998362949,0.0037990768701620034,0.034896614647397656,-0.03755828845318615,-2.151931414102499,0.0,0.0,0.025676935062371137,1.4711800099053494,-5.7200832021238215,0.0,-14.785660851896106,11.871054600251945,0.0,-0.3048793038536217,0.0,21.94482197780778,0.0,0.0,-0.6433108347546993,0.0,-0.2240307518595608,0.3490658503988659,1.0,0.14,0.14,0.75,0.08726646259971647,5.0,0.184,0.175,0.174,0.0,0.0,0.0,-0.008567026196006506,0.0,0.013521069585396396,0.0,6.025482596104023,0.0,-0.5204790449077451,0.0,0.14821602517739116,0.0,-3.555711162402555,0.0,-0.030962600793086673,0.0,-0.011788822351244262,0.4129734179502168,0.08414038346368843,0.1116435155698178,0.0,0.0,0.0,0.3901238360484554,0.1116435155698178,0.0,0.0,0.0976242019178081,0.0,0.0,-0.0037921579786049896,0.0,1.3499966199105482,0.0,4.717388711058583,0.0,0.16526645431487041,0.0,86.371635201068,-1.5261799561534868,0.0,-4.663370226180654,0.0,0.16526645431487041,0.0
sim_raptor_glider_3dof,raptor_glider_3dof,0.021,-14.7495291995343,0.0,-0.004107522694013058,11.860877175677661,0.0,-0.4604432271996504,0.0,0.0,0.0,-35.60286291460673,-0.6213871809960722,-0.026175108273377833,0.0,0.0,0.0,0.0,0.0,-0.01251367550119861,-0.7169807924149355,0.0,0.0,11.869811091251002,0.004107522694013058,0.03488145726072174,-0.03880085178294858,-2.223125048675609,0.0,0.0,0.026287176281749966,1.5061442562606733,-5.7143720526452135,0.0,-14.304914884003226,11.865710214871276,0.0,-0.31198788227231106,0.0,21.902501047459467,0.0,0.0,-0.6213871809960722,0.0,-0.2240307518595608,0.3490658503988659,1.0,0.14,0.14,0.75,0.08726646259971647,5.0,0.184,0.175,0.174,0.0,0.0,0.0,-0.00861965048637388,0.0,0.013517772187099642,0.0,6.025341826431912,0.0,-0.5206148560710623,0.0,0.146778250133651,0.0,-3.5543802049740085,0.0,-0.030587410981709737,0.0,-0.011676681530140192,0.4077444013018225,0.08449554999569207,0.11147491712861965,0.0,0.0,0.0,0.38566444484508705,0.11147491712861965,0.0,0.0,0.09752063013508445,0.0,0.0,-0.003664515158272897,0.0,1.3467872026892513,0.0,4.659415339599002,0.0,0.16494773538841725,0.0,86.2966202481054,-1.5265174558722103,0.0,-4.603665010959797,0.0,0.16494773538841725,0.0
sim_raptor_glider_3dof,raptor_glider_3dof,0.022,-14.737666158882933,0.0,-0.004422983520078423,11.855166120959618,0.0,-0.4745109996980481,0.0,0.0,0.0,-34.34920756796445,-0.5995067675119335,-0.02526439175903724,0.0,0.0,0.0,0.0,0.0,-0.013124117350324706,-0.7519565340080225,0.0,0.0,11.864658631599275,0.004422983520078423,0.03486631588233352,-0.040004318848318406,-2.2920786323042948,0.0,0.0,0.0268802014979937,1.5401220982962722,-5.707480036480135,0.0,-13.832555123884315,11.860372513419604,0.0,-0.3188860098905516,0.0,21.857781256723914,0.0,0.0,-0.5995067675119335,0.0,-0.2240307518595608,0.3490658503988659,1.0,0.14,0.14,0.75,0.08726646259971647,5.0,0.184,0.175,0.174,0.0,0.0,0.0,-0.008670538309901802,0.0,0.013514479511309317,0.0,6.02519883264709,0.0,-0.5207445814262212,0.0,0.14538520834672966,0.0,-3.553086018704528,0.0,-0.030224267157369263,0.0,-0.011569119647246844,0.4026765817961545,0.08483874368132331,0.11131474148357401,0.0,0.0,0.0,0.3813653640733819,0.11131474148357401,0.0,0.0,0.0974060616795386,0.0,0.0,-0.003537014846265214,0.0,1.343684740265759,0.0,4.603476712443477,0.0,0.1646109506443878,0.0,86.22171705956572,-1.5267195382018037,0.0,-4.54605477033717,0.0,0.1646109506443878,0.0
sim_raptor_glider_3dof,raptor_glider_3dof,0.023,-14.725808451131924,0.0,-0.004745202678220258,11.84946272373004,0.0,-0.4881121474800094,0.0,0.0,0.0,-33.09820657197464,-0.5776726811861831,-0.024354825500755264,0.0,0.0,0.0,0.0,0.0,-0.0137127107220752,-0.7856804500587006,0.0,0.0,11.859511807388417,0.004745202678220258,0.034851191064646084,-0.041169490651899406,-2.358838059057132,0.0,0.0,0.027456779929824204,1.5731576089984316,-5.699487634974467,0.0,-13.368463604298082,11.855041794884983,0.0,-0.3255830940260058,0.0,21.81074776828176,0.0,0.0,-0.5776726811861831,0.0,-0.2240307518595608,0.3490658503988659,1.0,0.14,0.14,0.75,0.08726646259971647,5.0,0.184,0.175,0.174,0.0,0.0,0.0,-0.008719726864861553,0.0,0.013511204549878968,0.0,6.025054154915783,0.0,-0.5208684742046833,0.0,0.14403602173357988,0.0,-3.551828232539996,0.0,-0.029872902916443695,0.0,-0.011465973106942034,0.3977671042349992,0.08517026323645367,0.11116259874200278,0.0,0.0,0.0,0.3772236242744188,0.11116259874200278,0.0,0.0,0.09728084519015713,0.0,0.0,-0.003409675570105737,0.0,1.3406842987139542,0.0,4.5495319099407885,0.0,0.16425674144292995,0.0,86.14692826326466,-1.5267972836125145,0.0,-4.490497193311789,0.0,0.16425674144292995,0.0
sim_raptor_glider_3dof,raptor_glider_3dof,0.024,-14.713956072268072,0.0,-0.005074059557090849,11.84376762120197,0.0,-0.5012516891085502,0.0,0.0,0.0,-31.849939564930356,-0.555886311969245,-0.02344647242521621,0.0,0.0,0.0,0.0,0.0,-0.014279484582900213,-0.8181542002223089,0.0,0.0,11.854369857603833,0.005074059557090849,0.0348360805712887,-0.04229673816928051,-2.4234245842696693,0.0,0.0,0.028017253586380294,1.6052703840473603,-5.690466405183137,0.0,-12.912581266593135,11.849717520343523,0.0,-0.3320834366994113,0.0,21.761446504168738,0.0,0.0,-0.555886311969245,0.0,-0.2240307518595608,0.3490658503988659,1.0,0.14,0.14,0.75,0.08726646259971647,5.0,0.184,0.175,0.174,0.0,0.0,0.0,-0.008767235607333288,0.0,0.01350795990619443,0.0,6.024908352384829,0.0,-0.5209867337119677,0.0,0.14273030737692527,0.0,-3.550606912707115,0.0,-0.02953318309978956,0.0,-0.011367120241079493,0.39301487002117713,0.08549028201318157,0.11101816861232992,0.0,0.0,0.0,0.3732380713643667,0.11101816861232992,0.0,0.0,0.09714517100320129,0.0,0.0,-0.00328250613953027,0.0,1.3377815854300263,0.0,4.497561300945593,0.0,0.16388545362289478,0.0,86.0722427014559,-1.5267605652708212,0.0,-4.436971873069854,0.0,0.16388545362289478,0.0
sim_raptor_glider_3dof,raptor_glider_3dof,0.025,-14.702109014111317,0.0,-0.005409314929611695,11.83808206318789,0.0,-0.513939697834316,0.0,0.0,0.0,-30.60456509868269,-0.5341504271129562,-0.02253945172753913,0.0,0.0,0.0,0.0,0.0,-0.01482449874405354,-0.8493812114312574,0.0,0.0,11.849232926556086,0.005409314929611695,0.03482098482634249,-0.04338685703219326,-2.4858837942821705,0.0,0.0,0.028562358288139723,1.636502582850913,-5.680490490419468,0.0,-12.464783572869397,11.844399903787723,0.0,-0.3383960208606144,0.0,21.709958840820672,0.0,0.0,-0.5341504271129562,0.0,-0.2240307518595608,0.3490658503988659,1.0,0.14,0.14,0.75,0.08726646259971647,5.0,0.184,0.175,0.174,0.0,0.0,0.0,-0.008813102258699678,0.0,0.013504755526867817,0.0,6.024761898282666,0.0,-0.52109959641479,0.0,0.14146718797290753,0.0,-3.549421641090829,0.0,-0.029204845979497376,0.0,-0.011272405622772295,0.38841694066351046,0.085799091205799,0.11088108850211015,0.0,0.0,0.0,0.36940566446683415,0.11088108850211015,0.0,0.0,0.09699937368940592,0.0,0.0,-0.0031555232418554787,0.0,1.3349720178158169,0.0,4.44752330580248,0.0,0.1634977000302205,0.0,85.99766237674201,-1.5266192499530784,0.0,-4.3854358403333356,0.0,0.1634977000302205,0.0
sim_raptor_glider_3dof,raptor_glider_3dof,0.026000000000000002,-14.690267270298436,0.0,-0.005750791968250689,11.83240692837229,0.0,-0.5261839083650486,0.0,0.0,0.0,-29.36220169849959,-0.5124670952734892,-0.02163385405557834,0.0,0.0,0.0,0.0,0.0,-0.015347803166804806,-0.8793643462554348,0.0,0.0,11.844100777349663,0.005750791968250689,0.034805903133649715,-0.04444044814326074,-2.5462501182788357,0.0,0.0,0.02909264497645593,1.6668857720234012,-5.6696286984486886,0.0,-12.024972795126468,11.83908881406451,0.0,-0.3445276138533499,0.0,21.65634842884424,0.0,0.0,-0.5124670952734892,0.0,-0.2240307518595608,0.3490658503988659,1.0,0.14,0.14,0.75,0.08726646259971647,5.0,0.184,0.175,0.174,0.0,0.0,0.0,-0.008857356592933673,0.0,0.013501600570095416,0.0,6.024615258208977,0.0,-0.5212072703424109,0.0,0.14024600915629012,0.0,-3.5482721849626415,0.0,-0.028887689956408287,0.0,-0.011181694834309,0.38397115205656124,0.0860969236764055,0.11075103400109747,0.0,0.0,0.0,0.3657241614433668,0.11075103400109747,0.0,0.0,0.09684371604025849,0.0,0.0,-0.0030287395677809684,0.0,1.3322514024095207,0.0,4.399385805943294,0.0,0.16309396001762597,0.0,85.92318375725495,-1.526382380716833,0.0,-4.33585586667669,0.0,0.16309396001762597,0.0
sim_raptor_glider_3dof,raptor_glider_3dof,0.027,-14.678430834344443,0.0,-0.006098312693848242,11.826743073612764,0.0,-0.5379922634302651,0.0,0.0,0.0,-28.12296938606213,-0.49083841122435246,-0.020729771122301812,0.0,0.0,0.0,0.0,0.0,-0.015849451317802205,-0.9081066681081272,0.0,0.0,11.83897324115391,0.006098312693848242,0.03479083499707282,-0.045458130989905206,-2.6045590502744234,0.0,0.0,0.029608679672103,1.6964523821662962,-5.657947353091422,0.0,-11.593046618248902,11.833784160772561,0.0,-0.3504851509076794,0.0,21.60067960316192,0.0,0.0,-0.49083841122435246,0.0,-0.2240307518595608,0.3490658503988659,1.0,0.14,0.14,0.75,0.08726646259971647,5.0,0.184,0.175,0.174,0.0,0.0,0.0,-0.008900029380483364,0.0,0.013498502922224799,0.0,6.0244688648150255,0.0,-0.5213099579793639,0.0,0.13906609260139788,0.0,-3.547158267653921,0.0,-0.02858150916258581,0.0,-0.011094855542621858,0.37967521975998414,0.08638401468623826,0.11062769071708192,0.0,0.0,0.0,0.3621911992618373,0.11062769071708192,0.0,0.0,0.09667846374946475,0.0,0.0,-0.002902167957122254,0.0,1.329615695941006,0.0,4.353115394063593,0.0,0.16267471809141243,0.0,85.84880430429813,-1.5260584899000562,0.0,-4.288197408973854,0.0,0.16267471809141243,0.0
sim_raptor_glider_3dof,raptor_glider_3dof,0.028,-14.666599699865822,0.0,-0.006451706498872137,11.821091285933893,0.0,-0.5493725957235658,0.0,0.0,0.0,-26.886984273716646,-0.46926640150829174,-0.01982729185550005,0.0,0.0,0.0,0.0,0.0,-0.016329498873984123,-0.9356113670429204,0.0,0.0,11.833850152816463,0.006451706498872137,0.0347757799312835,-0.04644051701560083,-2.6608456233994127,0.0,0.0,0.030111018141616704,1.7252342563564924,-5.645510028851031,0.0,-11.168902196826945,11.828485839484932,0.0,-0.35627543336400347,0.0,21.543015066842358,0.0,0.0,-0.46926640150829174,0.0,-0.2240307518595608,0.3490658503988659,1.0,0.14,0.14,0.75,0.08726646259971647,5.0,0.184,0.175,0.174,0.0,0.0,0.0,-0.008941151211176047,0.0,0.013495469382910264,0.0,6.024323122444115,0.0,-0.5214078536995072,0.0,0.13792676697112097,0.0,-3.5460795983679656,0.0,-0.028286101416288234,0.0,-0.011011759777228269,0.3755268550642743,0.08666059438606076,0.1105107573457114,0.0,0.0,0.0,0.3588044132749991,0.1105107573457114,0.0,0.0,0.09650387610561541,0.0,0.0,-0.0027758208597700074,0.0,1.3270610270399898,0.0,4.308678762354708,0.0,0.1622404464683898,0.0,85.77452153681922,-1.5256555850643214,0.0,-4.2424260373537415,0.0,0.1622404464683898,0.0
sim_raptor_glider_3dof,raptor_glider_3dof,0.029,-14.654773860591312,0.0,-0.006810809840381315,11.815452287154672,0.0,-0.5603326300774445,0.0,0.0,0.0,-25.65435875458598,-0.4477530277553573,-0.018926502530887998,0.0,0.0,0.0,0.0,0.0,-0.016788003606930273,-0.9618817531275077,0.0,0.0,11.828731352362267,0.006810809840381315,0.034760737466167875,-0.047388209785546885,-2.7151444193923844,0.0,0.0,0.030600206178616612,1.753262666264877,-5.632377642509632,0.0,-10.752436328677067,11.823193734415606,0.0,-0.3619051323670525,0.0,21.48341594637843,0.0,0.0,-0.4477530277553573,0.0,-0.2240307518595608,0.3490658503988659,1.0,0.14,0.14,0.75,0.08726646259971647,5.0,0.184,0.175,0.174,0.0,0.0,0.0,-0.008980752452428992,0.0,0.013492505765925065,0.0,6.024178408328479,0.0,-0.5215011440252567,0.0,0.1368273678299323,0.0,-3.545035872974877,0.0,-0.02800126810331206,0.0,-0.01093228384402624,0.3715237678352593,0.08692688792373429,0.11039994528004948,0.0,0.0,0.0,0.35556143993041434,0.11039994528004948,0.0,0.0,0.09632020618280698,0.0,0.0,-0.0026497103543243203,0.0,1.3245836911347504,0.0,4.266042735198029,0.0,0.16179160549217594,0.0,85.70033305300647,-1.5251811721279194,0.0,-4.198507468796803,0.0,0.16179160549217594,0.0
sim_raptor_glider_3dof,raptor_glider_3dof,0.03,-14.642953310364113,0.0,-0.007175465370730781,11.80982674342862,0.0,-0.5708799940707981,0.0,0.0,0.0,-24.425201982620376,-0.42630019506137234,-0.018027487111990134,0.0,0.0,0.0,0.0,0.0,-0.017225025093965493,-0.986921239891157,0.0,0.0,11.823616691919275,0.007175465370730781,0.0347457071671788,-0.048301805842607466,-2.7674896176417487,0.0,0.0,0.031076780748641973,1.7805683777505918,-5.6186085567769295,0.0,-10.34354555200906,11.817907726119397,0.0,-0.3673808029273977,0.0,21.421941931933542,0.0,0.0,-0.42630019506137234,0.0,-0.2240307518595608,0.3490658503988659,1.0,0.14,0.14,0.75,0.08726646259971647,5.0,0.184,0.175,0.174,0.0,0.0,0.0,-0.009018863240978602,0.0,0.013489616990198218,0.0,6.024035073631905,0.0,-0.5215900079489398,0.0,0.13576723675140426,0.0,-3.5440267740055504,0.0,-0.027726813854678498,0.0,-0.010856308178905049,0.36766366617007645,0.0871831157469878,0.11029497814679544,0.0,0.0,0.0,0.35245991611878585,0.11029497814679544,0.0,0.0,0.09612770132599842,0.0,0.0,-0.002523848195678619,0.0,1.3221801457123723,0.0,4.225174265245971,0.0,0.1613286446893915,0.0,85.62623663042913,-1.5246422794030736,0.0,-4.156407562940553,0.0,0.1613286446893915,0.0
sim_raptor_glider_3dof,raptor_glider_3dof,0.03,-14.642953310364113,0.0,-0.007175465370730781,11.80982674342862,0.0,-0.5708799940707981,0.0,0.0,0.0,-24.425201982620376,-0.42630019506137234,-0.018027487111990134,0.0,0.0,0.0,0.0,0.0,-0.017225025093965493,-0.986921239891157,0.0,0.0,11.823616691919275,0.007175465370730781,0.0347457071671788,-0.048301805842607466,-2.7674896176417487,0.0,0.0,0.031076780748641973,1.7805683777505918,-5.611895960019551,0.0,-10.35860464463068,11.817907726119397,0.0,-0.3673808029273977,0.0,21.253378506831325,0.0,0.0,-0.42630019506137234,0.0,-0.22291885793654784,0.3490658503988659,1.0,0.14,0.14,0.75,0.08726646259971647,5.0,0.184,0.175,0.174,0.0,0.0,0.0,-0.008375836747444701,0.0,0.013297684243538655,0.0,6.024537407283847,0.0,-0.5215033848981618,0.0,0.13576359214424116,0.0,-3.545889205184707,0.0,-0.027918747350490564,0.0,-0.01078707044336562,0.36800255511621127,0.08642201255966471,0.11012448940946823,0.0,0.0,0.0,0.3527975372510396,0.11012448940946823,0.0,0.0,0.09537129863224643,0.0,0.0,-0.002523848195678619,0.0,1.320136382457244,0.0,4.2292215570206215,0.0,0.16005919353494671,0.0,85.62623663042913,-1.5227963152947943,0.0,-4.1605488134114985,0.0,0.16005919353494671,0.0
sim_raptor_glider_3dof,raptor_glider_3dof,0.031,-14.631138053862635,0.0,-0.0075455328584507686,11.804222004147686,0.0,-0.5810374996243097,0.0,0.0,0.0,-23.20926474727264,-0.4050780868069572,-0.017137438066986026,0.0,0.0,0.0,0.0,0.0,-0.01764065497489236,-1.0107350779077915,0.0,0.0,11.818513514785778,0.0075455328584507686,0.03473071061384636,-0.04918315813012999,-2.81798738398099,0.0,0.0,0.03154250315523763,1.8072523060731986,-5.597656834423547,0.0,-9.958672328736109,11.812634708324214,0.0,-0.37272368702324354,0.0,21.191175413846405,0.0,0.0,-0.4050780868069572,0.0,-0.22291885793654784,0.3490658503988659,1.0,0.14,0.14,0.75,0.08726646259971647,5.0,0.184,0.175,0.174,0.0,0.0,0.0,-0.008410657292989523,0.0,0.013295274644163696,0.0,6.024398420231883,0.0,-0.5215876684008611,0.0,0.13474055695737705,0.0,-3.5449199271089626,0.0,-0.027654571601908057,0.0,-0.010714534506766668,0.3642774036265386,0.08666919174097422,0.11002480639311119,0.0,0.0,0.0,0.3498234179520785,0.11002480639311119,0.0,0.0,0.09517431013942984,0.0,0.0,-0.002399241329378044,0.0,1.3178031272713298,0.0,4.189949605754164,0.0,0.15959074204167728,0.0,85.55233850517233,-1.5222014589265556,0.0,-4.120095326500035,0.0,0.15959074204167728,0.0
sim_raptor_glider_3dof,raptor_glider_3dof,0.032,-14.61932805275258,0.0,-0.007920857311282895,11.79863173033058,0.0,-0.5907998616373507,0.0,0.0,0.0,-21.996932142035366,-0.3839188912162861,-0.016249277497021992,0.0,0.0,0.0,0.0,0.0,-0.018035153472615407,-1.0333381768515733,0.0,0.0,11.813414205236109,0.007920857311282895,0.03471572542606632,-0.05003180310387512,-2.8666111592815766,0.0,0.0,0.03199664963125971,1.8332729824300034,-5.5828901957907915,0.0,-9.56605213345667,11.807367519536339,0.0,-0.3779251818450441,0.0,21.12721542238955,0.0,0.0,-0.3839188912162861,0.0,-0.22291885793654784,0.3490658503988659,1.0,0.14,0.14,0.75,0.08726646259971647,5.0,0.184,0.175,0.174,0.0,0.0,0.0,-0.008444128696505628,0.0,0.013292931332208867,0.0,6.024261283244774,0.0,-0.5216678966567959,0.0,0.133755243394221,0.0,-3.543984094914133,0.0,-0.02740031055109748,0.0,-0.01064524689896438,0.36068974998842396,0.08690678063032484,0.10993043953709954,0.0,0.0,0.0,0.3469851649255825,0.10993043953709954,0.0,0.0,0.09496898597078574,0.0,0.0,-0.0022748988495830793,0.0,1.315536905431911,0.0,4.152369371205244,0.0,0.1591090593460157,0.0,85.4785282513611,-1.5215545999274327,0.0,-4.08138216097396,0.0,0.1591090593460157,0.0
sim_raptor_glider_3dof,raptor_glider_3dof,0.033,-14.60752331598779,0.0,-0.008301315462488905,11.793056461383369,0.0,-0.6001732167418281,0.0,0.0,0.0,-20.78831305376382,-0.36282450872349564,-0.015363089380099068,0.0,0.0,0.0,0.0,0.0,-0.018408525172293227,-1.0547307994327384,0.0,0.0,11.808318618307615,0.008301315462488905,0.03470075117784129,-0.0508482149682464,-2.913388113454458,0.0,0.0,0.03243968979595317,1.8586573140217195,-5.56764691892764,0.0,-9.180661517295896,11.802106018669637,0.0,-0.38299101236476335,0.0,21.06154843486363,0.0,0.0,-0.36282450872349564,0.0,-0.22291885793654784,0.3490658503988659,1.0,0.14,0.14,0.75,0.08726646259971647,5.0,0.184,0.175,0.174,0.0,0.0,0.0,-0.008476274610409767,0.0,0.013290657468727821,0.0,6.024126293375697,0.0,-0.5217442172273918,0.0,0.13280712878045497,0.0,-3.5430814719681947,0.0,-0.027155809015090175,0.0,-0.010579108762216625,0.3572377426136767,0.08713495723805674,0.109841158688796,0.0,0.0,0.0,0.3442808559181777,0.109841158688796,0.0,0.0,0.09475553206493159,0.0,0.0,-0.0021508325132138695,0.0,1.3133347634335184,0.0,4.116453448411319,0.0,0.15861452126295802,0.0,85.40480369960426,-1.5208614118632198,0.0,-4.0443810106969185,0.0,0.15861452126295802,0.0
sim_raptor_glider_3dof,raptor_glider_3dof,0.034,-14.595723838648167,0.0,-0.008686790193305486,11.787496596882521,0.0,-0.6091638854620092,0.0,0.0,0.0,-19.58349235743443,-0.341796420676377,-0.014478940128489161,0.0,0.0,0.0,0.0,0.0,-0.018760827686991832,-1.0749162466368143,0.0,0.0,11.803226536031078,0.008686790193305486,0.034685787228631686,-0.05163288487611405,-2.9583463874861935,0.0,0.0,0.03287205718912222,1.8834301408493794,-5.551975174284358,0.0,-8.802409635090502,11.796849991353985,0.0,-0.38792646514472906,0.0,20.994222553427907,0.0,0.0,-0.341796420676377,0.0,-0.22291885793654784,0.3490658503988659,1.0,0.14,0.14,0.75,0.08726646259971647,5.0,0.184,0.175,0.174,0.0,0.0,0.0,-0.008507119318894148,0.0,0.013288455598224221,0.0,6.0239937233721355,0.0,-0.5218167736901971,0.0,0.13189566909022607,0.0,-3.542211786240005,0.0,-0.026920907584112485,0.0,-0.010516022868472554,0.35391943778206186,0.08735390202688302,0.10975674118642641,0.0,0.0,0.0,0.3417084915583479,0.10975674118642641,0.0,0.0,0.0945341481594387,0.0,0.0,-0.002027051617988483,0.0,1.3111938310807822,0.0,4.082173553223492,0.0,0.15810749004986557,0.0,85.33116162858376,-1.520127184694637,0.0,-4.009062673949356,0.0,0.15810749004986557,0.0
sim_raptor_glider_3dof,raptor_glider_3dof,0.034999999999999996,-14.583929614417436,0.0,-0.009077133131032462,11.781952615870098,0.0,-0.6177800856325539,0.0,0.0,0.0,-18.382578798179633,-0.3208365250355368,-0.013596913585675835,0.0,0.0,0.0,0.0,0.0,-0.019092138393054917,-1.0938989518017284,0.0,0.0,11.79813797498624,0.009077133131032462,0.03467083362715989,-0.05238646505490454,-3.0015233512556025,0.0,0.0,0.03329432666184962,1.9076243994538742,-5.535922082561779,0.0,-8.431179675205383,11.79159938915853,0.0,-0.39273849112183307,0.0,20.92529787449717,0.0,0.0,-0.3208365250355368,0.0,-0.22291885793654784,0.3490658503988659,1.0,0.14,0.14,0.75,0.08726646259971647,5.0,0.184,0.175,0.174,0.0,0.0,0.0,-0.008536693356496672,0.0,0.013286327293911403,0.0,6.023863797008655,0.0,-0.5218857188198256,0.0,0.13102013151888828,0.0,-3.541374570346706,0.0,-0.026695399470392414,0.0,-0.010455882161469383,0.3507321920231174,0.08756383803394271,0.1096769566493528,0.0,0.0,0.0,0.3392653582531443,0.1096769566493528,0.0,0.0,0.09430508499499468,0.0,0.0,-0.0019035679019946171,0.0,1.3091112078618514,0.0,4.049493134172212,0.0,0.15758841829283818,0.0,85.25760221233806,-1.51935690810999,0.0,-3.975389463189217,0.0,0.15758841829283818,0.0
sim_raptor_glider_3dof,raptor_glider_3dof,0.036,-14.572140638141855,0.0,-0.009472228524504257,11.776424860802932,0.0,-0.6260285354171614,0.0,0.0,0.0,-17.185659082019267,-0.2999463351065024,-0.012717077601388831,0.0,0.0,0.0,0.0,0.0,-0.019402524010642356,-1.11168273771105,0.0,0.0,11.793052795154184,0.009472228524504257,0.03465588996195652,-0.05310948241913744,-3.042949194740821,0.0,0.0,0.03370695840849508,1.9312664570297704,-5.519531891326011,0.0,-8.066873755552878,11.78635403762646,0.0,-0.39743267231111085,0.0,20.854823876449107,0.0,0.0,-0.2999463351065024,0.0,-0.22291885793654784,0.3490658503988659,1.0,0.14,0.14,0.75,0.08726646259971647,5.0,0.184,0.175,0.174,0.0,0.0,0.0,-0.008565022707483336,0.0,0.013284273724367222,0.0,6.023736738009638,0.0,-0.521951188454958,0.0,0.13017992750537966,0.0,-3.5405694789446462,0.0,-0.026479116030888303,0.0,-0.010398592313666525,0.34767387504791636,0.08776495127559902,0.10960159771845693,0.0,0.0,0.0,0.3369492691912516,0.10960159771845693,0.0,0.0,0.09406854882995773,0.0,0.0,-0.0017803908641944365,0.0,1.3070842429046114,0.0,4.01838193590441,0.0,0.15705767861353823,0.0,85.18412336223624,-1.5185551563667465,0.0,-3.943330171051412,0.0,0.15705767861353823,0.0
sim_raptor_glider_3dof,raptor_glider_3dof,0.037,-14.560356904657635,0.0,-0.009871961555813245,11.770913646804956,0.0,-0.6339160993341427,0.0,0.0,0.0,-15.992820414979517,-0.2791273729215584,-0.011839500433459256,0.0,0.0,0.0,0.0,0.0,-0.01969205492914881,-1.1282716373800161,0.0,0.0,11.787970889917153,0.009871961555813245,0.034640955919707166,-0.053802477295604514,-3.0826548763865738,0.0,0.0,0.0341104223664557,1.9543832390065576,-5.502846996154196,0.0,-7.709391341766532,11.781113779489656,0.0,-0.4020146965636202,0.0,20.782850612252766,0.0,0.0,-0.2791273729215584,0.0,-0.22291885793654784,0.3490658503988659,1.0,0.14,0.14,0.75,0.08726646259971647,5.0,0.184,0.175,0.174,0.0,0.0,0.0,-0.00859213528259897,0.0,0.013282294701687056,0.0,6.023612747946849,0.0,-0.5220133151867681,0.0,0.12937445235824016,0.0,-3.5397961350298437,0.0,-0.02627188480018713,0.0,-0.010344059457325345,0.3447422847806166,0.08795743021086158,0.10953046472692954,0.0,0.0,0.0,0.33475796557697357,0.10953046472692954,0.0,0.0,0.09382474871336763,0.0,0.0,-0.0016575300606842959,0.0,1.3051103933723567,0.0,3.988808969522039,0.0,0.15651564796087558,0.0,85.11072347550115,-1.517726174416083,0.0,-3.9128528459067224,0.0,0.15651564796087558,0.0
sim_raptor_glider_3dof,raptor_glider_3dof,0.038,-14.548578408941374,0.0,-0.01027622252448287,11.765419250639367,0.0,-0.6414495569192771,0.0,0.0,0.0,-14.804147464996143,-0.2583811162149547,-0.010964248534434883,0.0,0.0,0.0,0.0,0.0,-0.019960803025607845,-1.1436697690592936,0.0,0.0,11.782892160984387,0.01027622252448287,0.03462603121156774,-0.05446598389776681,-3.120671004369539,0.0,0.0,0.034505180872158966,1.9770012353102457,-5.485907874318729,0.0,-7.358632410285299,11.775878456975896,0.0,-0.40649015230177654,0.0,20.70942696718013,0.0,0.0,-0.2583811162149547,0.0,-0.22291885793654784,0.3490658503988659,1.0,0.14,0.14,0.75,0.08726646259971647,5.0,0.184,0.175,0.174,0.0,0.0,0.0,-0.008618058451579601,0.0,0.013280389779151918,0.0,6.0234920102826255,0.0,-0.5220722258524987,0.0,0.1286031069262669,0.0,-3.5390541537771125,0.0,-0.026073535916888844,0.0,-0.01029219323610659,0.3419352318869451,0.08814145932277893,0.10946336732995429,0.0,0.0,0.0,0.33268920300451604,0.10946336732995429,0.0,0.0,0.09357388902741604,0.0,0.0,-0.0015349947948208838,0.0,1.3031872378497849,0.0,3.960743526361996,0.0,0.15596269448983355,0.0,85.0374010722432,-1.5168738838689335,0.0,-3.8839258333481843,0.0,0.15596269448983355,0.0
sim_raptor_glider_3dof,raptor_glider_3dof,0.039,-14.536805146150543,0.0,-0.01068490800527007,11.759941904100236,0.0,-0.6486355749026831,0.0,0.0,0.0,-13.619721763376505,-0.23770898797644807,-0.01009138611619416,0.0,0.0,0.0,0.0,0.0,-0.02020884182953381,-1.1578813456797243,0.0,0.0,11.777816508030766,0.01068490800527007,0.034611115542715815,-0.055100527990613685,-3.1570277028046227,0.0,0.0,0.03489168616107988,1.9991463571248984,-5.4687531256604665,0.0,-7.014497822685982,11.770647903166806,0.0,-0.41086449897370303,0.0,20.634600405159112,0.0,0.0,-0.23770898797644807,0.0,-0.22291885793654784,0.3490658503988659,1.0,0.14,0.14,0.75,0.08726646259971647,5.0,0.184,0.175,0.174,0.0,0.0,0.0,-0.008642818574601432,0.0,0.013278558514827107,0.0,6.023374691620303,0.0,-0.5221280413334182,0.0,0.12786530014945222,0.0,-3.5383431461495722,0.0,-0.0258839029167173,0.0,-0.010242907235455715,0.33925055123246783,0.08831721831741114,0.10940012438902383,0.0,0.0,0.0,0.3307407632694765,0.10940012438902383,0.0,0.0,0.09331616848332498,0.0,0.0,-0.0014127940562671823,0.0,1.301312472158776,0.0,3.93415531012929,0.0,0.15539917565125327,0.0,84.96415464570514,-1.516001896517556,0.0,-3.8565179118175568,0.0,0.15539917565125327,0.0
sim_raptor_glider_3dof,raptor_glider_3dof,0.04,-14.525037111599863,0.0,-0.01109791955595684,11.754481804399862,0.0,-0.6554807287086822,0.0,0.0,0.0,-12.439622370105452,-0.21711236806308076,-0.009220975630247215,0.0,0.0,0.0,0.0,0.0,-0.02043624615738186,-1.1709106539084269,0.0,0.0,11.772743838021615,0.01109791955595684,0.03459620863975319,-0.055706628654716726,-3.1917547128178034,0.0,0.0,0.03527038249733487,2.020844058909377,-5.451419563547813,0.0,-6.6768891962506665,11.765421951134602,0.0,-0.41514309272344035,0.0,20.558417194614275,0.0,0.0,-0.21711236806308076,0.0,-0.22291885793654784,0.3490658503988659,1.0,0.14,0.14,0.75,0.08726646259971647,5.0,0.184,0.175,0.174,0.0,0.0,0.0,-0.00866644113271636,0.0,0.013276800461066496,0.0,6.023260942212107,0.0,-0.5221808769461793,0.0,0.1271604471222368,0.0,-3.537662717508148,0.0,-0.025702822140876706,0.0,-0.010196118685132705,0.33668609578648484,0.08848488272929377,0.10934056348667436,0.0,0.0,0.0,0.3289104478556988,0.10934056348667436,0.0,0.0,0.09305178096815851,0.0,0.0,-0.0012909365882346102,0.0,1.2994839051515652,0.0,3.9090143638848525,0.0,0.1548254398926401,0.0,84.89098279680054,-1.5151135323593328,0.0,-3.830598217102348,0.0,0.1548254398926401,0.0
sim_raptor_glider_3dof,raptor_glider_3dof,0.04,-14.525037111599863,0.0,-0.01109791955595684,11.754481804399862,0.0,-0.6554807287086822,0.0,0.0,0.0,-12.439622370105452,-0.21711236806308076,-0.009220975630247215,0.0,0.0,0.0,0.0,0.0,-0.02043624615738186,-1.1709106539084269,0.0,0.0,11.772743838021615,0.01109791955595684,0.03459620863975319,-0.055706628654716726,-3.1917547128178034,0.0,0.0,0.03527038249733487,2.020844058909377,-5.429596998686092,0.0,-6.726099789022673,11.765421951134602,0.0,-0.41514309272344035,0.0,20.005980363284753,0.0,0.0,-0.21711236806308076,0.0,-0.21921771869250128,0.3490658503988659,1.0,0.14,0.14,0.75,0.08726646259971647,5.0,0.184,0.175,0.174,0.0,0.0,0.0,-0.0066210764674160755,0.0,0.012667566691744615,0.0,6.024996387360299,0.0,-0.5219007401404578,0.0,0.1271495266714054,0.0,-3.544017778068328,0.0,-0.026312333637067538,0.0,-0.009974941030491569,0.33779713525271504,0.08597623182553218,0.10877299695432806,0.0,0.0,0.0,0.3300192469722903,0.10877299695432806,0.0,0.0,0.09055133404459452,0.0,0.0,-0.0012909365882346102,0.0,1.2927385258488824,0.0,3.9221921504272874,0.0,0.1506650381158975,0.0,84.89098279680054,-1.5091123270223594,0.0,-3.8441311301146497,0.0,0.1506650381158975,0.0
sim_raptor_glider_3dof,raptor_glider_3dof,0.041,-14.51327429472521,0.0,-0.011515185590125961,11.74906077587629,0.0,-0.6620432811106555,0.0,0.0,0.0,-11.295489932349646,-0.19714348994537287,-0.008376467506051593,0.0,0.0,0.0,0.0,0.0,-0.020643352015356227,-1.1827769454827939,0.0,0.0,11.76769860343553,0.011515185590125961,0.03458138236044412,-0.056289087822105816,-3.225127164847902,0.0,0.0,0.03564573580674959,2.042350219365108,-5.412496784811021,0.0,-6.399737483438278,11.760223267347449,0.0,-0.41937945042432856,0.0,19.931936279734384,0.0,0.0,-0.19714348994537287,0.0,-0.21921771869250128,0.3490658503988659,1.0,0.14,0.14,0.75,0.08726646259971647,5.0,0.184,0.175,0.174,0.0,0.0,0.0,-0.006639936353103147,0.0,0.012666684659700736,0.0,6.024891353671726,0.0,-0.5219501715661732,0.0,0.12647199994828762,0.0,-3.5433772148066023,0.0,-0.02613932223106042,0.0,-0.009930508455752786,0.3353316743666423,0.08613823137779843,0.10871623233432276,0.0,0.0,0.0,0.32826625143542915,0.10871623233432276,0.0,0.0,0.09029356915200998,0.0,0.0,-0.001172705450847223,0.0,1.29095669703468,0.0,3.898015104109221,0.0,0.15010741212267964,0.0,84.81823796263248,-1.5082119282564581,0.0,-3.819212971928542,0.0,0.15010741212267964,0.0
sim_raptor_glider_3dof,raptor_glider_3dof,0.042,-14.501516668684546,0.0,-0.011936639750518846,11.743656886631385,0.0,-0.6682829419715309,0.0,0.0,0.0,-10.155631749353875,-0.17724921164629662,-0.007534404208239175,0.0,0.0,0.0,0.0,0.0,-0.02083054837333601,-1.1935025067352556,0.0,0.0,11.762656126974676,0.011936639750518846,0.0345665641863548,-0.056844557442664964,-3.2569532297536745,0.0,0.0,0.03601400906932896,2.063450723018419,-5.395281420774944,0.0,-6.079584655599042,11.755028816875205,0.0,-0.42352883713909945,0.0,19.856620059307982,0.0,0.0,-0.17724921164629662,0.0,-0.21921771869250128,0.3490658503988659,1.0,0.14,0.14,0.75,0.08726646259971647,5.0,0.184,0.175,0.174,0.0,0.0,0.0,-0.0066579043567052175,0.0,0.012665834958470745,0.0,6.024789758692044,0.0,-0.5219969119367361,0.0,0.12582577445584742,0.0,-3.542765242827004,0.0,-0.02597436925767651,0.0,-0.009888372157261188,0.3329803977761077,0.08629255098888035,0.10866281655268759,0.0,0.0,0.0,0.32662534959247735,0.10866281655268759,0.0,0.0,0.09002951853849064,0.0,0.0,-0.0010548165891534845,0.0,1.2892168352426858,0.0,3.8752069279142445,0.0,0.1495402056666484,0.0,84.74556405262935,-1.5073002781603841,0.0,-3.7957021292358215,0.0,0.1495402056666484,0.0
sim_raptor_glider_3dof,raptor_glider_3dof,0.043000000000000003,-14.489764235060756,0.0,-0.012362202250260317,11.738270254719646,0.0,-0.674205511009054,0.0,0.0,0.0,-9.020124140364238,-0.1574308651879791,-0.0066948461676867715,0.0,0.0,0.0,0.0,0.0,-0.020997888417947516,-1.2030903850350259,0.0,0.0,11.75761632491514,0.012362202250260317,0.03455175387144829,-0.057373494495172345,-3.287259090490437,0.0,0.0,0.03637560607722483,2.084168705455411,-5.377982115493607,0.0,-5.765554566783942,11.749838433486547,0.0,-0.42759610717757274,0.0,19.78007239107295,0.0,0.0,-0.1574308651879791,0.0,-0.21921771869250128,0.3490658503988659,1.0,0.14,0.14,0.75,0.08726646259971647,5.0,0.184,0.175,0.174,0.0,0.0,0.0,-0.00667499837820649,0.0,0.012665018016399653,0.0,6.024691720876182,0.0,-0.5220410563334691,0.0,0.12521033251446587,0.0,-3.542181512192353,0.0,-0.025817332587555194,0.0,-0.009848463719756655,0.3307413982398111,0.08643934221166369,0.10861260565615974,0.0,0.0,0.0,0.3250945844407508,0.10861260565615974,0.0,0.0,0.08975935265676496,0.0,0.0,-0.0009372784634761481,0.0,1.287517111098598,0.0,3.853740895582838,0.0,0.14896372517717038,0.0,84.67295980979763,-1.506379921576663,0.0,-3.7735710849976023,0.0,0.14896372517717038,0.0
sim_raptor_glider_3dof,raptor_glider_3dof,0.044,-14.478016990368062,0.0,-0.012791802848158946,11.732900941678988,0.0,-0.6798163220694267,0.0,0.0,0.0,-7.889028098620397,-0.13768951510327385,-0.005857842534471994,0.0,0.0,0.0,0.0,0.0,-0.021145439159329676,-1.21154441978025,0.0,0.0,11.752579067549544,0.012791802848158946,0.034536951034557416,-0.057876317448249524,-3.3160687235440642,0.0,0.0,0.03673087828891985,2.104524303763814,-5.360628302584152,0.0,-5.457564924243524,11.74465191923142,0.0,-0.4315854899060011,0.0,19.702329764993948,0.0,0.0,-0.13768951510327385,0.0,-0.21921771869250128,0.3490658503988659,1.0,0.14,0.14,0.75,0.08726646259971647,5.0,0.184,0.175,0.174,0.0,0.0,0.0,-0.006691234733269533,0.0,0.012664234260368322,0.0,6.024597351799407,0.0,-0.5220826927011953,0.0,0.12462520012572757,0.0,-3.5416257049744817,0.0,-0.025668082087127866,0.0,-0.009810720011500651,0.3286129255980227,0.08657874418861301,0.1085654659390914,0.0,0.0,0.0,0.32367216563116136,0.1085654659390914,0.0,0.0,0.08948322418602206,0.0,0.0,-0.0008200979548260793,0.0,1.2858558126509443,0.0,3.833592311975585,0.0,0.14837824546016942,0.0,84.60042331721826,-1.5054531774909883,0.0,-3.752794414266363,0.0,0.14837824546016942,0.0
