name,vehicle,t,north,east,down,u,v,w,p_rad,p_deg,p_hat_div_b,q_deg,q_rad,q_hat_div_c,r_rad,r_deg,r_hat_div_b,phi_rad,phi_deg,theta_rad,theta_deg,psi_rad,psi_deg,speed,altitude,mach,alpha_rad,alpha_deg,beta_rad,beta_deg,gamma_rad,gamma_deg,u_dot,v_dot,w_dot,north_dot,east_dot,down_dot,p_rad_dot,q_rad_dot,r_rad_dot,phi_rad_dot,theta_rad_dot,psi_rad_dot,del_tail_alt_rad,del_tail_splay_rad,DIM_b,DIM_c_bar,DIM_S,DIM_wing_position,DIM_wing_incidence_rad,DIM_wing_incidence_deg,DIM_empennage_length,DIM_nose_length,DIM_tail_length,CDp,CDq,CDr,CYp,CYq,CYr,CLp,CLq,CLr,Clp,Clq,Clr,Cmp,Cmq,Cmr,Cnp,Cnq,Cnr,CL_0,Cm_0,CD_0,Cl_0,CY_0,Cn_0,CL,CD,CY,Cl,Cm,Cn,p_hat,q_hat,r_hat,drag_force_wind,side_force_wind,lift_force_wind,roll_moment_wind,pitch_moment_wind,yaw_moment_wind,qbar,X_total,Y_total,Z_total,L_total,M_total,N_total
sim_raptor_glider_3dof,raptor_glider_3dof,0.0,-15.0,0.0,0.0,12.0,0.0,0.0,0.0,0.0,0.0,0.0,0.0,0.0,0.0,0.0,0.0,0.0,0.0,0.0,0.0,0.0,0.0,12.0,-0.0,0.035264039495724236,0.0,0.0,0.0,0.0,0.0,0.0,-7.469598809137201,0.0,-24.61981999606011,12.0,0.0,0.0,0.0,-85.03006107658597,0.0,0.0,0.0,0.0,0.4170240899848628,0.3490658503988659,1.0,0.14,0.14,0.75,0.08726646259971647,5.0,0.184,0.175,0.174,0.0,0.0,0.0,-0.04318867391284197,0.0,0.05061277513433753,0.0,6.028590274007057,0.0,-0.524548900725833,0.0,0.19754226647008083,0.0,-3.4780969223567055,0.0,-0.03789501410564368,0.0,-0.02818032343093366,0.766705337702247,-0.37042509622430536,0.16635400835796574,0.0,0.0,0.0,0.766705337702247,0.16635400835796574,0.0,0.0,-0.37042509622430536,0.0,0.0,0.0,0.0,2.0541396725127306,0.0,9.46727924891653,0.0,-0.6403613899677689,0.0,88.20001620075907,-2.0541396725127306,0.0,-9.46727924891653,0.0,-0.6403613899677689,0.0
sim_raptor_glider_3dof,raptor_glider_3dof,0.001,-14.988003737972527,0.0,-0.000012215478438695883,11.99251995709629,0.0,-0.02484449087294421,0.0,0.0,0.0,-4.852775308771709,-0.08469690699755078,-0.003531231365472857,0.0,0.0,0.0,0.0,0.0,-0.00004240396464210527,-0.002429568208614602,0.0,0.0,11.992545691807036,0.000012215478438695883,0.03524213374418007,-0.0020716626213175557,-0.11869752477650483,0.0,0.0,0.0020292586566754505,0.11626795656789023,-7.4909370124593595,0.0,-25.066511901497393,11.99252099981935,0.0,-0.024335960458529763,0.0,-84.36577650735065,0.0,0.0,-0.08469690699755078,0.0,0.4170240899848628,0.3490658503988659,1.0,0.14,0.14,0.75,0.08726646259971647,5.0,0.184,0.175,0.174,0.0,0.0,0.0,-0.043423578921732535,0.0,0.05039411591644416,0.0,6.028745321779259,0.0,-0.5249864505012136,0.0,0.19515787325654627,0.0,-3.4772088671958157,0.0,-0.03727789576503281,0.0,-0.027854647042706994,0.7582948758495796,-0.36970728287778143,0.16543463719499593,0.0,0.0,0.0,0.7553144306091195,0.16543463719499593,0.0,0.0,-0.3679882468155215,0.0,0.0,-0.0004943723911662,0.0,2.040250135923968,0.0,9.315040645927102,0.0,-0.6353586628768577,0.0,88.09047188481144,-2.059543365485712,0.0,-9.310793949932279,0.0,-0.6353586628768577,0.0
sim_raptor_glider_3dof,raptor_glider_3dof,0.002,-14.976014963466938,0.0,-0.00004848144968215675,11.985017232910534,0.0,-0.050127805379849566,0.0,0.0,0.0,-9.667836520417074,-0.16873557882582993,-0.007039376734584633,0.0,0.0,0.0,0.0,0.0,-0.0001691745888675233,-0.009692989942969967,0.0,0.0,11.985122063209648,0.00004848144968215675,0.035220318149841744,-0.004182514893631338,-0.2396404511556841,0.0,0.0,0.004013340304763815,0.22994746121271414,-7.5149562319517615,0.0,-25.49753416005263,11.985025541755515,0.0,-0.048100244309243284,0.0,-83.71357572462495,0.0,0.0,-0.16873557882582993,0.0,0.4170240899848628,0.3490658503988659,1.0,0.14,0.14,0.75,0.08726646259971647,5.0,0.184,0.175,0.174,0.0,0.0,0.0,-0.04366137209862834,0.0,0.050205911622702305,0.0,6.0288676950143465,0.0,-0.5254385397622281,0.0,0.1927371805136568,0.0,-3.4762848261137433,0.0,-0.03665349680684333,0.0,-0.027528793344329092,0.7496920209686823,-0.369021870540599,0.1645188317561406,0.0,0.0,0.0,0.7437504950303381,0.1645188317561406,0.0,0.0,-0.36559594754671615,0.0,0.0,-0.0009855127428418486,0.0,2.0264446612769533,0.0,9.161074169371282,0.0,-0.6304469387821505,0.0,87.98144606850789,-2.0647431540091756,0.0,-9.152518429913805,0.0,-0.6304469387821505,0.0
sim_raptor_glider_3dof,raptor_glider_3dof,0.003,-14.964033691216214,0.0,-0.00010822347919408593,11.977489160500875,0.0,-0.07583445872712313,0.0,0.0,0.0,-14.445872983846181,-0.2521280468930135,-0.010524868366006546,0.0,0.0,0.0,0.0,0.0,-0.0003796597388892955,-0.021752900689395484,0.0,0.0,11.977729227823042,0.00010822347919408593,0.03519859304658686,-0.00633133075008766,-0.36275853068142067,0.0,0.0,0.005951671011198365,0.3410056299920252,-7.541628266008833,0.0,-25.913253292051998,11.977517088564262,0.0,-0.07128708296369524,0.0,-83.0733449688701,0.0,0.0,-0.2521280468930135,0.0,0.4170240899848628,0.3490658503988659,1.0,0.14,0.14,0.75,0.08726646259971647,5.0,0.184,0.175,0.174,0.0,0.0,0.0,-0.04390221453226309,0.0,0.05004730291870601,0.0,6.028957296000654,0.0,-0.5259043921346416,0.0,0.1902808784578297,0.0,-3.4753254179752586,0.0,-0.03602149910977167,0.0,-0.027203158619291457,0.740901141353927,-0.36836873368785156,0.16360781787421655,0.0,0.0,0.0,0.7320175838844716,0.16360781787421655,0.0,0.0,-0.3632479057303999,0.0,0.0,-0.0014734815712409166,0.0,2.0127379853261824,0.0,9.005435169019282,0.0,-0.6256253609605608,0.0,87.87293958189686,-2.0697136520862203,0.0,-8.992511450053993,0.0,-0.6256253609605608,0.0
sim_raptor_glider_3dof,raptor_glider_3dof,0.004,-14.952059932513842,0.0,-0.00019086131936117315,11.969933103599516,0.0,-0.101949330567247,0.0,0.0,0.0,-19.187565179996813,-0.33488618783196283,-0.013988133394539512,0.0,0.0,0.0,0.0,0.0,-0.0006732191723804667,-0.03857261726469098,0.0,0.0,11.970367252956386,0.00019086131936117315,0.03517695863221483,-0.008516911883578188,-0.48798310541384654,0.0,0.0,0.007843692711197722,0.4494104881491556,-7.570918919070997,0.0,-26.314034064705993,11.96999902530758,0.0,-0.09389091961555783,0.0,-82.44488035859935,0.0,0.0,-0.33488618783196283,0.0,0.4170240899848628,0.3490658503988659,1.0,0.14,0.14,0.75,0.08726646259971647,5.0,0.184,0.175,0.174,0.0,0.0,0.0,-0.04414631324187165,0.0,0.049917076703863195,0.0,6.029014282102249,0.0,-0.5263831378426531,0.0,0.18778948647375593,0.0,-3.474331396263045,0.0,-0.03538147280254962,0.0,-0.026878113668928394,0.7319266584495994,-0.36774735153200105,0.16270272907512243,0.0,0.0,0.0,0.7201198066074112,0.16270272907512243,0.0,0.0,-0.36094343398811407,0.0,0.0,-0.0019583386752355316,0.0,1.999143622162577,0.0,8.848179294567688,0.0,-0.6208923939806117,0.0,87.7649525753692,-2.0744293681934454,0.0,-8.830832058601624,0.0,-0.6208923939806117,0.0
sim_raptor_glider_3dof,raptor_glider_3dof,0.005,-14.94009369528399,0.0,-0.00029580923599589314,11.962346463195246,0.0,-0.12845766645168788,0.0,0.0,0.0,-23.893579291553316,-0.4170216287239395,-0.017429589904398576,0.0,0.0,0.0,0.0,0.0,-0.0010492244877667056,-0.0601161349108079,0.0,0.0,11.963036164686205,0.00029580923599589314,0.035155414983355976,-0.010738088005798086,-0.615247122772281,0.0,0.0,0.00968886351803138,0.5551309878614731,-7.6027883748499985,0.0,-26.700238478907426,11.962474659594111,0.0,-0.11590641120650969,0.0,-81.8278893102743,0.0,0.0,-0.4170216287239395,0.0,0.4170240899848628,0.3490658503988659,1.0,0.14,0.14,0.75,0.08726646259971647,5.0,0.184,0.175,0.174,0.0,0.0,0.0,-0.04439392082944329,0.0,0.04981366814052267,0.0,6.02903906480132,0.0,-0.5268738145127074,0.0,0.18526335386219595,0.0,-3.4733036483327013,0.0,-0.03473287706899262,0.0,-0.026554003710363382,0.7227730445064696,-0.3671568098160801,0.16180460612313693,0.0,0.0,0.0,0.7080613295280777,0.16180460612313693,0.0,0.0,-0.35868145366753545,0.0,0.0,-0.002440142586615801,0.0,1.9856738676350378,0.0,8.689362512071156,0.0,-0.6162458343956758,0.0,87.65748459612963,-2.078864734374812,0.0,-8.667539615771537,0.0,-0.6162458343956758,0.0
sim_raptor_glider_3dof,raptor_glider_3dof,0.006,-14.928134984222316,0.0,-0.0004224763242752251,11.954726682501379,0.0,-0.15534506807666343,0.0,0.0,0.0,-28.564562258622605,-0.49854566080387247,-0.02084964333536965,0.0,0.0,0.0,0.0,0.0,-0.0015070586127239193,-0.0863480979879214,0.0,0.0,11.955735951562588,0.0004224763242752251,0.03513396206636277,-0.012993716164014108,-0.7444850963889262,0.0,0.0,0.01148665755129019,0.6581369984010048,-7.637191543389487,0.0,-27.072224997843907,11.954947220597104,0.0,-0.1373284246751323,0.0,-81.2219922181882,0.0,0.0,-0.49854566080387247,0.0,0.4170240899848628,0.3490658503988659,1.0,0.14,0.14,0.75,0.08726646259971647,5.0,0.184,0.175,0.174,0.0,0.0,0.0,-0.04464533490356072,0.0,0.04973516380433267,0.0,6.029032307921078,0.0,-0.5273753680633847,0.0,0.1827026620712336,0.0,-3.4722431946395953,0.0,-0.034075061528508206,0.0,-0.02623114848853476,0.7134448235667498,-0.3665958040655988,0.16091439729384605,0.0,0.0,0.0,0.6958463793078893,0.16091439729384605,0.0,0.0,-0.35646049956013276,0.0,0.0,-0.002918950066951751,0.0,1.9723398121068552,0.0,8.529041155423357,0.0,-0.6116828233951754,0.0,87.55053464434624,-2.0829941342437075,0.0,-8.502693855598555,0.0,-0.6116828233951754,0.0
sim_raptor_glider_3dof,raptor_glider_3dof,0.007,-14.91618380082022,0.0,-0.0005702666283945172,11.947071252418166,0.0,-0.1825974949422679,0.0,0.0,0.0,-33.201136805835,-0.579469152666894,-0.02424868284605469,0.0,0.0,0.0,0.0,0.0,-0.00204611561155368,-0.11723378893785524,0.0,0.0,11.948466569209446,0.0005702666283945172,0.03511259975082854,-0.015282681003488983,-0.8756331211446765,0.0,0.0,0.013236565391935302,0.7583993322068212,-7.674078406221821,0.0,-27.430347578140324,11.947419859012111,0.0,-0.1581520407670639,0.0,-80.6267243220224,0.0,0.0,-0.579469152666894,0.0,0.4170240899848628,0.3490658503988659,1.0,0.14,0.14,0.75,0.08726646259971647,5.0,0.184,0.175,0.174,0.0,0.0,0.0,-0.04490089749640126,0.0,0.0496793057568013,0.0,6.028994925139956,0.0,-0.5278866540701819,0.0,0.18010742622429496,0.0,-3.4711511871147667,0.0,-0.033407267613302045,0.0,-0.025909842316557394,0.7039465680752666,-0.36606264366776997,0.16003295857946906,0.0,0.0,0.0,0.6834792420604396,0.16003295857946906,0.0,0.0,-0.3542787254731827,0.0,0.0,-0.003394815598447657,0.0,1.9591513524948683,0.0,8.367271925551126,0.0,-0.6071998608691507,0.0,87.44410124216444,-2.086791936957625,0.0,-8.336354893473954,0.0,-0.6071998608691507,0.0
sim_raptor_glider_3dof,raptor_glider_3dof,0.008,-14.90424014345783,0.0,-0.0007385793802062201,11.939377716193913,0.0,-0.21020125790164335,0.0,0.0,0.0,-37.803896639043536,-0.659802466434928,-0.027627077780868866,0.0,0.0,0.0,0.0,0.0,-0.0026658001707901744,-0.15273909881153103,0.0,0.0,11.941227944343547,0.0007385793802062201,0.03509132782139806,-0.017603894345471657,-1.0086288489897406,0.0,0.0,0.014938094174681482,0.8558897501782097,-7.713394337044634,0.0,-27.774954844429576,11.939895646567098,0.0,-0.17837255354804543,0.0,-80.04153780534166,0.0,0.0,-0.659802466434928,0.0,0.4170240899848628,0.3490658503988659,1.0,0.14,0.14,0.75,0.08726646259971647,5.0,0.184,0.175,0.174,0.0,0.0,0.0,-0.04516099430246053,0.0,0.04964349654312544,0.0,6.028928076826227,0.0,-0.5284064392226796,0.0,0.1774774977674532,0.0,-3.470028907471939,0.0,-0.0327286303937593,0.0,-0.025590354279940507,0.6942828978697803,-0.3655552571355683,0.1591610544806392,0.0,0.0,0.0,0.6709642647818563,0.1591610544806392,0.0,0.0,-0.3521339109415656,0.0,0.0,-0.003867790889321642,0.0,1.94611721110241,0.0,8.204111916621434,0.0,-0.602792821212028,0.0,87.33818249395306,-2.0902325309015266,0.0,-8.16858326189798,0.0,-0.602792821212028,0.0
sim_raptor_glider_3dof,raptor_glider_3dof,0.009000000000000001,-14.892304007483169,0.0,-0.0009268092125500171,11.93164367387932,0.0,-0.2381430134206443,0.0,0.0,0.0,-42.3734017509334,-0.739555375824118,-0.03098517419677678,0.0,0.0,0.0,0.0,0.0,-0.0033655270516483827,-0.19283049589655976,0.0,0.0,11.934019978836362,0.0009268092125500171,0.03507014598970396,-0.019956294816578103,-1.1434114677087266,0.0,0.0,0.01659076776492972,0.9505809718121668,-7.755080406691803,0.0,-28.106389261341718,11.932377575678165,0.0,-0.19798547097777663,0.0,-79.46580406656801,0.0,0.0,-0.739555375824118,0.0,0.4170240899848628,0.3490658503988659,1.0,0.14,0.14,0.75,0.08726646259971647,5.0,0.184,0.175,0.174,0.0,0.0,0.0,-0.045426053831076466,0.0,0.04962480498208969,0.0,6.028833166280336,0.0,-0.528933403011259,0.0,0.17481256736368378,0.0,-3.46887776515017,0.0,-0.03203818061234106,0.0,-0.025272928488384933,0.6844584785861166,-0.36507119824620166,0.15829935905840917,0.0,0.0,0.0,0.6583058561656464,0.15829935905840917,0.0,0.0,-0.3500234687913311,0.0,0.0,-0.00433792438754875,0.0,1.9332449574125803,0.0,8.039618634196868,0.0,-0.5984569704253238,0.0,87.23277614694452,-2.093290359725638,0.0,-7.999439937806047,0.0,-0.5984569704253238,0.0
sim_raptor_glider_3dof,raptor_glider_3dof,0.01,-14.880375385291645,0.0,-0.0011343463734242692,11.923866786485407,0.0,-0.26640975701541914,0.0,0.0,0.0,-46.910173861203035,-0.8187369865609744,-0.03432329146944882,0.0,0.0,0.0,0.0,0.0,-0.00414472046159395,-0.23747498971084774,0.0,0.0,11.926842553688836,0.0011343463734242692,0.035049053906047296,-0.022338847401382055,-1.279921675285978,0.0,0.0,0.018194126939788106,1.0424466855751306,-7.799073670059569,0.0,-28.424986333041627,11.924868559130541,0.0,-0.21698651557805737,0.0,-78.89881614505552,0.0,0.0,-0.8187369865609744,0.0,0.4170240899848628,0.3490658503988659,1.0,0.14,0.14,0.75,0.08726646259971647,5.0,0.184,0.175,0.174,0.0,0.0,0.0,-0.04569654646760126,0.0,0.04961997267477555,0.0,6.02871183544286,0.0,-0.5294661395933773,0.0,0.17211216814946292,0.0,-3.467699294985553,0.0,-0.0313348469412084,0.0,-0.024957784388325462,0.6744780200547831,-0.3646076529994343,0.15744845728060994,0.0,0.0,0.0,0.6455084873629321,0.15744845728060994,0.0,0.0,-0.3479444534912075,0.0,0.0,-0.004805260805722835,0.0,1.9205410331914534,0.0,7.873850012035223,0.0,-0.5941869843884131,0.0,87.12787965037256,-2.0959399601116155,0.0,-7.828986368349768,0.0,-0.5941869843884131,0.0
sim_raptor_glider_3dof,raptor_glider_3dof,0.01,-14.880375385291645,0.0,-0.0011343463734242692,11.923866786485407,0.0,-0.26640975701541914,0.0,0.0,0.0,-46.910173861203035,-0.8187369865609744,-0.03432329146944882,0.0,0.0,0.0,0.0,0.0,-0.00414472046159395,-0.23747498971084774,0.0,0.0,11.926842553688836,0.0011343463734242692,0.035049053906047296,-0.022338847401382055,-1.279921675285978,0.0,0.0,0.018194126939788106,1.0424466855751306,-5.08067329488999,0.0,-21.152940141491097,11.924868559130541,0.0,-0.21698651557805737,0.0,5.553803822885816,0.0,0.0,-0.8187369865609744,0.0,-0.10851195006018755,0.3490658503988659,1.0,0.14,0.14,0.75,0.08726646259971647,5.0,0.184,0.175,0.174,0.0,0.0,0.0,-0.007833757381189906,0.0,0.003705999657534601,0.0,6.066903061941258,0.0,-0.518541902652648,0.0,0.1666313566349928,0.0,-3.727734775842624,0.0,-0.03612015518734615,0.0,-0.009123771372520953,0.5093862482390752,0.0065795845108121516,0.09983988459327327,0.0,0.0,0.0,0.48023319674340903,0.09983988459327327,0.0,0.0,0.02449232232329871,0.0,0.0,-0.004805260805722835,0.0,1.217837242880972,0.0,5.857838023796281,0.0,0.04182569659015308,0.0,87.12787965037256,-1.3483798569399812,0.0,-5.829173665673373,0.0,0.04182569659015308,0.0
sim_raptor_glider_3dof,raptor_glider_3dof,0.011,-14.868452924509628,0.0,-0.001356975353517063,11.918776885797906,0.0,-0.28735513426839243,0.0,0.0,0.0,-46.58917269670262,-0.8131344593377062,-0.034101579658729037,0.0,0.0,0.0,0.0,0.0,-0.004960660622298712,-0.28422491725445675,0.0,0.0,11.922240369436476,0.001356975353517063,0.035035529605443816,-0.024104778526313354,-1.3811020756553314,0.0,0.0,0.019144117904014643,1.0968771584008747,-5.098921183442813,0.0,-20.738616199363353,11.920055702004042,0.0,-0.22822683396521015,0.0,5.650827549519155,0.0,0.0,-0.8131344593377062,0.0,-0.10851195006018755,0.3490658503988659,1.0,0.14,0.14,0.75,0.08726646259971647,5.0,0.184,0.175,0.174,0.0,0.0,0.0,-0.007892520039183584,0.0,0.0037007719636320585,0.0,6.0670348681393635,0.0,-0.5187651357436526,0.0,0.1645866056919536,0.0,-3.7265568257002113,0.0,-0.03558863796381338,0.0,-0.008943305458617419,0.5020048786688769,0.007148034304626019,0.0994964481609066,0.0,0.0,0.0,0.47303951247013715,0.0994964481609066,0.0,0.0,0.024939440726841487,0.0,0.0,-0.004774221152222066,0.0,1.2127116038978671,0.0,5.765638035108508,0.0,0.04255638227542876,0.0,87.06065294028373,-1.351325273285013,0.0,-5.73473376817962,0.0,0.04255638227542876,0.0
sim_raptor_glider_3dof,raptor_glider_3dof,0.012,-14.856535273065752,0.0,-0.0015906792866662483,11.913669550926246,0.0,-0.3078888436342823,0.0,0.0,0.0,-46.262703122789844,-0.8074364903653453,-0.03387566641723532,0.0,0.0,0.0,0.0,0.0,-0.0057709531820817825,-0.3306512611008786,0.0,0.0,11.917647322718592,0.0015906792866662483,0.035022032157038384,-0.02583757470891708,-1.480383983674905,0.0,0.0,0.020066621526835297,1.1497327225740266,-5.115501803769345,0.0,-20.329599823507408,11.915247967882854,0.0,-0.2391308691180793,0.0,5.74463038674467,0.0,0.0,-0.8074364903653453,0.0,-0.10851195006018755,0.3490658503988659,1.0,0.14,0.14,0.75,0.08726646259971647,5.0,0.184,0.175,0.174,0.0,0.0,0.0,-0.007950078597284825,0.0,0.003695435626346506,0.0,6.0671500193000965,0.0,-0.5189804071489023,0.0,0.16257907579290184,0.0,-3.725389666003193,0.0,-0.035067566937673086,0.0,-0.008768341623529694,0.4947483351076658,0.007704969535273171,0.09916563177320556,0.0,0.0,0.0,0.4659743100856672,0.09916563177320556,0.0,0.0,0.025372977599236755,0.0,0.0,-0.004742593298412945,0.0,1.2077483423368438,0.0,5.675148642874691,0.0,0.043262811442574114,0.0,86.99358557573917,-1.3539609930919312,0.0,-5.642052623498416,0.0,0.043262811442574114,0.0
sim_raptor_glider_3dof,raptor_glider_3dof,0.013000000000000001,-14.844622426730416,0.0,-0.0018351300815946047,11.908546400772192,0.0,-0.3280160635804485,0.0,0.0,0.0,-45.93094514569247,-0.8016462213452402,-0.033645680210403144,0.0,0.0,0.0,0.0,0.0,-0.006575503765771934,-0.3767486139511112,0.0,0.0,11.913063078709486,0.0018351300815946047,0.03500856057688879,-0.027537630078544803,-1.5777899812931269,0.0,0.0,0.020962126312772868,1.2010413673420155,-5.130477032472351,0.0,-19.92589788587709,11.910445810620692,0.0,-0.24970484492531528,0.0,5.835277588366164,0.0,0.0,-0.8016462213452402,0.0,-0.10851195006018755,0.3490658503988659,1.0,0.14,0.14,0.75,0.08726646259971647,5.0,0.184,0.175,0.174,0.0,0.0,0.0,-0.008006462001696584,0.0,0.0036899949167995094,0.0,6.06724934158511,0.0,-0.5191879863423235,0.0,0.16060838916583775,0.0,-3.7242336780910588,0.0,-0.03455678742840217,0.0,-0.008598726762385012,0.48761636954397636,0.008250576501157172,0.0988470574998515,0.0,0.0,0.0,0.4590372271894511,0.0988470574998515,0.0,0.0,0.025793189051818308,0.0,0.0,-0.00471039522945644,0.0,1.2029424115074427,0.0,5.5863610208912675,0.0,0.04394547551798558,0.0,86.92667251622177,-1.3563020333184967,0.0,-5.551121030526427,0.0,0.04394547551798558,0.0
sim_raptor_glider_3dof,raptor_glider_3dof,0.014,-14.832714379463852,0.0,-0.0020899871268056764,11.90340907957337,0.0,-0.34774232417041506,0.0,0.0,0.0,-45.59408525079558,-0.7957669070613674,-0.03341175413534478,0.0,0.0,0.0,0.0,0.0,-0.007374217749365237,-0.4225115542490888,0.0,0.0,11.90848741191295,0.0020899871268056764,0.03499511420233609,-0.02920536855229444,-1.6733443571705706,0.0,0.0,0.021831150802929203,1.2508328029214817,-5.143907975414461,0.0,-19.527508714884583,11.905649737156772,0.0,-0.2599553342943487,0.0,5.922836230128008,0.0,0.0,-0.7957669070613674,0.0,-0.10851195006018755,0.3490658503988659,1.0,0.14,0.14,0.75,0.08726646259971647,5.0,0.184,0.175,0.174,0.0,0.0,0.0,-0.008061698848177213,0.0,0.003684454297960835,0.0,6.067333634969933,0.0,-0.5193881381419935,0.0,0.1586741296538588,0.0,-3.723089199792088,0.0,-0.03405613780240163,0.0,-0.008434308285419238,0.48060850978976755,0.008785048067855091,0.09854034911935043,0.0,0.0,0.0,0.4522276734361463,0.09854034911935043,0.0,0.0,0.026200339803292602,0.0,0.0,-0.00467764557894827,0.0,1.1982888242911718,0.0,5.4992637224919125,0.0,0.044604879649094036,0.0,86.85991032391529,-1.3583630111513667,0.0,-5.46192708902934,0.0,0.044604879649094036,0.0
sim_raptor_glider_3dof,raptor_glider_3dof,0.015,-14.820811125069085,0.0,-0.00235493553212824,11.898259074534153,0.0,-0.36707285018661784,0.0,0.0,0.0,-45.252295562984344,-0.7898015516596978,-0.03317401122224122,0.0,0.0,0.0,0.0,0.0,-0.008167009170703605,-0.4679351567259551,0.0,0.0,11.903920004858838,0.00235493553212824,0.034981692100440324,-0.03084118916202954,-1.7670699741489087,0.0,0.0,0.022674179991325934,1.2991348174229536,-5.155853676620517,0.0,-19.134428163447573,11.900860123576177,0.0,-0.2698884976298592,0.0,6.007369383689401,0.0,0.0,-0.7898015516596978,0.0,-0.10851195006018755,0.3490658503988659,1.0,0.14,0.14,0.75,0.08726646259971647,5.0,0.184,0.175,0.174,0.0,0.0,0.0,-0.008115815649505746,0.0,0.0036788185601222246,0.0,6.067403670563597,0.0,-0.5195811162296103,0.0,0.15677590624127433,0.0,-3.72195656307565,0.0,-0.033565465810205815,0.0,-0.008274939542037842,0.4737242944195657,0.009308566241863723,0.09824514244050268,0.0,0.0,0.0,0.4455450779755655,0.09824514244050268,0.0,0.0,0.026594678272766965,0.0,0.0,-0.004644361571113772,0.0,1.1937827375641423,0.0,5.413845506061627,0.0,0.04524149882856488,0.0,86.79329422514255,-1.360157997030898,0.0,-5.37445909939993,0.0,0.04524149882856488,0.0
sim_raptor_glider_3dof,raptor_glider_3dof,0.016,-14.80891265691265,0.0,-0.002629660853693228,11.893097843992134,0.0,-0.3860129463188807,0.0,0.0,0.0,-44.90574776126415,-0.7837531515041319,-0.03293257423095358,0.0,0.0,0.0,0.0,0.0,-0.008953793380038263,-0.5130145713083685,0.0,0.0,11.899360584564874,0.002629660853693228,0.03496829346899666,-0.03244549810312113,-1.8589901055085591,0.0,0.0,0.02349170472308287,1.3459755342001907,-5.166371905247605,0.0,-18.746646866103532,11.896077343858584,0.0,-0.2795105551327396,0.0,6.088939748207691,0.0,0.0,-0.7837531515041319,0.0,-0.10851195006018755,0.3490658503988659,1.0,0.14,0.14,0.75,0.08726646259971647,5.0,0.184,0.175,0.174,0.0,0.0,0.0,-0.008168837976519298,0.0,0.0036730926839312716,0.0,6.067460193180015,0.0,-0.5197671673050877,0.0,0.1549133160622193,0.0,-3.7208360728805276,0.0,-0.033084618865764005,0.0,-0.008120476562669442,0.46696314379715087,0.00982131258287369,0.09796107927933548,0.0,0.0,0.0,0.43898875214841493,0.09796107927933548,0.0,0.0,0.026976452006862384,0.0,0.0,-0.004610560392333502,0.0,1.1894194059529752,0.0,5.330093794817443,0.0,0.04585580524375212,0.0,86.72682010207575,-1.3617006113297565,0.0,-5.288703983956098,0.0,0.04585580524375212,0.0
sim_raptor_glider_3dof,raptor_glider_3dof,0.017,-14.7970189679898,0.0,-0.002913855008872883,11.887926787710589,0.0,-0.4045679055973307,0.0,0.0,0.0,-44.55460986916939,-0.7776246391585658,-0.032687563391336015,0.0,0.0,0.0,0.0,0.0,-0.009734488773956438,-0.5577451224651832,0.0,0.0,11.894808888763468,0.002913855008872883,0.03495491753728722,-0.034018701135792175,-1.9491279995977917,0.0,0.0,0.024284212361835734,1.3913828771326084,-5.175518962635682,0.0,-18.36415121045283,11.891301740109455,0.0,-0.2888276750525418,0.0,6.167608839340327,0.0,0.0,-0.7776246391585658,0.0,-0.10851195006018755,0.3490658503988659,1.0,0.14,0.14,0.75,0.08726646259971647,5.0,0.184,0.175,0.174,0.0,0.0,0.0,-0.008220790279945078,0.0,0.00366728183068487,0.0,6.0675039214751605,0.0,-0.5199465303661917,0.0,0.15308595335378708,0.0,-3.7197280128053762,0.0,-0.03261344624487158,0.0,-0.00797077877177386,0.460324397068401,0.010323465880781472,0.09768780890577933,0.0,0.0,0.0,0.4325579283999451,0.09768780890577933,0.0,0.0,0.027345904211176043,0.0,0.0,-0.004576258874787042,0.0,1.1851941920855336,0.0,5.247995120605425,0.0,0.04644826216907201,0.0,86.66048399935106,-1.3630040071157772,0.0,-5.204647743645862,0.0,0.04644826216907201,0.0
sim_raptor_glider_3dof,raptor_glider_3dof,0.018000000000000002,-14.785130050947425,0.0,-0.0032072164450686912,11.882747246293233,0.0,-0.42274300478411786,0.0,0.0,0.0,-44.19904619538073,-0.7714188823504666,-0.03243909636092511,0.0,0.0,0.0,0.0,0.0,-0.01050901683623718,-0.6021223115483154,0.0,0.0,11.89026466347084,0.0032072164450686912,0.03494156355893749,-0.03556120321746985,-2.037506858768066,0.0,0.0,0.025052186381232668,1.4353845472197506,-5.183349674392619,0.0,-17.986923624171006,11.886533621968644,0.0,-0.29784596890392334,0.0,6.2434369897157795,0.0,0.0,-0.7714188823504666,0.0,-0.10851195006018755,0.3490658503988659,1.0,0.14,0.14,0.75,0.08726646259971647,5.0,0.184,0.175,0.174,0.0,0.0,0.0,-0.008271695948803115,0.0,0.0036613913121680704,0.0,6.0675355485439315,0.0,-0.5201194368783346,0.0,0.1512934100251159,0.0,-3.7186326459089845,0.0,-0.03215179911310248,0.0,-0.007825708971760164,0.45380731860643025,0.010815202151526822,0.09742498810736745,0.0,0.0,0.0,0.42625176675987253,0.09742498810736745,0.0,0.0,0.027703273733940104,0.0,0.0,-0.004541473490529515,0.0,1.1811025663671133,0.0,5.167535202403889,0.0,0.04701932396954954,0.0,86.59428208833681,-1.3640808750632223,0.0,-5.122275539899151,0.0,0.04701932396954954,0.0
sim_raptor_glider_3dof,raptor_glider_3dof,0.019000000000000003,-14.773245898158436,0.0,-0.00350944932155623,11.877560509728792,0.0,-0.44054350171540174,0.0,0.0,0.0,-43.83921783993969,-0.7651386928059841,-0.03218728857275165,0.0,0.0,0.0,0.0,0.0,-0.011277301709410622,-0.6461417922448974,0.0,0.0,11.885727669737875,0.00350944932155623,0.0349282308317549,-0.037073408270492866,-2.124149826064642,0.0,0.0,0.025796106561082242,1.4780080338197443,-5.189917404670418,0.0,-17.61494296303693,11.88177327498607,0.0,-0.30657149410751994,0.0,6.316483413394583,0.0,0.0,-0.7651386928059841,0.0,-0.10851195006018755,0.3490658503988659,1.0,0.14,0.14,0.75,0.08726646259971647,5.0,0.184,0.175,0.174,0.0,0.0,0.0,-0.008321577369928336,0.0,0.003655426562129395,0.0,6.067555742525746,0.0,-0.5202861109585442,0.0,0.14953527606489592,0.0,-3.7175502154161926,0.0,-0.03169953051620603,0.0,-0.007685133311270429,0.44741110365297726,0.011296694672497267,0.09717228121585818,0.0,0.0,0.0,0.4200693601867467,0.09717228121585818,0.0,0.0,0.02804879529191872,0.0,0.0,-0.004506220400185232,0.0,1.1771401081409625,0.0,5.088699018792145,0.0,0.04756943658627461,0.0,86.52821076517161,-1.3649434513877923,0.0,-5.041571770049875,0.0,0.04756943658627461,0.0
sim_raptor_glider_3dof,raptor_glider_3dof,0.02,-14.761366501721717,0.0,-0.0038202638406792853,11.872367815237064,0.0,-0.4579746313857489,0.0,0.0,0.0,-43.47528253379344,-0.7587868234494785,-0.03193225312411822,0.0,0.0,0.0,0.0,0.0,-0.012039270326203142,-0.6897993781085299,0.0,0.0,11.881197679664698,0.0038202638406792853,0.03491491868601692,-0.03855571887196191,-2.2090799674563164,0.0,0.0,0.026516448545758766,1.5192805893477868,-5.195274054314232,0.0,-17.24818473824827,11.877020958406279,0.0,-0.31501024879810446,0.0,6.38680619874846,0.0,0.0,-0.7587868234494785,0.0,-0.10851195006018755,0.3490658503988659,1.0,0.14,0.14,0.75,0.08726646259971647,5.0,0.184,0.175,0.174,0.0,0.0,0.0,-0.008370455981659369,0.0,0.0036493931100821412,0.0,6.067565147210505,0.0,-0.5204467695487547,0.0,0.14781114003490875,0.0,-3.716480945477887,0.0,-0.031256495396804126,0.0,-0.007548921258526661,0.4411348840629059,0.011768113989427198,0.09692936013504047,0.0,0.0,0.0,0.4140097404050134,0.09692936013504047,0.0,0.0,0.02838269942890189,0.0,0.0,-0.004470515437376551,0.0,1.1733025047266197,0.0,5.011470876540075,0.0,0.04809903748277466,0.0,86.46226659231843,-1.3656035241133282,0.0,-4.96252013889479,0.0,0.04809903748277466,0.0
sim_raptor_glider_3dof,raptor_glider_3dof,0.02,-14.761366501721717,0.0,-0.0038202638406792853,11.872367815237064,0.0,-0.4579746313857489,0.0,0.0,0.0,-43.47528253379344,-0.7587868234494785,-0.03193225312411822,0.0,0.0,0.0,0.0,0.0,-0.012039270326203142,-0.6897993781085299,0.0,0.0,11.881197679664698,0.0038202638406792853,0.03491491868601692,-0.03855571887196191,-2.2090799674563164,0.0,0.0,0.026516448545758766,1.5192805893477868,-5.208061301264514,0.0,-17.212126448041708,11.877020958406279,0.0,-0.31501024879810446,0.0,6.795956215875895,0.0,0.0,-0.7587868234494785,0.0,-0.11162572791597525,0.3490658503988659,1.0,0.14,0.14,0.75,0.08726646259971647,5.0,0.184,0.175,0.174,0.0,0.0,0.0,-0.007712909754332218,0.0,0.003755107388364447,0.0,6.066654974178913,0.0,-0.5203761202088063,0.0,0.14778172431913747,0.0,-3.713018986057877,0.0,-0.031437836662832855,0.0,-0.007606094793223996,0.44032343458998435,0.013601836283690348,0.09725122675641816,0.0,0.0,0.0,0.4132023598746803,0.09725122675641816,0.0,0.0,0.030200944980134318,0.0,0.0,-0.004470515437376551,0.0,1.1771986091940814,0.0,5.00169776344836,0.0,0.05118034626176137,0.0,86.46226659231843,-1.3691200170246558,0.0,-4.952604109087986,0.0,0.05118034626176137,0.0
sim_raptor_glider_3dof,raptor_glider_3dof,0.021,-14.749491865096216,0.0,-0.004139353194007014,11.867157729104715,0.0,-0.4750035914540668,0.0,0.0,0.0,-43.08403467278587,-0.7519582600835112,-0.03165697418985236,0.0,0.0,0.0,0.0,0.0,-0.012794637032455947,-0.7330787023615138,0.0,0.0,11.876660346214505,0.004139353194007014,0.03490158496051751,-0.040005380550484866,-2.292139463357533,0.0,0.0,0.02721074351802892,1.559060760996019,-5.212030855470101,0.0,-16.84695416812053,11.872263731982438,0.0,-0.3231328791665915,0.0,6.860859704967432,0.0,0.0,-0.7519582600835112,0.0,-0.11162572791597525,0.3490658503988659,1.0,0.14,0.14,0.75,0.08726646259971647,5.0,0.184,0.175,0.174,0.0,0.0,0.0,-0.007757681689193078,0.0,0.0037498599915504437,0.0,6.066651457165655,0.0,-0.5205300082699927,0.0,0.14609496787771678,0.0,-3.7119552364968844,0.0,-0.031005604324565467,0.0,-0.007474825864565227,0.43418041558941,0.014061376050541353,0.09701943571460797,0.0,0.0,0.0,0.4072931595856447,0.09701943571460797,0.0,0.0,0.03051267400673504,0.0,0.0,-0.004431976386579331,0.0,1.1734960331428008,0.0,4.926403700243199,0.0,0.05166913443810973,0.0,86.39624071928614,-1.3695871984363857,0.0,-4.875528408639513,0.0,0.05166913443810973,0.0
sim_raptor_glider_3dof,raptor_glider_3dof,0.022,-14.737621976280147,0.0,-0.004466427971359739,11.861944203239513,0.0,-0.491670249861646,0.0,0.0,0.0,-42.689142316402844,-0.7450660882736685,-0.031378788678849745,0.0,0.0,0.0,0.0,0.0,-0.013543153218457758,-0.7759655207166469,0.0,0.0,11.872129544246327,0.004466427971359739,0.034888270428888084,-0.041425668489197896,-2.3735159679391247,0.0,0.0,0.02788251527074014,1.597550447222478,-5.2148819807281654,0.0,-16.487033361344274,11.867514940735743,0.0,-0.3309819432845608,0.0,6.923153140434223,0.0,0.0,-0.7450660882736685,0.0,-0.11162572791597525,0.3490658503988659,1.0,0.14,0.14,0.75,0.08726646259971647,5.0,0.184,0.175,0.174,0.0,0.0,0.0,-0.007801548614220959,0.0,0.0037445451752477297,0.0,6.066638466399961,0.0,-0.5206782853157685,0.0,0.14444171676775655,0.0,-3.7109054923355433,0.0,-0.03058238573644516,0.0,-0.007347676289545455,0.4281566979097008,0.014511099546273635,0.09679680146791422,0.0,0.0,0.0,0.40150577060976045,0.09679680146791422,0.0,0.0,0.030813220241438816,0.0,0.0,-0.004393030415038964,0.0,1.169910042423526,0.0,4.852697878483703,0.0,0.05213826630061013,0.0,86.33033505549419,-1.3698751149777009,0.0,-4.800084205153954,0.0,0.05213826630061013,0.0
sim_raptor_glider_3dof,raptor_glider_3dof,0.023,-14.72575683146148,0.0,-0.0048012041924201535,11.856728417774354,0.0,-0.5079798637641353,0.0,0.0,0.0,-42.2907615478123,-0.738113032185138,-0.031097808783705373,0.0,0.0,0.0,0.0,0.0,-0.01428474359093774,-0.8184555191872847,0.0,0.0,11.86760516342062,0.0048012041924201535,0.034874974766877134,-0.04281698815814675,-2.453232712923433,0.0,0.0,0.028532244567209014,1.6347771937361486,-5.216663388079005,0.0,-16.13233092265378,11.862774847834663,0.0,-0.33856347178790225,0.0,6.982892869072485,0.0,0.0,-0.738113032185138,0.0,-0.11162572791597525,0.3490658503988659,1.0,0.14,0.14,0.75,0.08726646259971647,5.0,0.184,0.175,0.174,0.0,0.0,0.0,-0.007844528407816456,0.0,0.0037391681233911386,0.0,6.06661657897408,0.0,-0.5208211497713346,0.0,0.1428215479655767,0.0,-3.7098699190837627,0.0,-0.030168039456367333,0.0,-0.007224523675968655,0.422251217030535,0.014951172841474824,0.09658301543960822,0.0,0.0,0.0,0.395839029503356,0.09658301543960822,0.0,0.0,0.031102808391327057,0.0,0.0,-0.004353693229718752,0.0,1.1664366224793052,0.0,4.780562488319567,0.0,0.052588166196984885,0.0,86.26454788809255,-1.3699943254709184,0.0,-4.7262530240314655,0.0,0.052588166196984885,0.0
sim_raptor_glider_3dof,raptor_glider_3dof,0.024,-14.7138964232526,0.0,-0.005143455434903789,11.851511264330618,0.0,-0.5239368803818273,0.0,0.0,0.0,-41.88901614257833,-0.7311012521090463,-0.03081412378883374,0.0,0.0,0.0,0.0,0.0,-0.01501935708977208,-0.8605457722438309,0.0,0.0,11.863086828611673,0.005143455434903789,0.034861696872114,-0.044179678297962946,-2.531309106718993,0.0,0.0,0.029160321208190867,1.6707633344751622,-5.2174209602029835,0.0,-15.782817424223504,11.858043450305253,0.0,-0.34588239887631095,0.0,7.040126896790359,0.0,0.0,-0.7311012521090463,0.0,-0.11162572791597525,0.3490658503988659,1.0,0.14,0.14,0.75,0.08726646259971647,5.0,0.184,0.175,0.174,0.0,0.0,0.0,-0.007886636225791553,0.0,0.003733734353427101,0.0,6.066586351369679,0.0,-0.5209587870179233,0.0,0.14123411365174282,0.0,-3.7088487140769524,0.0,-0.029762445109636732,0.0,-0.007105254520456956,0.416463138128995,0.015381738909507255,0.09637778634818486,0.0,0.0,0.0,0.39029202213604935,0.09637778634818486,0.0,0.0,0.03138162818405462,0.0,0.0,-0.004313977330436724,0.0,1.163071928052997,0.0,4.7099825788645235,0.0,0.0530191956597282,0.0,86.1988736588827,-1.3699548751824995,0.0,-4.654019321295941,0.0,0.0530191956597282,0.0
sim_raptor_glider_3dof,raptor_glider_3dof,0.025,-14.702040741763911,0.0,-0.005492890553906215,11.846293871803574,0.0,-0.5395470842416501,0.0,0.0,0.0,-41.484065371287,-0.7240335278415221,-0.030527848303360715,0.0,0.0,0.0,0.0,0.0,-0.015746929139839144,-0.9022325800043547,0.0,0.0,11.858574516072519,0.005492890553906215,0.03484843667481418,-0.04551418982957678,-2.6077709851920052,0.0,0.0,0.029767260689737635,1.7055384051876503,-5.217201202126931,0.0,-15.438447517101153,11.853321022998122,0.0,-0.35294515012295125,0.0,7.094913828458463,0.0,0.0,-0.7240335278415221,0.0,-0.11162572791597525,0.3490658503988659,1.0,0.14,0.14,0.75,0.08726646259971647,5.0,0.184,0.175,0.174,0.0,0.0,0.0,-0.007927890077621444,0.0,0.0037282489859408767,0.0,6.066548316419718,0.0,-0.5210913877450268,0.0,0.13967893293024047,0.0,-3.70784197318766,0.0,-0.029365450068580892,0.0,-0.00698974843092843,0.41079109974408917,0.015802974266387854,0.0961808130338989,0.0,0.0,0.0,0.38486328640207546,0.0961808130338989,0.0,0.0,0.03164991548703078,0.0,0.0,-0.004273898762470501,0.0,1.1598120758012516,0.0,4.640936929326643,0.0,0.053431796042120686,0.0,86.1333119225049,-1.3697665476031826,0.0,-4.58336112893469,0.0,0.053431796042120686,0.0
sim_raptor_glider_3dof,raptor_glider_3dof,0.026000000000000002,-14.690189778177517,0.0,-0.005849262665865468,11.841077169109662,0.0,-0.5548154731097019,0.0,0.0,0.0,-41.07604440293763,-0.71691221852665,-0.03023907982615576,0.0,0.0,0.0,0.0,0.0,-0.016467406492050328,-0.9435128915208161,0.0,0.0,11.85406802469144,0.005849262665865468,0.03483519358397672,-0.04682090862458495,-2.6826404571563938,0.0,0.0,0.03035350213253462,1.7391275656355776,-5.216048084231828,0.0,-15.099181327502784,11.848607659520926,0.0,-0.3597572303013083,0.0,7.147304870334344,0.0,0.0,-0.71691221852665,0.0,-0.11162572791597525,0.3490658503988659,1.0,0.14,0.14,0.75,0.08726646259971647,5.0,0.184,0.175,0.174,0.0,0.0,0.0,-0.007968305397443717,0.0,0.0037227174136334096,0.0,6.066502987004953,0.0,-0.5212191300262347,0.0,0.13815559834089125,0.0,-3.706849823507014,0.0,-0.02897692216612517,0.0,-0.006877893697977806,0.4052339694718087,0.01621503301969701,0.09599181146639815,0.0,0.0,0.0,0.37955160393925697,0.09599181146639815,0.0,0.0,0.03190787490002101,0.0,0.0,-0.004233471175661807,0.0,1.1566533660744427,0.0,4.57340718535112,0.0,0.05382635297848795,0.0,86.06785965870255,-1.369438643598839,0.0,-4.51425941807632,0.0,0.05382635297848795,0.0
sim_raptor_glider_3dof,raptor_glider_3dof,0.027,-14.67834352338165,0.0,-0.006212323692155001,11.835862069596422,0.0,-0.569747130970406,0.0,0.0,0.0,-40.66508914427427,-0.7097396961845894,-0.029947916428808882,0.0,0.0,0.0,0.0,0.0,-0.01718073666506232,-0.98438369983374,0.0,0.0,11.849567195630408,0.006212323692155001,0.034821967132829076,-0.048100228337940594,-2.7559400773795586,0.0,0.0,0.030919491672878274,1.7715563775458185,-5.21400438361772,0.0,-14.764975946764311,11.843903465083846,0.0,-0.3663242191490961,0.0,7.197351295563067,0.0,0.0,-0.7097396961845894,0.0,-0.11162572791597525,0.3490658503988659,1.0,0.14,0.14,0.75,0.08726646259971647,5.0,0.184,0.175,0.174,0.0,0.0,0.0,-0.008007897337673705,0.0,0.003717144997829652,0.0,6.066450855396993,0.0,-0.5213421869607519,0.0,0.13666369114546295,0.0,-3.7058723695680427,0.0,-0.028596727952096113,0.0,-0.006769580795042259,0.3997905378864617,0.016618069986950493,0.09581050351641811,0.0,0.0,0.0,0.3743556790332949,0.09581050351641811,0.0,0.0,0.032155711829702296,0.0,0.0,-0.004192708300033245,0.0,1.1535921900453978,0.0,4.507374158178265,0.0,0.05420325260688546,0.0,86.00251446542065,-1.3689800878765503,0.0,-4.4466943072067,0.0,0.05420325260688546,0.0
sim_raptor_glider_3dof,raptor_glider_3dof,0.028,-14.666501968162365,0.0,-0.006581831248732518,11.830649443383948,0.0,-0.5843470969589418,0.0,0.0,0.0,-40.25133251365551,-0.7025182806783341,-0.029654454103217768,0.0,0.0,0.0,0.0,0.0,-0.017886869588728743,-1.0248421361350595,0.0,0.0,11.845071877450355,0.006581831248732518,0.03480875687634181,-0.049352539479765756,-2.8276922204433492,0.0,0.0,0.03146566989103701,1.8028500843082895,-5.211111512026738,0.0,-14.435786862810827,11.839208527220798,0.0,-0.372651621420843,0.0,7.245103351723482,0.0,0.0,-0.7025182806783341,0.0,-0.11162572791597525,0.3490658503988659,1.0,0.14,0.14,0.75,0.08726646259971647,5.0,0.184,0.175,0.174,0.0,0.0,0.0,-0.008046680472445293,0.0,0.0037115370931464246,0.0,6.066392394060603,0.0,-0.5214607257489672,0.0,0.13520279415803083,0.0,-3.70490970202213,0.0,-0.02822473589284927,0.0,-0.006664703269699696,0.3944595678873489,0.017012237324595548,0.09563661852145451,0.0,0.0,0.0,0.3692741902122998,0.09563661852145451,0.0,0.0,0.03239362778472095,0.0,0.0,-0.004151623574450487,0.0,1.1506250413343542,0.0,4.442818419823355,0.0,0.05456287334182954,0.0,85.9372740515877,-1.3683994253848575,0.0,-4.380645672714671,0.0,0.05456287334182954,0.0
sim_raptor_glider_3dof,raptor_glider_3dof,0.029,-14.654665103221614,0.0,-0.006957548750293213,11.82544011732301,0.0,-0.598620362386519,0.0,0.0,0.0,-39.83490440519141,-0.6952502390877834,-0.029358786735788202,0.0,0.0,0.0,0.0,0.0,-0.01858575762765772,-1.0648854711178646,0.0,0.0,11.840581924325182,0.006957548750293213,0.03479556238598014,-0.050578229170879375,-2.8979190667368533,0.0,0.0,0.03199247154322166,1.8330335956189887,-5.207409538710921,0.0,-14.11156812524213,11.834522915384902,0.0,-0.3787448638409156,0.0,7.290610263124608,0.0,0.0,-0.6952502390877834,0.0,-0.11162572791597525,0.3490658503988659,1.0,0.14,0.14,0.75,0.08726646259971647,5.0,0.184,0.175,0.174,0.0,0.0,0.0,-0.008084668828730598,0.0,0.003705899031836417,0.0,6.066328056249357,0.0,-0.5215749078530775,0.0,0.13377249212815034,0.0,-3.7039618983304803,0.0,-0.02786081639241555,0.0,-0.006563157694027894,0.38923979852057633,0.017397684531216415,0.09546989321868989,0.0,0.0,0.0,0.36430579408639086,0.09546989321868989,0.0,0.0,0.03262182037429619,0.0,0.0,-0.004110230143010349,0.0,1.1477485144334447,0.0,4.37972034811384,0.0,0.054905585891591425,0.0,85.87213621099625,-1.3677048317911635,0.0,-4.316093195606612,0.0,0.054905585891591425,0.0
sim_raptor_glider_3dof,raptor_glider_3dof,0.03,-14.64283291920479,0.0,-0.007339244677398035,11.820234881358541,0.0,-0.6125718744089812,0.0,0.0,0.0,-39.415932091531424,-0.6879377927397183,-0.02906100638819119,0.0,0.0,0.0,0.0,0.0,-0.01927735525144393,-1.1045110960820912,0.0,0.0,11.836097201011915,0.007339244677398035,0.0347823832643096,-0.05177768143051671,-2.9666426189415023,0.0,0.0,0.03250032617907278,1.8621315228594113,-5.202937232168381,0.0,-13.792272502838808,11.829846686920229,0.0,-0.3846093027535867,0.0,7.333920313014539,0.0,0.0,-0.6879377927397183,0.0,-0.11162572791597525,0.3490658503988659,1.0,0.14,0.14,0.75,0.08726646259971647,5.0,0.184,0.175,0.174,0.0,0.0,0.0,-0.008121875931672708,0.0,0.0037002361071353314,0.0,6.066258276564597,0.0,-0.5216848892031656,0.0,0.13237237149903605,0.0,-3.7030290230346665,0.0,-0.02750484165797635,0.0,-0.006464843571082,0.3841299463791814,0.017774558614740518,0.09531007160066549,0.0,0.0,0.0,0.3594491265053088,0.09531007160066549,0.0,0.0,0.03284048362791002,0.0,0.0,-0.0040685408943467675,0.0,1.1449593035232477,0.0,4.318060144366575,0.0,0.055231753877312495,0.0,85.80709889420191,-1.366904125483494,0.0,-4.25301638003285,0.0,0.055231753877312495,0.0
sim_raptor_glider_3dof,raptor_glider_3dof,0.03,-14.64283291920479,0.0,-0.007339244677398035,11.820234881358541,0.0,-0.6125718744089812,0.0,0.0,0.0,-39.415932091531424,-0.6879377927397183,-0.02906100638819119,0.0,0.0,0.0,0.0,0.0,-0.01927735525144393,-1.1045110960820912,0.0,0.0,11.836097201011915,0.007339244677398035,0.0347823832643096,-0.05177768143051671,-2.9666426189415023,0.0,0.0,0.03250032617907278,1.8621315228594113,-5.2125533196441864,0.0,-13.765503923855865,11.829846686920229,0.0,-0.3846093027535867,0.0,7.637254666327336,0.0,0.0,-0.6879377927397183,0.0,-0.11395841552102814,0.3490658503988659,1.0,0.14,0.14,0.75,0.08726646259971647,5.0,0.184,0.175,0.174,0.0,0.0,0.0,-0.007595024356084659,0.0,0.00378690839511076,0.0,6.065548973439056,0.0,-0.5216248041450517,0.0,0.132351084961744,0.0,-3.700327556673776,0.0,-0.027649624840696073,0.0,-0.006511340606973289,0.38352649145791395,0.019143847309825286,0.09556162121091609,0.0,0.0,0.0,0.3588485574128141,0.09556162121091609,0.0,0.0,0.0341987812966308,0.0,0.0,-0.0040685408943467675,0.0,1.1479811674429479,0.0,4.310845511554825,0.0,0.05751616489211117,0.0,85.80709889420191,-1.3695485495393405,0.0,-4.245655020812541,0.0,0.05751616489211117,0.0
sim_raptor_glider_3dof,raptor_glider_3dof,0.031,-14.631005423599674,0.0,-0.007726676941076897,11.815025040538728,0.0,-0.6261779757089906,0.0,0.0,0.0,-38.977221478868486,-0.6802808480853085,-0.028748456108734943,0.0,0.0,0.0,0.0,0.0,-0.01996144405005686,-1.1437064970547868,0.0,0.0,11.83160663501877,0.007726676941076897,0.034769186972931236,-0.052948908926650766,-3.033749011319659,0.0,0.0,0.0329874648765939,1.8900425142648716,-5.207152041691447,0.0,-13.448430819395497,11.825169802258522,0.0,-0.3902239274740927,0.0,7.676413103935429,0.0,0.0,-0.6802808480853085,0.0,-0.11395841552102814,0.3490658503988659,1.0,0.14,0.14,0.75,0.08726646259971647,5.0,0.184,0.175,0.174,0.0,0.0,0.0,-0.007629547142186963,0.0,0.0037817691458885763,0.0,6.065472764100595,0.0,-0.5217301055536226,0.0,0.13098362053205106,0.0,-3.699405751398534,0.0,-0.027302638739875155,0.0,-0.006416580861415143,0.37853591100557377,0.019510917558495385,0.09540949156132641,0.0,0.0,0.0,0.3541236941503275,0.09540949156132641,0.0,0.0,0.03440022610064292,0.0,0.0,-0.004024783855222892,0.0,1.1452841080443785,0.0,4.25085840575566,0.0,0.05781106708573772,0.0,85.74200153333078,-1.3686521895250052,0.0,-4.184287759945648,0.0,0.05781106708573772,0.0
sim_raptor_glider_3dof,raptor_glider_3dof,0.032,-14.6191825875174,0.0,-0.008119599815845504,11.809820938324393,0.0,-0.639470309258031,0.0,0.0,0.0,-38.5363337199496,-0.672585905060435,-0.028434050049794112,0.0,0.0,0.0,0.0,0.0,-0.020637877433600415,-1.1824632750535866,0.0,0.0,11.82712107284388,0.008119599815845504,0.034756005386123244,-0.054094507290988664,-3.099386962613311,0.0,0.0,0.033456629857388245,1.9169236875597238,-5.201051991052397,0.0,-13.136236405159854,11.820502369449763,0.0,-0.3956217960885972,0.0,7.713472711824941,0.0,0.0,-0.672585905060435,0.0,-0.11395841552102814,0.3490658503988659,1.0,0.14,0.14,0.75,0.08726646259971647,5.0,0.184,0.175,0.174,0.0,0.0,0.0,-0.007663349311909803,0.0,0.003776607857568413,0.0,6.065391996067302,0.0,-0.521831500594647,0.0,0.129645696306535,0.0,-3.6984992366795644,0.0,-0.026963381135579605,0.0,-0.006324858097162663,0.37365326646978775,0.019869661430235327,0.09526376703873252,0.0,0.0,0.0,0.349508354127496,0.09526376703873252,0.0,0.0,0.034592525166917416,0.0,0.0,-0.003980767006971176,0.0,1.1426679458890772,0.0,4.192275883018153,0.0,0.05809016299275363,0.0,85.67700137124756,-1.367665020819143,0.0,-4.124361708764857,0.0,0.05809016299275363,0.0
sim_raptor_glider_3dof,raptor_glider_3dof,0.033,-14.607364414142724,0.0,-0.008517814494828874,11.804623267933538,0.0,-0.6524528674798509,0.0,0.0,0.0,-38.09338161271513,-0.6648549323605464,-0.02811787010915618,0.0,0.0,0.0,0.0,0.0,-0.021306597869035496,-1.2207781336781676,0.0,0.0,11.822640366775966,0.008517814494828874,0.03474283806981094,-0.05521478149739254,-3.1635739465376203,0.0,0.0,0.03390818362835704,1.942795812859453,-5.194288147836637,0.0,-12.82888205291349,11.81584438940157,0.0,-0.40080744450173045,0.0,7.748471605212153,0.0,0.0,-0.6648549323605464,0.0,-0.11395841552102814,0.3490658503988659,1.0,0.14,0.14,0.75,0.08726646259971647,5.0,0.184,0.175,0.174,0.0,0.0,0.0,-0.007696435359515936,0.0,0.0037714341471452376,0.0,6.065307061028778,0.0,-0.5219291198532169,0.0,0.12833698830717644,0.0,-3.697608095172888,0.0,-0.026631750914541247,0.0,-0.006236083558004501,0.36887751762036686,0.020220187997142987,0.09512421898523532,0.0,0.0,0.0,0.34500142536438516,0.09512421898523532,0.0,0.0,0.03477582897599198,0.0,0.0,-0.003936501815281866,0.0,1.140129729956203,0.0,4.135081329774226,0.0,0.058353739658852724,0.0,85.61209618620347,-1.3665938494569387,0.0,-4.065859645339944,0.0,0.058353739658852724,0.0
sim_raptor_glider_3dof,raptor_glider_3dof,0.034,-14.595550895192137,0.0,-0.008921136223493017,11.799432599320378,0.0,-0.6651298872876528,0.0,0.0,0.0,-37.64846806431912,-0.6570897260543049,-0.02779999115549008,0.0,0.0,0.0,0.0,0.0,-0.021967574418990474,-1.2586493003477057,0.0,0.0,11.818164300468485,0.008921136223493017,0.034729684388223235,-0.056310058138258366,-3.226328675458498,0.0,0.0,0.03434248371926789,1.9676793751107924,-5.186894181783147,0.0,-12.526321989620557,11.811195777348715,0.0,-0.405785339813619,0.0,7.781448305226774,0.0,0.0,-0.6570897260543049,0.0,-0.11395841552102814,0.3490658503988659,1.0,0.14,0.14,0.75,0.08726646259971647,5.0,0.184,0.175,0.174,0.0,0.0,0.0,-0.007728810693708572,0.0,0.0037662570025780596,0.0,6.065218333114616,0.0,-0.5220230919571262,0.0,0.12705714548090857,0.0,-3.6967323797769436,0.0,-0.026307641162900526,0.0,-0.006150169259213904,0.3642075055859074,0.0205626129279262,0.09499062209047102,0.0,0.0,0.0,0.34060168334356905,0.09499062209047102,0.0,0.0,0.03495029077260799,0.0,0.0,-0.003891998761768611,0.0,1.1376665451345909,0.0,4.079256792185755,0.0,0.058602087186662835,0.0,85.54728276613106,-1.3654451672821553,0.0,-4.008762981227239,0.0,0.058602087186662835,0.0
sim_raptor_glider_3dof,raptor_glider_3dof,0.034999999999999996,-14.583742019783333,0.0,-0.009329326647025241,11.794249649717075,0.0,-0.6775068953260742,0.0,0.0,0.0,-37.20172617140138,-0.6492926091162985,-0.027480509843452624,0.0,0.0,0.0,0.0,0.0,-0.022620768290482797,-1.2960745523880264,0.0,0.0,11.813692919365465,0.009329326647025241,0.034716544474905124,-0.05738077252537429,-3.2876760909041773,0.0,0.0,0.03476000423489149,1.9916015385161507,-5.1789040091157394,0.0,-12.228495033995786,11.806556644081311,0.0,-0.41056132692348823,0.0,7.812451516789785,0.0,0.0,-0.6492926091162985,0.0,-0.11395841552102814,0.3490658503988659,1.0,0.14,0.14,0.75,0.08726646259971647,5.0,0.184,0.175,0.174,0.0,0.0,0.0,-0.007760484309166634,0.0,0.003761084275683387,0.0,6.065126160942258,0.0,-0.5221135509074528,0.0,0.1258056878804303,0.0,-3.695872043368182,0.0,-0.025990913374228458,0.0,-0.006067021325943234,0.3596415831874723,0.020897085837638444,0.09486274434988602,0.0,0.0,0.0,0.3363073969040145,0.09486274434988602,0.0,0.0,0.03511610856714734,0.0,0.0,-0.003847271378083368,0.0,1.135275455467455,0.0,4.024778492482418,0.0,0.05883557237294388,0.0,85.48256169236421,-1.364225177833892,0.0,-3.9530471711706108,0.0,0.05883557237294388,0.0
sim_raptor_glider_3dof,raptor_glider_3dof,0.036,-14.571937778774855,0.0,-0.009742193812012643,11.789074975990474,0.0,-0.6895884276186359,0.0,0.0,0.0,-36.75326364370376,-0.6414654614361587,-0.027159504620183975,0.0,0.0,0.0,0.0,0.0,-0.023266149825399273,-1.3330521905144155,0.0,0.0,11.809226096109361,0.009742193812012643,0.03470341795559482,-0.05842727753959165,-3.3476364114581103,0.0,0.0,0.03516112771419237,2.0145842209436946,-5.170349386198108,0.0,-11.935349776660555,11.801926946097247,0.0,-0.4151401546635128,0.0,7.841521756893225,0.0,0.0,-0.6414654614361587,0.0,-0.11395841552102814,0.3490658503988659,1.0,0.14,0.14,0.75,0.08726646259971647,5.0,0.184,0.175,0.174,0.0,0.0,0.0,-0.0077914631125913045,0.0,0.003755923609965635,0.0,6.065030883227885,0.0,-0.5222006196823086,0.0,0.12458223010153134,0.0,-3.695027091731891,0.0,-0.025681453993406538,0.0,-0.005986554963340866,0.3551784317724067,0.021223730471231154,0.09474037045076521,0.0,0.0,0.0,0.33211717897116466,0.09474037045076521,0.0,0.0,0.03527344522297477,0.0,0.0,-0.0038023306468257566,0.0,1.132953700254682,0.0,3.9716267209348697,0.0,0.05905450035116288,0.0,85.41793104552107,-1.3629397736324673,0.0,-3.898691840966059,0.0,0.05905450035116288,0.0
sim_raptor_glider_3dof,raptor_glider_3dof,0.037,-14.560138162757431,0.0,-0.01015954325344531,11.783909126264017,0.0,-0.7013791331107049,0.0,0.0,0.0,-36.30318990281041,-0.6336101927808019,-0.026837055220851953,0.0,0.0,0.0,0.0,0.0,-0.023903689996071904,-1.3695805515640074,0.0,0.0,11.80476374115177,0.01015954325344531,0.03469030456713912,-0.05944993611901735,-3.4062304319420473,0.0,0.0,0.03554624612294545,2.03664988037804,-5.161261132690002,0.0,-11.646832556407073,11.797306656694806,0.0,-0.41952667652480063,0.0,7.868700259900671,0.0,0.0,-0.6336101927808019,0.0,-0.11395841552102814,0.3490658503988659,1.0,0.14,0.14,0.75,0.08726646259971647,5.0,0.184,0.175,0.174,0.0,0.0,0.0,-0.00782175463070064,0.0,0.0037507820423602276,0.0,6.064932822190689,0.0,-0.5222844183771415,0.0,0.12338637332661612,0.0,-3.694197510317449,0.0,-0.025379147012262574,0.0,-0.005908687058982683,0.3508166686633409,0.02154267360547395,0.0946232901682167,0.0,0.0,0.0,0.3280295774749564,0.0946232901682167,0.0,0.0,0.0354224671668312,0.0,0.0,-0.003757187730919274,0.0,1.1306985952248654,0.0,3.919781079095503,0.0,0.059259181657311956,0.0,85.35338945583693,-1.3615945649578667,0.0,-3.845675917437114,0.0,0.059259181657311956,0.0
sim_raptor_glider_3dof,raptor_glider_3dof,0.038,-14.548343162336819,0.0,-0.010581184770215333,11.7787526210117,0.0,-0.7128836161062108,0.0,0.0,0.0,-35.85161231183897,-0.625728676990126,-0.026513239952438122,0.0,0.0,0.0,0.0,0.0,-0.024533361505195434,-1.405658071516419,0.0,0.0,11.800305773881567,0.010581184770215333,0.03467720407264852,-0.0604491080402292,-3.4634787660354642,0.0,0.0,0.035915746535033766,2.057820694519045,-5.151668993777292,0.0,-11.362889286712534,11.792695743749853,0.0,-0.42372568065526145,0.0,7.894027711967414,0.0,0.0,-0.625728676990126,0.0,-0.11395841552102814,0.3490658503988659,1.0,0.14,0.14,0.75,0.08726646259971647,5.0,0.184,0.175,0.174,0.0,0.0,0.0,-0.007851366596969339,0.0,0.0037456660945793356,0.0,6.064832285097536,0.0,-0.5223650631679988,0.0,0.12221772085909491,0.0,-3.6933832751788107,0.0,-0.025083877855543266,0.0,-0.005833337142672229,0.3465549051535573,0.02185404088550424,0.09451129985901914,0.0,0.0,0.0,0.32404313564310544,0.09451129985901914,0.0,0.0,0.035563338867063504,0.0,0.0,-0.003711853593341337,0.0,1.1285075445224015,0.0,3.8692211816938986,0.0,0.0594499226988266,0.0,85.28893568477122,-1.3601948875699106,0.0,-3.7939783471629602,0.0,0.0594499226988266,0.0
sim_raptor_glider_3dof,raptor_glider_3dof,0.039,-14.53655276815888,0.0,-0.011006933547060572,11.773605947519615,0.0,-0.7241064196145078,0.0,0.0,0.0,-35.39863561189784,-0.6178227421413349,-0.026188135292311808,0.0,0.0,0.0,0.0,0.0,-0.025155139159073664,-1.4412833068791877,0.0,0.0,11.795852114806976,0.011006933547060572,0.03466411623852295,-0.06142514853808299,-3.519401767196334,0.0,0.0,0.03627000937900932,2.078118460317146,-5.141601644988237,0.0,-11.083465663268269,11.788094163512675,0.0,-0.4277418690689664,0.0,7.917544098173738,0.0,0.0,-0.6178227421413349,0.0,-0.11395841552102814,0.3490658503988659,1.0,0.14,0.14,0.75,0.08726646259971647,5.0,0.184,0.175,0.174,0.0,0.0,0.0,-0.007880306889310427,0.0,0.003740581808503115,0.0,6.0647295649063135,0.0,-0.522442666307023,0.0,0.12107587982386363,0.0,-3.692584354494852,0.0,-0.024795533763427014,0.0,-0.005760427408921683,0.34239175393215837,0.022157956368849013,0.09440420247576183,0.0,0.0,0.0,0.32015639976217136,0.09440420247576183,0.0,0.0,0.03569622218037892,0.0,0.0,-0.0036663389409236536,0.0,1.12637803903751,0.0,3.8199267436427076,0.0,0.05962702460334642,0.0,85.22456851179042,-1.35874581175678,0.0,-3.7435781857276833,0.0,0.05962702460334642,0.0
sim_raptor_glider_3dof,raptor_glider_3dof,0.04,-14.524766970915003,0.0,-0.011436609072856737,11.768469567190392,0.0,-0.7350520362250689,0.0,0.0,0.0,-34.94436244630774,-0.6098941796983304,-0.02586181625792851,0.0,0.0,0.0,0.0,0.0,-0.02576899943053166,-1.476454909644486,0.0,0.0,11.791402692209482,0.011436609072856737,0.034651040854005354,-0.06237840918786243,-3.5740195792045943,0.0,0.0,0.03660940975733077,2.0975646695601085,-5.131086741911722,0.0,-10.808507175293006,11.783501867548916,0.0,-0.4315798736227812,0.0,7.939288813318537,0.0,0.0,-0.6098941796983304,0.0,-0.11395841552102814,0.3490658503988659,1.0,0.14,0.14,0.75,0.08726646259971647,5.0,0.184,0.175,0.174,0.0,0.0,0.0,-0.00790858353602065,0.0,0.0037355347688271035,0.0,6.064624940680411,0.0,-0.5225173363017104,0.0,0.1199604602180356,0.0,-3.691800708245118,0.0,-0.024514003506444965,0.0,-0.005689882569249614,0.33832582676409145,0.02245454277762144,0.0943018073215403,0.0,0.0,0.0,0.3163679165396136,0.0943018073215403,0.0,0.0,0.03582127679847502,0.0,0.0,-0.0036206542761099917,0.0,1.124307654418448,0.0,3.7718775523049493,0.0,0.059790784053101904,0.0,85.16028683044544,-1.357252152958002,0.0,-3.6944545693047517,0.0,0.059790784053101904,0.0
sim_raptor_glider_3dof,raptor_glider_3dof,0.04,-14.524766970915003,0.0,-0.011436609072856737,11.768469567190392,0.0,-0.7350520362250689,0.0,0.0,0.0,-34.94436244630774,-0.6098941796983304,-0.02586181625792851,0.0,0.0,0.0,0.0,0.0,-0.02576899943053166,-1.476454909644486,0.0,0.0,11.791402692209482,0.011436609072856737,0.034651040854005354,-0.06237840918786243,-3.5740195792045943,0.0,0.0,0.03660940975733077,2.0975646695601085,-5.137645814392144,0.0,-10.790467623702384,11.783501867548916,0.0,-0.4315798736227812,0.0,8.143734481971604,0.0,0.0,-0.6098941796983304,0.0,-0.11554615952034514,0.3490658503988659,1.0,0.14,0.14,0.75,0.08726646259971647,5.0,0.184,0.175,0.174,0.0,0.0,0.0,-0.007533001365846071,0.0,0.003798792332749125,0.0,6.064128871924169,0.0,-0.5224725991388876,0.0,0.11994670476175483,0.0,-3.6899090111152426,0.0,-0.02461692390214015,0.0,-0.005723340599959362,0.337918175290569,0.023383830361061973,0.09447874155221805,0.0,0.0,0.0,0.3159620611595547,0.09447874155221805,0.0,0.0,0.03674371520061317,0.0,0.0,-0.0036206542761099917,0.0,1.126417142195298,0.0,3.7670387658241,0.0,0.061330464383728155,0.0,85.16028683044544,-1.359055897890118,0.0,-3.6894936926173307,0.0,0.061330464383728155,0.0
sim_raptor_glider_3dof,raptor_glider_3dof,0.041,-14.512985787153873,0.0,-0.011870031114438864,11.763337515635671,0.0,-0.7457049607728763,0.0,0.0,0.0,-34.47721971859847,-0.6017410010230562,-0.025525730220713957,0.0,0.0,0.0,0.0,0.0,-0.026374776222981285,-1.511163363178822,0.0,0.0,11.786949791836854,0.011870031114438864,0.03463795524945445,-0.06330758332245445,-3.6272573355494377,0.0,0.0,0.036932807099473164,2.116093972370616,-5.12656271813142,0.0,-10.518152014612177,11.778911815805591,0.0,-0.43522618344752856,0.0,8.162420294402256,0.0,0.0,-0.6017410010230562,0.0,-0.11554615952034514,0.3490658503988659,1.0,0.14,0.14,0.75,0.08726646259971647,5.0,0.184,0.175,0.174,0.0,0.0,0.0,-0.007559573630521258,0.0,0.003794091316658478,0.0,6.0640219932682236,0.0,-0.5225440769362777,0.0,0.11885934031308257,0.0,-3.689138987798236,0.0,-0.02434284015680287,0.0,-0.005655317594792675,0.33395549408569986,0.023672339603033426,0.09438144109323246,0.0,0.0,0.0,0.31228509156233014,0.09438144109323246,0.0,0.0,0.0368558549199292,0.0,0.0,-0.0035736022308999545,0.0,1.1244073605436289,0.0,3.7203887912016955,0.0,0.0614711872371434,0.0,85.09597918521395,-1.3575264124586623,0.0,-3.6417999271817525,0.0,0.0614711872371434,0.0
sim_raptor_glider_3dof,raptor_glider_3dof,0.042,-14.501209165789758,0.0,-0.012306996659631217,11.758216691974457,0.0,-0.7560891439976511,0.0,0.0,0.0,-34.009060486656324,-0.5935700810020579,-0.025188628432535238,0.0,0.0,0.0,0.0,0.0,-0.026972431769852354,-1.5454065036171172,0.0,0.0,11.782501032000713,0.012306996659631217,0.03462488181257373,-0.0642146363284833,-3.6792276445895453,0.0,0.0,0.03724220455863095,2.133821140972428,-5.115084270975369,0.0,-10.250214656711675,11.77433091913548,0.0,-0.43870488461849666,0.0,8.1794195336648,0.0,0.0,-0.5935700810020579,0.0,-0.11554615952034514,0.3490658503988659,1.0,0.14,0.14,0.75,0.08726646259971647,5.0,0.184,0.175,0.174,0.0,0.0,0.0,-0.007585521959902729,0.0,0.0037894314748648187,0.0,6.063913765514137,0.0,-0.5226128342291134,0.0,0.11779766523548717,0.0,-3.6883842475503448,0.0,-0.024075355726356582,0.0,-0.005589512764179486,0.33008740044510526,0.02395375891682924,0.09428846708366793,0.0,0.0,0.0,0.3087035665489993,0.09428846708366793,0.0,0.0,0.03696050656274388,0.0,0.0,-0.0035264079805549338,0.0,1.1224519443533927,0.0,3.6749448709806276,0.0,0.06159920850802962,0.0,85.03175559237894,-1.3559616134453807,0.0,-3.595342302895808,0.0,0.06159920850802962,0.0
sim_raptor_glider_3dof,raptor_glider_3dof,0.043000000000000003,-14.489437120783519,0.0,-0.012747358942036947,11.753107531862243,0.0,-0.7662075598047949,0.0,0.0,0.0,-33.53997470585193,-0.5853829896527328,-0.024850576943332828,0.0,0.0,0.0,0.0,0.0,-0.027561908321607702,-1.5791810221546239,0.0,0.0,11.77805632013275,0.012747358942036947,0.034611820271335476,-0.06509979256643217,-3.729943361233693,0.0,0.0,0.03753788424482447,2.1507623390790696,-5.103235272764164,0.0,-9.986621384291016,11.769759107590604,0.0,-0.4420194899628697,0.0,8.19476129986479,0.0,0.0,-0.5853829896527328,0.0,-0.11554615952034514,0.3490658503988659,1.0,0.14,0.14,0.75,0.08726646259971647,5.0,0.184,0.175,0.174,0.0,0.0,0.0,-0.007610850964814385,0.0,0.0037848178682356815,0.0,6.063804443219711,0.0,-0.5226789602289287,0.0,0.11676143455162463,0.0,-3.6876448239262483,0.0,-0.02381439820471345,0.0,-0.005525866412248889,0.32631300612667574,0.024228170844064388,0.09419965865017572,0.0,0.0,0.0,0.30521654068269805,0.09419965865017572,0.0,0.0,0.037057785045197106,0.0,0.0,-0.0034790807720665963,0.0,1.12054884147127,0.0,3.630692997837398,0.0,0.061714747349281736,0.0,84.9676146486591,-1.3543656964453243,0.0,-3.5501063238951436,0.0,0.061714747349281736,0.0
sim_raptor_glider_3dof,raptor_glider_3dof,0.044,-14.477669644157798,0.0,-0.013190974623350487,11.748010352935145,0.0,-0.7760640244555694,0.0,0.0,0.0,-33.070045463564874,-0.5771811771234215,-0.02451163687594002,0.0,0.0,0.0,0.0,0.0,-0.028143192196741353,-1.6124861348987916,0.0,0.0,11.773615528915727,0.013190974623350487,0.03459877025159636,-0.06596334874948714,-3.77942148589517,0.0,0.0,0.03782015655274579,2.1669353509963782,-5.091039484410975,0.0,-9.727322651623053,11.765196253216187,0.0,-0.4451738379928986,0.0,8.208478846340714,0.0,0.0,-0.5771811771234215,0.0,-0.11554615952034514,0.3490658503988659,1.0,0.14,0.14,0.75,0.08726646259971647,5.0,0.184,0.175,0.174,0.0,0.0,0.0,-0.0076355675207547685,0.0,0.0037802548203711133,0.0,6.063694260893667,0.0,-0.5227425468468354,0.0,0.11575031753915976,0.0,-3.6869206813474396,0.0,-0.0235598741941809,0.0,-0.0054643153722911805,0.32263110261336775,0.024495680164234278,0.09411485236091366,0.0,0.0,0.0,0.30182275255440316,0.09411485236091366,0.0,0.0,0.03714782469465573,0.0,0.0,-0.003431629162631603,0.0,1.1186959688991007,0.0,3.587615430876119,0.0,0.06181805419179193,0.0,84.90355445167762,-1.3527425840246385,0.0,-3.5060736803521233,0.0,0.06181805419179193,0.0
