name,vehicle,t,north,east,down,u,v,w,p_rad,p_deg,p_hat_div_b,q_deg,q_rad,q_hat_div_c,r_rad,r_deg,r_hat_div_b,phi_rad,phi_deg,theta_rad,theta_deg,psi_rad,psi_deg,speed,altitude,mach,alpha_rad,alpha_deg,beta_rad,beta_deg,gamma_rad,gamma_deg,u_dot,v_dot,w_dot,north_dot,east_dot,down_dot,p_rad_dot,q_rad_dot,r_rad_dot,phi_rad_dot,theta_rad_dot,psi_rad_dot,del_tail_alt_rad,del_tail_splay_rad,DIM_b,DIM_c_bar,DIM_S,DIM_wing_position,DIM_wing_incidence_rad,DIM_wing_incidence_deg,DIM_empennage_length,DIM_nose_length,DIM_tail_length,CDp,CDq,CDr,CYp,CYq,CYr,CLp,CLq,CLr,Clp,Clq,Clr,Cmp,Cmq,Cmr,Cnp,Cnq,Cnr,CL_0,Cm_0,CD_0,Cl_0,CY_0,Cn_0,CL,CD,CY,Cl,Cm,Cn,p_hat,q_hat,r_hat,drag_force_wind,side_force_wind,lift_force_wind,roll_moment_wind,pitch_moment_wind,yaw_moment_wind,qbar,X_total,Y_total,Z_total,L_total,M_total,N_total
sim_raptor_glider_3dof,raptor_glider_3dof,0.0,-15.0,0.0,0.0,12.0,0.0,0.0,0.0,0.0,0.0,0.0,0.0,0.0,0.0,0.0,0.0,0.0,0.0,0.0,0.0,0.0,0.0,12.0,-0.0,0.035264039495724236,0.0,0.0,0.0,0.0,0.0,0.0,-4.526512890028007,0.0,-17.994928704943774,12.0,0.0,0.0,0.0,-9.583332944705674,0.0,0.0,0.0,0.0,0.010080602744738043,0.6108652381980153,1.0,0.14,0.14,0.75,0.08726646259971647,5.0,0.184,0.175,0.174,0.0,0.0,0.0,0.000577349674356619,0.0,-0.0006692585485438988,0.0,7.482134862578247,0.0,-0.5145172746973916,0.0,0.1919231980930896,0.0,-6.550323479234498,0.0,-0.04505578851088999,0.0,-0.009821797476144551,0.6191636491359396,-0.04174884721057391,0.10080910399351643,0.0,0.0,0.0,0.6191636491359396,0.10080910399351643,0.0,0.0,-0.04174884721057391,0.0,0.0,0.0,0.0,1.244791044757702,0.0,7.6454341438595375,0.0,-0.07217208040657844,0.0,88.20001620075907,-1.244791044757702,0.0,-7.6454341438595375,0.0,-0.07217208040657844,0.0
sim_raptor_glider_3dof,raptor_glider_3dof,0.001,-14.988002266503413,0.0,-8.94367655770959e-6,11.995463489722532,0.0,-0.01788780873381291,0.0,0.0,0.0,-0.5397767409988766,-0.009420881356115064,-0.0003926847382554325,0.0,0.0,0.0,0.0,0.0,-4.7383849771782575e-6,-0.0002714894609005071,0.0,0.0,11.99547682699473,8.94367655770959e-6,0.03525074738309891,-0.0014912133649519752,-0.08544023216524993,0.0,0.0,0.001486474979974797,0.08516874270434943,-4.546381635628716,0.0,-17.78061607296531,11.995463574347195,0.0,-0.017830969609618323,0.0,-9.259436615131674,0.0,0.0,-0.009420881356115064,0.0,0.010080602744738043,0.6108652381980153,1.0,0.14,0.14,0.75,0.08726646259971647,5.0,0.184,0.175,0.174,0.0,0.0,0.0,0.0005504724979280055,0.0,-0.0006748015537249756,0.0,7.482970966878387,0.0,-0.5147236978171242,0.0,0.19019252016344163,0.0,-6.550589062432209,0.0,-0.04460001332543753,0.0,-0.009646289184186883,0.6128972864865153,-0.04072837536522651,0.10041201454532497,0.0,0.0,0.0,0.6124859036971451,0.10041201454532497,0.0,0.0,-0.0403682510760305,0.0,0.0,-0.000054975863355760555,0.0,1.2389532550185118,0.0,7.557276960079307,0.0,-0.06973281714855664,0.0,88.13353807656587,-1.2502213857066864,0.0,-7.555421014489407,0.0,-0.06973281714855664,0.0
sim_raptor_glider_3dof,raptor_glider_3dof,0.002,-14.976009079070135,0.0,-0.00003555456809986686,11.990907477991126,0.0,-0.035561124581488954,0.0,0.0,0.0,-1.0611634287867246,-0.01852079573408072,-0.0007722815942556953,0.0,0.0,0.0,0.0,0.0,-0.000018735995598858295,-0.0010734934727902657,0.0,0.0,11.990960209229494,0.00003555456809986686,0.03523747453416055,-0.002965665475386229,-0.16992011518728983,0.0,0.0,0.0029469294797873705,0.16884662171449957,-4.5655197142835915,0.0,-17.565960935341387,11.99090814215957,0.0,-0.0353364629855265,0.0,-8.941365255973112,0.0,0.0,-0.01852079573408072,0.0,0.010080602744738043,0.6108652381980153,1.0,0.14,0.14,0.75,0.08726646259971647,5.0,0.184,0.175,0.174,0.0,0.0,0.0,0.000524130417686036,0.0,-0.0006804771562428588,0.0,7.4837858767887715,0.0,-0.5149250611849958,0.0,0.18848062779958558,0.0,-6.550837314066899,0.0,-0.044149897048103376,0.0,-0.00947429789545801,0.6066847447631224,-0.03971920385124451,0.1000242079974417,0.0,0.0,0.0,0.6058756021508032,0.1000242079974417,0.0,0.0,-0.039010931099398086,0.0,0.0,-0.00010811942319579736,0.0,1.2332390084727067,0.0,7.47008591033654,0.0,-0.06733742174273351,0.0,88.06718130419624,-1.2553873286103523,0.0,-7.466395691027351,0.0,-0.06733742174273351,0.0
sim_raptor_glider_3dof,raptor_glider_3dof,0.003,-14.964020456055575,0.0,-0.00007950972390023868,11.986332691784083,0.0,-0.053019661041301125,0.0,0.0,0.0,-1.5644917284995146,-0.027305531782533733,-0.00113901663499008,0.0,0.0,0.0,0.0,0.0,-0.00004167549095357709,-0.00238782974077561,0.0,0.0,11.986449953284284,0.00007950972390023868,0.035224220380511574,-0.004423314170823779,-0.2534372334486118,0.0,0.0,0.004381638679870202,0.2510494037078362,-4.583931526208692,0.0,-17.35107037956191,11.986334890995277,0.0,-0.05252012469573921,0.0,-8.62907081136729,0.0,0.0,-0.027305531782533733,0.0,0.010080602744738043,0.6108652381980153,1.0,0.14,0.14,0.75,0.08726646259971647,5.0,0.184,0.175,0.174,0.0,0.0,0.0,0.0004983046617606328,0.0,-0.000686270324341988,0.0,7.4845799700171165,0.0,-0.5151214526343035,0.0,0.186787595315559,0.0,-6.551068714505416,0.0,-0.04370541897966993,0.0,-0.009305775019167174,0.6005271806153457,-0.03872138566203275,0.09964555365765866,0.0,0.0,0.0,0.5993336720624989,0.09964555365765866,0.0,0.0,-0.037676736988042886,0.0,0.0,-0.00015946232889861123,0.0,1.2276463753584845,0.0,7.3838699583688525,0.0,-0.06498553228040707,0.0,88.00094293477852,-1.260295435608625,0.0,-7.378367475262866,0.0,-0.06498553228040707,0.0
sim_raptor_glider_3dof,raptor_glider_3dof,0.004,-14.952036414780848,0.0,-0.00014048897053992764,11.981739855022349,0.0,-0.07026322719262673,0.0,0.0,0.0,-2.05009134061267,-0.03578084386031564,-0.0014931149015017066,0.0,0.0,0.0,0.0,0.0,-0.00007324423955599205,-0.004196585800203503,0.0,0.0,11.981945871790879,0.00014048897053992764,0.03521098437153863,-0.005864125130227249,-0.33598962049862563,0.0,0.0,0.005790880890671256,0.3317930346984221,-4.601622235493319,0.0,-17.136047920505213,11.981744969259658,0.0,-0.06938563358070135,0.0,-8.322504038951614,0.0,0.0,-0.03578084386031564,0.0,0.010080602744738043,0.6108652381980153,1.0,0.14,0.14,0.75,0.08726646259971647,5.0,0.184,0.175,0.174,0.0,0.0,0.0,0.00047297718040178717,0.0,-0.0006921666774659886,0.0,7.4853536251808,0.0,-0.5153129602422712,0.0,0.1851134875463218,0.0,-6.551283741286732,0.0,-0.04326655723422683,0.0,-0.00914067156752332,0.5944256835147312,-0.03773496711863198,0.09927591873876783,0.0,0.0,0.0,0.5928609744890239,0.09927591873876783,0.0,0.0,-0.03636551240570063,0.0,0.0,-0.00020903608621023894,0.0,1.2221734078142474,0.0,7.298637240094093,0.0,-0.0626767779173446,0.0,87.93482011269477,-1.2649522706021348,0.0,-7.291344811100015,0.0,-0.0626767779173446,0.0
sim_raptor_glider_3dof,raptor_glider_3dof,0.005,-14.940056971320395,0.0,-0.0002181761315687128,11.977129685760545,0.0,-0.08729174465977628,0.0,0.0,0.0,-2.5182889016086705,-0.04395243284950283,-0.0018347996021925296,0.0,0.0,0.0,0.0,0.0,-0.00011313586383412765,-0.006482207509262282,0.0,0.0,11.977447781485512,0.0002181761315687128,0.035197765968689974,-0.007288073304264359,-0.4175758411163121,0.0,0.0,0.0071749374404302315,0.41109363360704976,-4.61859772882627,0.0,-16.92099304668797,11.977139484935487,0.0,-0.08593670119075998,0.0,-8.021614463273314,0.0,0.0,-0.04395243284950283,0.0,0.010080602744738043,0.6108652381980153,1.0,0.14,0.14,0.75,0.08726646259971647,5.0,0.184,0.175,0.174,0.0,0.0,0.0,0.00044813060716480046,0.0,-0.0006981524833152513,0.0,7.486107222220784,0.0,-0.5154996724387748,0.0,0.18345835816826325,0.0,-6.5514828689034195,0.0,-0.04283328829173195,0.0,-0.008978938036299431,0.5883812700521018,-0.03675998691672438,0.0989151681699551,0.0,0.0,0.0,0.5864582991346396,0.0989151681699551,0.0,0.0,-0.03507709477409546,0.0,0.0,-0.0002568719443069542,0.0,1.2168181371746087,0.0,7.214395004186602,0.0,-0.06041077852291133,0.0,87.86881004682743,-1.2693643952268117,0.0,-7.205335223812987,0.0,-0.06041077852291133,0.0
sim_raptor_glider_3dof,raptor_glider_3dof,0.006,-14.928082140669604,0.0,-0.0003122587235371924,11.972502895872637,0.0,-0.10410523193115545,0.0,0.0,0.0,-2.969408150690329,-0.05182594906510218,-0.0021642922271595294,0.0,0.0,0.0,0.0,0.0,-0.00016104961703857016,-0.009227463348508262,0.0,0.0,11.972955503592006,0.0003122587235371924,0.03518456464660145,-0.008695141624190886,-0.49819491733466553,0.0,0.0,0.008534092007152317,0.4889674539861573,-4.634864558141819,0.0,-16.70600152910001,11.97251950671502,0.0,-0.10217706358302953,0.0,-7.726350566369799,0.0,0.0,-0.05182594906510218,0.0,0.010080602744738043,0.6108652381980153,1.0,0.14,0.14,0.75,0.08726646259971647,5.0,0.184,0.175,0.174,0.0,0.0,0.0,0.00042374826713012975,0.0,-0.0007042146431695186,0.0,7.486841141350792,0.0,-0.5156816777525589,0.0,0.18182225118413017,0.0,-6.551666568173709,0.0,-0.042405587379034174,0.0,-0.008820524597706256,0.5823948897882266,-0.03579647703950743,0.09856316510929913,0.0,0.0,0.0,0.5801263700958781,0.09856316510929913,0.0,0.0,-0.03381131609552593,0.0,0.0,-0.00030300091180233415,0.0,1.211578580378465,0.0,7.131149686005391,0.0,-0.05818714611533096,0.0,87.80291001605167,-1.2735383548014734,0.0,-7.120345396081305,0.0,-0.05818714611533096,0.0
sim_raptor_glider_3dof,raptor_glider_3dof,0.007,-14.91611193680479,0.0,-0.0004224279164549758,11.967860190487954,0.0,-0.12070379866608127,0.0,0.0,0.0,-3.4037699175325664,-0.059406992041279146,-0.002481812532448469,0.0,0.0,0.0,0.0,0.0,-0.00021669022696528214,-0.01241543546684257,0.0,0.0,11.968468863897286,0.0004224279164549758,0.035171379893318304,-0.010085320542485817,-0.5778463021210272,0.0,0.0,0.009868630315520535,0.5654308666541846,-4.650429893139752,0.0,-16.491165538881457,11.967886064847908,0.0,-0.11811047751160783,0.0,-7.436659874596396,0.0,0.0,-0.059406992041279146,0.0,0.010080602744738043,0.6108652381980153,1.0,0.14,0.14,0.75,0.08726646259971647,5.0,0.184,0.175,0.174,0.0,0.0,0.0,0.0003998141689059768,0.0,-0.0007103406793593777,0.0,7.487555762501745,0.0,-0.5158590646793239,0.0,0.1802052014444204,0.0,-6.551835305796855,0.0,-0.04198342859449967,0.0,-0.008665381191539463,0.5764674276656443,-0.03484446310283451,0.09821977122408657,0.0,0.0,0.0,0.5738658483036146,0.09821977122408657,0.0,0.0,-0.03256800332668941,0.0,0.0,-0.0003474537545427857,0.0,1.206452743434747,0.0,7.0489069402314,0.0,-0.05600548551558546,0.0,87.73711737020612,-1.2774806684009379,0.0,-7.036381201729019,0.0,-0.05600548551558546,0.0
sim_raptor_glider_3dof,raptor_glider_3dof,0.008,-14.904146372698373,0.0,-0.0005483786213929991,11.963202267314832,0.0,-0.13708764425529926,0.0,0.0,0.0,-3.8216920187063534,-0.0667011087236146,-0.0027875784578228814,0.0,0.0,0.0,0.0,0.0,-0.0002797679569789546,-0.016029523177891684,0.0,0.0,11.963987692692358,0.0005483786213929991,0.03515821121012183,-0.011458607928245405,-0.6565298733836058,0.0,0.0,0.01117883997126645,0.640500350205714,-4.665301477937889,0.0,-16.2765736812422,11.963240151863918,0.0,-0.13374071827677478,0.0,-7.1524890036394595,0.0,0.0,-0.0667011087236146,0.0,0.010080602744738043,0.6108652381980153,1.0,0.14,0.14,0.75,0.08726646259971647,5.0,0.184,0.175,0.174,0.0,0.0,0.0,0.0003763129894438118,0.0,-0.000716518723466123,0.0,7.488251464975894,0.0,-0.5160319216014532,0.0,0.17860723475779486,0.0,-6.551989543984721,0.0,-0.04156678492295154,0.0,-0.008513457573104921,0.5705997049580259,-0.0339039644586577,0.09788484687323604,0.0,0.0,0.0,0.567677332572152,0.09788484687323604,0.0,0.0,-0.03134697857144074,0.0,0.0,-0.0003902609840952034,0.0,1.2014386236457733,0.0,6.967671656100561,0.0,-0.053865394686408774,0.0,87.67142952908988,-1.281197820780149,0.0,-6.9534477216445065,0.0,-0.053865394686408774,0.0
sim_raptor_glider_3dof,raptor_glider_3dof,0.009000000000000001,-14.892185460341114,0.0,-0.0006898095597171856,11.958529816001565,0.0,-0.1532570556250852,0.0,0.0,0.0,-4.2234891662507446,-0.07371379187338567,-0.0030818060533668143,0.0,0.0,0.0,0.0,0.0,-0.00034999863100111173,-0.020053444391720358,0.0,0.0,11.959511824706613,0.0006898095597171856,0.03514505811133625,-0.012815008899292839,-0.7342459243520703,0.0,0.0,0.012465010268291728,0.71419247996035,-4.679487588376209,0.0,-16.06231104526067,11.958582723305916,0.0,-0.1490715772592302,0.0,-6.873783711590834,0.0,0.0,-0.07371379187338567,0.0,0.010080602744738043,0.6108652381980153,1.0,0.14,0.14,0.75,0.08726646259971647,5.0,0.184,0.175,0.174,0.0,0.0,0.0,0.0003532300591406944,0.0,-0.0007227375036324429,0.0,7.4889286270844755,0.0,-0.5162003367034155,0.0,0.17702836807612327,0.0,-6.55212974010532,0.0,-0.0411556282684556,0.0,-0.008364703366061899,0.5647924805218504,-0.032974994342808636,0.09755825129967456,0.0,0.0,0.0,0.561561360941185,0.09755825129967456,0.0,0.0,-0.030148059309438452,0.0,0.0,-0.000431452847471354,0.0,1.1965342119435711,0.0,6.887447976160694,0.0,-0.05176646513199057,0.0,87.60584398136488,-1.2846962545118252,0.0,-6.871549263325903,0.0,-0.05176646513199057,0.0
sim_raptor_glider_3dof,raptor_glider_3dof,0.01,-14.88022921078426,0.0,-0.0008464232503325954,11.953843517701513,0.0,-0.1692124032654691,0.0,0.0,0.0,-4.609472943892525,-0.0804504796525204,-0.0033647094554124938,0.0,0.0,0.0,0.0,0.0,-0.00042710354156555376,-0.02447123034679656,0.0,0.0,11.955041099181273,0.0008464232503325954,0.03513192012454457,-0.014154535505359783,-0.8109951454251894,0.0,0.0,0.013727431963794228,0.7865239150783928,-4.692996990138292,0.0,-15.848459296583313,11.953914698621304,0.0,-0.1641068590853152,0.0,-6.600488965073802,0.0,0.0,-0.0804504796525204,0.0,0.010080602744738043,0.6108652381980153,1.0,0.14,0.14,0.75,0.08726646259971647,5.0,0.184,0.175,0.174,0.0,0.0,0.0,0.00033055134872337656,0.0,-0.0007289863306082084,0.0,7.489587625730096,0.0,-0.5163643978731164,0.0,0.17546860985404733,0.0,-6.552256346334028,0.0,-0.04074992953088578,0.0,-0.008219068129071623,0.5590464527186575,-0.03205756012564633,0.09723984285151396,0.0,0.0,0.0,0.5555184126364566,0.09723984285151396,0.0,0.0,-0.028971058682054806,0.0,0.0,-0.0004710593237577492,0.0,1.191737495598597,0.0,6.8082393226941695,0.0,-0.049708282395970804,0.0,87.5403582854987,-1.2879823621365203,0.0,-6.790689388296302,0.0,-0.049708282395970804,0.0
sim_raptor_glider_3dof,raptor_glider_3dof,0.01,-14.88022921078426,0.0,-0.0008464232503325954,11.953843517701513,0.0,-0.1692124032654691,0.0,0.0,0.0,-4.609472943892525,-0.0804504796525204,-0.0033647094554124938,0.0,0.0,0.0,0.0,0.0,-0.00042710354156555376,-0.02447123034679656,0.0,0.0,11.955041099181273,0.0008464232503325954,0.03513192012454457,-0.014154535505359783,-0.8109951454251894,0.0,0.0,0.013727431963794228,0.7865239150783928,-4.691181395828457,0.0,-15.843862315010115,11.953914698621304,0.0,-0.1641068590853152,0.0,-6.547208734108614,0.0,0.0,-0.0804504796525204,0.0,0.009877218736392357,0.6108652381980153,1.0,0.14,0.14,0.75,0.08726646259971647,5.0,0.184,0.175,0.174,0.0,0.0,0.0,0.0002614132004291813,0.0,-0.0007219372283657596,0.0,7.4895388532824505,0.0,-0.5163749786196153,0.0,0.17546741190710874,0.0,-6.552152486248535,0.0,-0.04072685098028297,0.0,-0.008221601153548629,0.5589427134792572,-0.031823652057607066,0.09720056747463708,0.0,0.0,0.0,0.5554146963717725,0.09720056747463708,0.0,0.0,-0.028737199538277174,0.0,0.0,-0.0004710593237577492,0.0,1.191256150319693,0.0,6.806968212438303,0.0,-0.04930702897657198,0.0,87.5403582854987,-1.2874830737013157,0.0,-6.789425218363673,0.0,-0.04930702897657198,0.0
sim_raptor_glider_3dof,raptor_glider_3dof,0.011,-14.86827763456332,0.0,-0.001017925394326429,11.949145867469223,0.0,-0.1849492703779434,0.0,0.0,0.0,-4.976914133323073,-0.08686353821552767,-0.003634282153760368,0.0,0.0,0.0,0.0,0.0,-0.0005107824885157396,-0.02926568084114132,0.0,0.0,11.950577107180647,0.001017925394326429,0.03511880192535968,-0.015476796848121756,-0.8867551397787515,0.0,0.0,0.014966014359606017,0.8574894589376103,-4.70401172273416,0.0,-15.630065472615206,11.949238777555108,0.0,-0.17884583205499918,0.0,-6.27985534191402,0.0,0.0,-0.08686353821552767,0.0,0.009877218736392357,0.6108652381980153,1.0,0.14,0.14,0.75,0.08726646259971647,5.0,0.184,0.175,0.174,0.0,0.0,0.0,0.00023884391944556285,0.0,-0.0007282506729844066,0.0,7.490179534534408,0.0,-0.5165347666432889,0.0,0.17392723671501634,0.0,-6.552264738095017,0.0,-0.04032663089219238,0.0,-0.00807906600717678,0.5532603318936078,-0.0309181092944715,0.09689040301531997,0.0,0.0,0.0,0.5494493322800931,0.09689040301531997,0.0,0.0,-0.027584320261859408,0.0,0.0,-0.0005087995015264517,0.0,1.186568261511654,0.0,6.728830913101308,0.0,-0.04729359057995449,0.0,87.47499564932129,-1.2905627458877849,0.0,-6.7096615037765615,0.0,-0.04729359057995449,0.0
sim_raptor_glider_3dof,raptor_glider_3dof,0.012,-14.856330737451447,0.0,-0.0012040206081809586,11.944435715640578,0.0,-0.20047267784397377,0.0,0.0,0.0,-5.329190940174923,-0.09301192837350457,-0.003892977150949273,0.0,0.0,0.0,0.0,0.0,-0.0006007420569080084,-0.034419984436836804,0.0,0.0,11.9461179409728,0.0012040206081809586,0.03510569790758705,-0.016782195638879362,-0.9615489810706437,0.0,0.0,0.016181453581971355,0.9271289966338069,-4.716183348088503,0.0,-15.41684579318957,11.944553992682453,0.0,-0.19329711722075804,0.0,-6.017799234319082,0.0,0.0,-0.09301192837350457,0.0,0.009877218736392357,0.6108652381980153,1.0,0.14,0.14,0.75,0.08726646259971647,5.0,0.184,0.175,0.174,0.0,0.0,0.0,0.00021665702378981166,0.0,-0.000734574322246031,0.0,7.490802794985621,0.0,-0.5166903724398199,0.0,0.17240620032704773,0.0,-6.552364307372295,0.0,-0.039931818589098396,0.0,-0.007939551284107147,0.5476405148409076,-0.03002412244364945,0.09658814420166292,0.0,0.0,0.0,0.5435579014636671,0.09658814420166292,0.0,0.0,-0.026452973808988024,0.0,0.0,-0.0005450168011328982,0.0,1.1819840783802933,0.0,6.651714768082246,0.0,-0.045320046033657004,0.0,87.40972804462204,-1.293442772730367,0.0,-6.630942731704108,0.0,-0.045320046033657004,0.0
sim_raptor_glider_3dof,raptor_glider_3dof,0.013000000000000001,-14.844388529160284,0.0,-0.0014044265806041722,11.939713713291527,0.0,-0.21578318114995185,0.0,0.0,0.0,-5.666601612134097,-0.09890085553055866,-0.004140999951571173,0.0,0.0,0.0,0.0,0.0,-0.0006967214623102146,-0.03991919928655835,0.0,0.0,11.94166344931178,0.0014044265806041722,0.03509260762676476,-0.018070759287196342,-1.0353782397531863,0.0,0.0,0.017374037824886127,0.9954590404666279,-4.727706275339928,0.0,-15.204275243188421,11.939861156160326,0.0,-0.20746447465225037,0.0,-5.760984511869494,0.0,0.0,-0.09890085553055866,0.0,0.009877218736392357,0.6108652381980153,1.0,0.14,0.14,0.75,0.08726646259971647,5.0,0.184,0.175,0.174,0.0,0.0,0.0,0.0001948403666136704,0.0,-0.0007408991135581258,0.0,7.491409003959347,0.0,-0.5168418821874662,0.0,0.1709042920027131,0.0,-6.5524516292815225,0.0,-0.039542383419676884,0.0,-0.007803007055492109,0.5420838065287407,-0.029141685165655375,0.0962936484895493,0.0,0.0,0.0,0.5377407371235773,0.0962936484895493,0.0,0.0,-0.025342966902521562,0.0,0.0,-0.0005797399932199643,0.0,1.1775015981922867,0.0,6.5756214174897565,0.0,-0.04338597435888916,0.0,87.3445531798111,-1.296129350199938,0.0,-6.553270614543982,0.0,-0.04338597435888916,0.0
sim_raptor_glider_3dof,raptor_glider_3dof,0.014,-14.832451017448694,0.0,-0.0016188580464943194,11.934980511478312,0.0,-0.23088147033901116,0.0,0.0,0.0,-5.989448245614845,-0.10453559226377707,-0.004378559212910393,0.0,0.0,0.0,0.0,0.0,-0.0007984608672456769,-0.045748437799532804,0.0,0.0,11.93721349657084,0.0016188580464943194,0.035079530684330534,-0.019342526442704344,-1.1082451302871528,0.0,0.0,0.01854406557545867,1.06249669248762,-4.738590981538831,0.0,-14.99242292947269,11.93516105676568,0.0,-0.22135178286378634,0.0,-5.50935281022777,0.0,0.0,-0.10453559226377707,0.0,0.009877218736392357,0.6108652381980153,1.0,0.14,0.14,0.75,0.08726646259971647,5.0,0.184,0.175,0.174,0.0,0.0,0.0,0.00017338228812012506,0.0,-0.0007472165339551949,0.0,7.4919985305706716,0.0,-0.5169893820868035,0.0,0.1694214874599533,0.0,-6.552527133114307,0.0,-0.039158292339770424,0.0,-0.007669382968744949,0.5365906746192717,-0.028270782444673032,0.0960067719495514,0.0,0.0,0.0,0.5319980923327919,0.0960067719495514,0.0,0.0,-0.024254094518157014,0.0,0.0,-0.0006129982898074551,0.0,1.1731188105964396,0.0,6.500551540728435,0.0,-0.041490936013825336,0.0,87.27946899508278,-1.2986286158246425,0.0,-6.476645875420658,0.0,-0.041490936013825336,0.0
sim_raptor_glider_3dof,raptor_glider_3dof,0.015,-14.82051820915625,0.0,-0.001847038389396719,11.93023673960221,0.0,-0.24576829362035674,0.0,0.0,0.0,-6.298024540980154,-0.10992126461150822,-0.004605857801032737,0.0,0.0,0.0,0.0,0.0,-0.0009057100543614005,-0.05189336357747261,0.0,0.0,11.932767940302174,0.001847038389396719,0.035066466661677315,-0.02059754064875773,-1.1801521475229735,0.0,0.0,0.019691830594396328,1.1282587839455007,-4.7488481696500475,0.0,-14.781354154676217,11.930454441136245,0.0,-0.23496285892850197,0.0,-5.262846144920446,0.0,0.0,-0.10992126461150822,0.0,0.009877218736392357,0.6108652381980153,1.0,0.14,0.14,0.75,0.08726646259971647,5.0,0.184,0.175,0.174,0.0,0.0,0.0,0.00015227170282182604,0.0,-0.0007535185752568545,0.0,7.492571740494823,0.0,-0.5171329575584065,0.0,0.1679577562640471,0.0,-6.552591241522895,0.0,-0.03877951180838075,0.0,-0.007538628950096171,0.5311615381990598,-0.02741139497082882,0.0957273708601966,0.0,0.0,0.0,0.5263301773989539,0.0957273708601966,0.0,0.0,-0.023186152482684238,0.0,0.0,-0.0006448200921445832,0.0,1.168833712650318,0.0,6.42650529102661,0.0,-0.03963449431739588,0.0,87.21447333395835,-1.3009466217836436,0.0,-6.40106869129606,0.0,-0.03963449431739588,0.0
sim_raptor_glider_3dof,raptor_glider_3dof,0.016,-14.808590110468002,0.0,-0.002088693129958882,11.925483020174537,0.0,-0.26044446339207195,0.0,0.0,0.0,-6.592622605654164,-0.1150629708100729,-0.004823097749628344,0.0,0.0,0.0,0.0,0.0,-0.001018222292613287,-0.05833983997287608,0.0,0.0,11.928326646390214,0.002088693129958882,0.035053415164683695,-0.021835850837117955,-1.2511020950440643,0.0,0.0,0.020817628544504668,1.1927622550711883,-4.758488837155718,0.0,-14.571131608573266,11.92574202845677,0.0,-0.2483015378176204,0.0,-5.021405825119002,0.0,0.0,-0.1150629708100729,0.0,0.009877218736392357,0.6108652381980153,1.0,0.14,0.14,0.75,0.08726646259971647,5.0,0.184,0.175,0.174,0.0,0.0,0.0,0.0001314980699005152,0.0,-0.0007597977217700258,0.0,7.493128996060687,0.0,-0.5172726932696537,0.0,0.166513061248635,0.0,-6.552644370383873,0.0,-0.03840600761265242,0.0,-0.007410695168349011,0.525796766355995,-0.026563498837457476,0.09545530169233568,0.0,0.0,0.0,0.5207371532521945,0.09545530169233568,0.0,0.0,-0.022138932633089616,0.0,0.0,-0.0006752336849479682,0.0,1.164644311560078,0.0,6.3534822330549705,0.0,-0.037816207268971204,0.0,87.14956416488685,-1.3030893346314851,0.0,-6.326538630575499,0.0,-0.037816207268971204,0.0
sim_raptor_glider_3dof,raptor_glider_3dof,0.017,-14.796666726812376,0.0,-0.0023435518976610108,11.920719963807928,0.0,-0.27491085791861725,0.0,0.0,0.0,-6.873530932559313,-0.11996574601083632,-0.005030478778260556,0.0,0.0,0.0,0.0,0.0,-0.0011357562886973338,-0.06507404189779911,0.0,0.0,11.92388948436417,0.0023435518976610108,0.03504037580993908,-0.02305751148815445,-1.32109809434566,0.0,0.0,0.021921755199457115,1.256024052447861,-4.767524219784644,0.0,-14.361815004395845,11.921024506956595,0.0,-0.26137165085512465,0.0,-4.784972743650984,0.0,0.0,-0.11996574601083632,0.0,0.009877218736392357,0.6108652381980153,1.0,0.14,0.14,0.75,0.08726646259971647,5.0,0.184,0.175,0.174,0.0,0.0,0.0,0.00011105136925912498,0.0,-0.0007660469363776762,0.0,7.493670656184063,0.0,-0.5174086731215419,0.0,0.1650873583264497,0.0,-6.552686928635685,0.0,-0.03803774479404034,0.0,-0.007285532034453342,0.5204966781900067,-0.02572706546743146,0.09519042117143994,0.0,0.0,0.0,0.5152191330209975,0.09519042117143994,0.0,0.0,-0.021112224112519257,0.0,0.0,-0.0007042670289564779,0.0,1.16054862445257,0.0,6.281481358741629,0.0,-0.03603562973243556,0.0,87.08473951254264,-1.305062631301538,0.0,-6.253054669385007,0.0,-0.03603562973243556,0.0
sim_raptor_glider_3dof,raptor_glider_3dof,0.018000000000000002,-14.784748062949516,0.0,-0.002611348127911388,11.915948169832587,0.0,-0.2891684133043861,0.0,0.0,0.0,-7.141034636859376,-0.12463456641215374,-0.005228198458950264,0.0,0.0,0.0,0.0,0.0,-0.0012580757216752564,-0.07208242915986741,0.0,0.0,11.919456328096075,0.002611348127911388,0.03502734822679501,-0.024262581969049866,-1.390143546916768,0.0,0.0,0.02300450624737461,1.3180611177569006,-4.775965762715299,0.0,-14.15346129288512,11.916302535487695,0.0,-0.27417702332445776,0.0,-4.553487455909637,0.0,0.0,-0.12463456641215374,0.0,0.009877218736392357,0.6108652381980153,1.0,0.14,0.14,0.75,0.08726646259971647,5.0,0.184,0.175,0.174,0.0,0.0,0.0,0.00009092209130548102,0.0,-0.0007722596423814343,0.0,7.494197075945405,0.0,-0.5175409801460694,0.0,0.1636805972598032,0.0,-6.5527193180984,0.0,-0.03767468782205622,0.0,-0.007163090284139282,0.5152615463919339,-0.024902062102174764,0.0949325865144533,0.0,0.0,0.0,0.5097761854474401,0.0949325865144533,0.0,0.0,-0.020105813716460568,0.0,0.0,-0.0007319477842530371,0.0,1.1565446813354079,0.0,6.210501131357325,0.0,-0.034292314030455476,0.0,87.01999746791192,-1.3068722941792217,0.0,-6.180615237112126,0.0,-0.034292314030455476,0.0
sim_raptor_glider_3dof,raptor_glider_3dof,0.019000000000000003,-14.77283412301747,0.0,-0.0028918189603597093,11.911168226371323,0.0,-0.30321811931258286,0.0,0.0,0.0,-7.395415521746406,-0.1290743504075691,-0.005416452258191064,0.0,0.0,0.0,0.0,0.0,-0.00138494906150573,-0.0793517360648826,0.0,0.0,11.915027055982595,0.0028918189603597093,0.035014332057899424,-0.02545112619393192,-1.4582421147671574,0.0,0.0,0.02406617713242619,1.3788903787022748,-4.783825093427595,0.0,-13.946124781187306,11.911576744578655,0.0,-0.28672147253074964,0.0,-4.326890233741672,0.0,0.0,-0.1290743504075691,0.0,0.009877218736392357,0.6108652381980153,1.0,0.14,0.14,0.75,0.08726646259971647,5.0,0.184,0.175,0.174,0.0,0.0,0.0,0.0000711012212813363,0.0,-0.000778429706873401,0.0,7.494708606337824,0.0,-0.5176696964458272,0.0,0.16229272205682513,0.0,-6.552741933338136,0.0,-0.03731680067035279,0.0,-0.007043321024007979,0.5100915994426835,-0.024088452069900453,0.09468165558495642,0.0,0.0,0.0,0.5044083370529439,0.09468165558495642,0.0,0.0,-0.019119486131996287,0.0,0.0,-0.000758303316146749,0.0,1.152630526949091,0.0,6.140539513624909,0.0,-0.03258581035030853,0.0,86.95533619082202,-1.3085240074548743,0.0,-6.109218245566123,0.0,-0.03258581035030853,0.0
sim_raptor_glider_3dof,raptor_glider_3dof,0.02,-14.760924910533772,0.0,-0.0031847053673201868,11.906380709782367,0.0,-0.3170610190516118,0.0,0.0,0.0,-7.636951943592102,-0.13328995623226245,-0.005595433432413544,0.0,0.0,0.0,0.0,0.0,-0.0015161496939128632,-0.08686897857125866,0.0,0.0,11.910601550554855,0.0031847053673201868,0.035001326958050055,-0.026623212609185383,-1.5253977195857988,0.0,0.0,0.02510706291527252,1.4385287410145402,-4.791113994831453,0.0,-13.739857150408142,11.906847736910233,0.0,-0.29900880608327995,0.0,-4.1051210986119235,0.0,0.0,-0.13328995623226245,0.0,0.009877218736392357,0.6108652381980153,1.0,0.14,0.14,0.75,0.08726646259971647,5.0,0.184,0.175,0.174,0.0,0.0,0.0,0.00005158021823742302,0.0,-0.0007845514258036433,0.0,7.495205594171187,0.0,-0.5177949031725377,0.0,0.16092367098880916,0.0,-6.552755161557358,0.0,-0.03696404679467181,0.0,-0.006926175742776091,0.5049870224022606,-0.023286194830864644,0.09443748697262942,0.0,0.0,0.0,0.4991155730472392,0.09443748697262942,0.0,0.0,-0.01815302408810886,0.0,0.0,-0.0007833606805378962,0.0,1.1488042215807184,0.0,6.071593979830603,0.0,-0.030915666993646396,0.0,86.89075390411992,-1.3100233545241098,0.0,-6.038861101734192,0.0,-0.030915666993646396,0.0
sim_raptor_glider_3dof,raptor_glider_3dof,0.02,-14.760924910533772,0.0,-0.0031847053673201868,11.906380709782367,0.0,-0.3170610190516118,0.0,0.0,0.0,-7.636951943592102,-0.13328995623226245,-0.005595433432413544,0.0,0.0,0.0,0.0,0.0,-0.0015161496939128632,-0.08686897857125866,0.0,0.0,11.910601550554855,0.0031847053673201868,0.035001326958050055,-0.026623212609185383,-1.5253977195857988,0.0,0.0,0.02510706291527252,1.4385287410145402,-4.789251666261441,0.0,-13.73521797104928,11.906847736910233,0.0,-0.29900880608327995,0.0,-4.050978408447479,0.0,0.0,-0.13328995623226245,0.0,0.00966832279095986,0.6108652381980153,1.0,0.14,0.14,0.75,0.08726646259971647,5.0,0.184,0.175,0.174,0.0,0.0,0.0,-0.000023106499938020176,0.0,-0.0007776529424651122,0.0,7.49515196400335,0.0,-0.517806336352839,0.0,0.1609224345449652,0.0,-6.552636415182224,0.0,-0.03693939193876069,0.0,-0.006928678929604281,0.5048810217690658,-0.023046680478281324,0.09439819315943672,0.0,0.0,0.0,0.49900961442580916,0.09439819315943672,0.0,0.0,-0.017913602756766775,0.0,0.0,-0.0007833606805378962,0.0,1.148326223913427,0.0,6.070305024400786,0.0,-0.03050791839401797,0.0,86.89075390411992,-1.3095112141673566,0.0,-6.037585327410506,0.0,-0.03050791839401797,0.0
sim_raptor_glider_3dof,raptor_glider_3dof,0.021,-14.74902043205694,0.0,-0.0034897523358345334,11.901588068182546,0.0,-0.3306931932380272,0.0,0.0,0.0,-7.86283149660594,-0.137232298145287,-0.0057630693271550956,0.0,0.0,0.0,0.0,0.0,-0.0016514249670883103,-0.09461968079669106,0.0,0.0,11.906181442123211,0.0034897523358345334,0.03498833771819099,-0.0277784887008891,-1.5915901638127905,0.0,0.0,0.02612706373380079,1.4969704830160995,-4.795965326144964,0.0,-13.529630856448716,11.902117953901962,0.0,-0.3110381715540381,0.0,-3.834571358123985,0.0,0.0,-0.137232298145287,0.0,0.00966832279095986,0.6108652381980153,1.0,0.14,0.14,0.75,0.08726646259971647,5.0,0.184,0.175,0.174,0.0,0.0,0.0,-0.000042588604706920225,0.0,-0.0007837671914346764,0.0,7.4956342723022225,0.0,-0.5179281095427242,0.0,0.1595726342980107,0.0,-6.55263957206576,0.0,-0.036591798339687114,0.0,-0.006814136428611543,0.4998438759543798,-0.022256098092025618,0.0941608276432245,0.0,0.0,0.0,0.49379617555966093,0.0941608276432245,0.0,0.0,-0.016969233833871136,0.0,0.0,-0.0008068297058017134,0.0,1.144588739223355,0.0,6.002427507951245,0.0,-0.028878156898031734,0.0,86.82627432474233,-1.3108640816007684,0.0,-5.968320930524403,0.0,-0.028878156898031734,0.0
sim_raptor_glider_3dof,raptor_glider_3dof,0.022,-14.737120679964372,0.0,-0.0038066905689234055,11.896788997741291,0.0,-0.34412057109594407,0.0,0.0,0.0,-8.076460634314701,-0.14096082997650125,-0.0059218456806798695,0.0,0.0,0.0,0.0,0.0,-0.0017905300111537015,-0.10258981273061932,0.0,0.0,11.901764886949735,0.0038066905689234055,0.03497535892018494,-0.028917436953498816,-1.656847091771127,0.0,0.0,0.027126906942345114,1.5542572790405078,-4.802132224422126,0.0,-13.32522099108914,11.89738608508795,0.0,-0.32281847311651163,0.0,-3.6228669377308256,0.0,0.0,-0.14096082997650125,0.0,0.00966832279095986,0.6108652381980153,1.0,0.14,0.14,0.75,0.08726646259971647,5.0,0.184,0.175,0.174,0.0,0.0,0.0,-0.00006178242542635777,0.0,-0.000789822683292125,0.0,7.496102719819562,0.0,-0.5180465312451418,0.0,0.1582415417019028,0.0,-6.5526341154548335,0.0,-0.03624927034520759,0.0,-0.006702123336046499,0.49487243728086866,-0.02147678970210655,0.09392994472868167,0.0,0.0,0.0,0.4886577303890072,0.09392994472868167,0.0,0.0,-0.016044273377391102,0.0,0.0,-0.0008290583952951818,0.0,1.1409352778758692,0.0,5.935560220098073,0.0,-0.02728381090805085,0.0,86.76187048393818,-1.3120755435864806,0.0,-5.900090355463602,0.0,-0.02728381090805085,0.0
sim_raptor_glider_3dof,raptor_glider_3dof,0.023,-14.725225660434154,0.0,-0.004135302937684281,11.89198399158727,0.0,-0.35734406600826035,0.0,0.0,0.0,-8.278075084763593,-0.14447966595643338,-0.006071925471804602,0.0,0.0,0.0,0.0,0.0,-0.001933273020291601,-0.11076838470921829,0.0,0.0,11.897351723710585,0.004135302937684281,0.03496239008995441,-0.03004011523085451,-1.7211718188146259,0.0,0.0,0.028106842210562907,1.6104034341054076,-4.807763927009848,0.0,-13.1220313497922,11.89265261139552,0.0,-0.3343529607264098,0.0,-3.415813070064868,0.0,0.0,-0.14447966595643338,0.0,0.00966832279095986,0.6108652381980153,1.0,0.14,0.14,0.75,0.08726646259971647,5.0,0.184,0.175,0.174,0.0,0.0,0.0,-0.00008069482016008416,0.0,-0.0007958147712860362,0.0,7.49655763086795,0.0,-0.5181616772514084,0.0,0.15692910609412336,0.0,-6.552620410499672,0.0,-0.03591177694115913,0.0,-0.006592594676200528,0.4899668704575907,-0.020708719873179727,0.09370541029425718,0.0,0.0,0.0,0.4835942749654301,0.09370541029425718,0.0,0.0,-0.015138536684318572,0.0,0.0,-0.0008500695660526443,0.0,1.1373639976523413,0.0,5.869700757824607,0.0,-0.025724488230658524,0.0,86.69753997285969,-1.3131508213383811,0.0,-5.832891115903058,0.0,-0.025724488230658524,0.0
sim_raptor_glider_3dof,raptor_glider_3dof,0.024,-14.713335375000222,0.0,-0.004475322723036348,11.887173628876488,0.0,-0.37036502809209626,0.0,0.0,0.0,-8.46796423382582,-0.14779385682137952,-0.006213511257839818,0.0,0.0,0.0,0.0,0.0,-0.0020794270880668286,-0.11914239595140783,0.0,0.0,11.892941904217404,0.004475322723036348,0.034949431085889694,-0.03114661792134809,-1.7845697529997786,0.0,0.0,0.02906719083328126,1.6654273570483706,-4.812873115230136,0.0,-12.920106450274272,11.8879180752321,0.0,-0.3456457343294769,0.0,-3.213343925438753,0.0,0.0,-0.14779385682137952,0.0,0.00966832279095986,0.6108652381980153,1.0,0.14,0.14,0.75,0.08726646259971647,5.0,0.184,0.175,0.174,0.0,0.0,0.0,-0.00009933279588216714,0.0,-0.0008017393496817817,0.0,7.496999338517678,0.0,-0.51827362568176,0.0,0.15563523369461174,0.0,-6.552598814565946,0.0,-0.035579276869966904,0.0,-0.006485502728607923,0.48512716001004824,-0.019951827547058373,0.09348708469909466,0.0,0.0,0.0,0.47860558343946263,0.09348708469909466,0.0,0.0,-0.014251777036720502,0.0,0.0,-0.0008698915760975746,0.0,1.1338730165440725,0.0,5.804844149072012,0.0,-0.02419969310247925,0.0,86.63328203444593,-1.3140951005197932,0.0,-5.766718102998636,0.0,-0.02419969310247925,0.0
sim_raptor_glider_3dof,raptor_glider_3dof,0.025,-14.701449824442799,0.0,-0.004826515651669306,11.88235841381073,0.0,-0.383184715183069,0.0,0.0,0.0,-8.64638299680004,-0.15090785168261506,-0.006346780644119153,0.0,0.0,0.0,0.0,0.0,-0.002228794622556194,-0.12770052527392323,0.0,0.0,11.88853531770035,0.004826515651669306,0.0349364815824748,-0.03223703191828726,-1.8470458729463841,0.0,0.0,0.030008237295731065,1.7193453476724607,-4.817471963831749,0.0,-12.719485110359605,11.883182940189485,0.0,-0.35670044883366286,0.0,-3.015399996786932,0.0,0.0,-0.15090785168261506,0.0,0.00966832279095986,0.6108652381980153,1.0,0.14,0.14,0.75,0.08726646259971647,5.0,0.184,0.175,0.174,0.0,0.0,0.0,-0.000117702786769199,0.0,-0.0008075926057339808,0.0,7.497428166392521,0.0,-0.5183824523863438,0.0,0.154359839051045,0.0,-6.552569677324705,0.0,-0.03525173184429811,0.0,-0.006380801368404327,0.4803533030813849,-0.01920605619606384,0.09327483178650312,0.0,0.0,0.0,0.47369146860598615,0.09327483178650312,0.0,0.0,-0.013383775060443727,0.0,0.0,-0.0008885492901766816,0.0,1.1304604883820564,0.0,5.740985844589023,0.0,-0.022708977375802387,0.0,86.56909500131587,-1.3149134273977015,0.0,-5.701566632252382,0.0,-0.022708977375802387,0.0
sim_raptor_glider_3dof,raptor_glider_3dof,0.026000000000000002,-14.689569009131876,0.0,-0.005188645814746515,11.87753884993944,0.0,-0.395804448311659,0.0,0.0,0.0,-8.81358859664192,-0.15382613992762792,-0.0064719132039261695,0.0,0.0,0.0,0.0,0.0,-0.0023811779274931434,-0.13643144551506547,0.0,0.0,11.88413186956136,0.005188645814746515,0.03492354130171724,-0.03331144950634844,-1.9086054661769154,0.0,0.0,0.0309302715788553,1.77217402066185,-4.821572770907571,0.0,-12.520204626464723,11.878447657008564,0.0,-0.3675208195895388,0.0,-2.8219205874208315,0.0,0.0,-0.15382613992762792,0.0,0.00966832279095986,0.6108652381980153,1.0,0.14,0.14,0.75,0.08726646259971647,5.0,0.184,0.175,0.174,0.0,0.0,0.0,-0.00013581089128152484,0.0,-0.000813371074217,0.0,7.497844433925155,0.0,-0.5184882322755375,0.0,0.15310282998055677,0.0,-6.552533340635676,0.0,-0.03492910264597132,0.0,-0.006278444803109677,0.47564525387030354,-0.01847134503797449,0.09306851632730888,0.0,0.0,0.0,0.4688516980952969,0.09306851632730888,0.0,0.0,-0.012534305251474784,0.0,0.0,-0.0009060678485496638,0.0,1.1271245867889959,0.0,5.678120779560741,0.0,-0.021251883943866283,0.0,86.50497744394933,-1.3156107406511235,0.0,-5.637431489650863,0.0,-0.021251883943866283,0.0
sim_raptor_glider_3dof,raptor_glider_3dof,0.027,-14.677692929024877,0.0,-0.005561480499600614,11.872715429879399,0.0,-0.408225583979819,0.0,0.0,0.0,-8.969835297552759,-0.1565531593039009,-0.006589086617629426,0.0,0.0,0.0,0.0,0.0,-0.0025363832534034177,-0.14532405564767664,0.0,0.0,11.879731470294775,0.005561480499600614,0.034910609980589424,-0.03436996606556412,-1.9692539975646832,0.0,0.0,0.0318335828121607,1.8239299419170065,-4.825187846780114,0.0,-12.322300307006374,11.873712655310555,0.0,-0.37811054657333315,0.0,-2.632844966112371,0.0,0.0,-0.1565531593039009,0.0,0.00966832279095986,0.6108652381980153,1.0,0.14,0.14,0.75,0.08726646259971647,5.0,0.184,0.175,0.174,0.0,0.0,0.0,-0.00015366285305479585,0.0,-0.000819071611359676,0.0,7.498248455409569,0.0,-0.5185910390812819,0.0,0.15186411025734314,0.0,-6.552490138553875,0.0,-0.034611349790489694,0.0,-0.0061783877972372905,0.4710029343545889,-0.01774763063811284,0.09286800452200436,0.0,0.0,0.0,0.46408600915714093,0.09286800452200436,0.0,0.0,-0.011703141126339663,0.0,0.0,-0.0009224721264681197,0.0,1.1238635090518092,0.0,5.616243543055914,0.0,-0.019827955439792266,0.0,86.4409280090123,-1.316191865467034,0.0,-5.574307104490557,0.0,-0.019827955439792266,0.0
sim_raptor_glider_3dof,raptor_glider_3dof,0.028,-14.665821583604133,0.0,-0.0059447911574698545,11.867888632370065,0.0,-0.420449517658045,0.0,0.0,0.0,-9.115373441278418,-0.15909327909915438,-0.006698475961249536,0.0,0.0,0.0,0.0,0.0,-0.002694221830392415,-0.1543675399534969,0.0,0.0,11.875334032659353,0.0059447911574698545,0.03489768736271813,-0.035412680381797686,-2.0289971271227363,0.0,0.0,0.03271845855140527,1.874629587169239,-4.8283294824274865,0.0,-12.125805269842145,11.86897834179416,0.0,-0.3884733057220917,0.0,-2.4481124720950724,0.0,0.0,-0.15909327909915438,0.0,0.00966832279095986,0.6108652381980153,1.0,0.14,0.14,0.75,0.08726646259971647,5.0,0.184,0.175,0.174,0.0,0.0,0.0,-0.00017126408532948888,0.0,-0.0008246913829525208,0.0,7.498640540110181,0.0,-0.5186909453858429,0.0,0.150643579253169,0.0,-6.552440397304994,0.0,-0.034298433408508446,0.0,-0.006080585642575958,0.46642623361014934,-0.01703484672763287,0.09267316398095579,0.0,0.0,0.0,0.45939410873415226,0.09267316398095579,0.0,0.0,-0.010890055699191367,0.0,0.0,-0.0009377866345749353,0.0,1.120675475247518,0.0,5.555348377199609,0.0,-0.01843673502734799,0.0,86.37694537807663,-1.316661513341907,0.0,-5.512187548710563,0.0,-0.01843673502734799,0.0
sim_raptor_glider_3dof,raptor_glider_3dof,0.029,-14.653954971987542,0.0,-0.006338352641613928,11.863058924741464,0.0,-0.43247767431713263,0.0,0.0,0.0,-9.250450142221728,-0.16145081227334687,-0.006800254210277661,0.0,0.0,0.0,0.0,0.0,-0.0028545089102714593,-0.16355131314104243,0.0,0.0,11.870939473802014,0.006338352641613928,0.034884773204625505,-0.036439693851288174,-2.087840664427629,0.0,0.0,0.03358518494101671,1.9242893512865864,-4.83100994371488,0.0,-11.93075076312623,11.864245103058972,0.0,-0.3986127509401844,0.0,-2.2676625412253753,0.0,0.0,-0.16145081227334687,0.0,0.00966832279095986,0.6108652381980153,1.0,0.14,0.14,0.75,0.08726646259971647,5.0,0.184,0.175,0.174,0.0,0.0,0.0,-0.0001886196763200876,0.0,-0.0008302278467657724,0.0,7.499020991957442,0.0,-0.5187880225451523,0.0,0.14944113287243885,0.0,-6.55238443531651,0.0,-0.03399031345966449,0.0,-0.005984994231929529,0.46191501196961104,-0.016332924777143022,0.09248386390974069,0.0,0.0,0.0,0.4547756770993184,0.09248386390974069,0.0,0.0,-0.010094821599036373,0.0,0.0,-0.0009520355894388727,0.0,1.1175587307906623,0.0,5.495429224168142,0.0,-0.0170777665979683,0.0,86.31302829843916,-1.3170242810162527,0.0,-5.451066585341013,0.0,-0.0170777665979683,0.0
sim_raptor_glider_3dof,raptor_glider_3dof,0.03,-14.642093092918584,0.0,-0.006741943428846805,11.858226762139427,0.0,-0.4443115090578285,0.0,0.0,0.0,-9.375309065604393,-0.1636300115868697,-0.006894592071945579,0.0,0.0,0.0,0.0,0.0,-0.0030170640061551505,-0.17286503407352236,0.0,0.0,11.866547714453475,0.006741943428846805,0.03487186727336529,-0.03745111054286935,-2.145790572184315,0.0,0.0,0.0344340465367142,1.9729255381107926,-4.833241453800059,0.0,-11.737166146354912,11.859513305614719,0.0,-0.4085325119845594,0.0,-2.0914347370374737,0.0,0.0,-0.1636300115868697,0.0,0.00966832279095986,0.6108652381980153,1.0,0.14,0.14,0.75,0.08726646259971647,5.0,0.184,0.175,0.174,0.0,0.0,0.0,-0.0002057344086032548,0.0,-0.000835678739867533,0.0,7.499390109583953,0.0,-0.51888234069846,0.0,0.14825666348416178,0.0,-6.552322563229708,0.0,-0.03368694968928363,0.0,-0.005891570050127449,0.45746910141086056,-0.015641793983000665,0.09229997512556362,0.0,0.0,0.0,0.45023036842770553,0.09229997512556362,0.0,0.0,-0.009317211215382348,0.0,0.0,-0.0009652428900723812,0.0,1.114511546376491,0.0,5.436479733167808,0.0,-0.015750595004629216,0.0,86.24917557130779,-1.317284650625207,0.0,-5.390937675894432,0.0,-0.015750595004629216,0.0
sim_raptor_glider_3dof,raptor_glider_3dof,0.03,-14.642093092918584,0.0,-0.006741943428846805,11.858226762139427,0.0,-0.4443115090578285,0.0,0.0,0.0,-9.375309065604393,-0.1636300115868697,-0.006894592071945579,0.0,0.0,0.0,0.0,0.0,-0.0030170640061551505,-0.17286503407352236,0.0,0.0,11.866547714453475,0.006741943428846805,0.03487186727336529,-0.03745111054286935,-2.145790572184315,0.0,0.0,0.0344340465367142,1.9729255381107926,-4.831394964368829,0.0,-11.732633765336455,11.859513305614719,0.0,-0.4085325119845594,0.0,-2.038151311402383,0.0,0.0,-0.1636300115868697,0.0,0.009460556419684851,0.6108652381980153,1.0,0.14,0.14,0.75,0.08726646259971647,5.0,0.184,0.175,0.174,0.0,0.0,0.0,-0.0002833624136052608,0.0,-0.000829159579426056,0.0,7.4993335950492215,0.0,-0.5188942515911408,0.0,0.148255419645927,0.0,-6.552193795487622,0.0,-0.03366156876991999,0.0,-0.005893948837465372,0.4573643217652371,-0.01540429535536492,0.09226181656641287,0.0,0.0,0.0,0.4501256433323349,0.09226181656641287,0.0,0.0,-0.009079836879894124,0.0,0.0,-0.0009652428900723812,0.0,1.1140507861790074,0.0,5.435215189728579,0.0,-0.015349317526171349,0.0,86.24917557130779,-1.3167768660316186,0.0,-5.389691271114356,0.0,-0.015349317526171349,0.0
sim_raptor_glider_3dof,raptor_glider_3dof,0.031,-14.630235953995644,0.0,-0.0071553502521233625,11.853394468436786,0.0,-0.4559474410903091,0.0,0.0,0.0,-9.487148437377687,-0.1655819768576757,-0.006979419084773608,0.0,0.0,0.0,0.0,0.0,-0.0031816772428250786,-0.1822966777866974,0.0,0.0,11.862160363669199,0.0071553502521233625,0.03485897429742043,-0.038446604351918025,-2.2028281659742066,0.0,0.0,0.035264927109092944,2.020531488187509,-4.833169088671273,0.0,-11.54011964456441,11.854785147265659,0.0,-0.4182315214975174,0.0,-1.8666689591029013,0.0,0.0,-0.1655819768576757,0.0,0.009460556419684851,0.6108652381980153,1.0,0.14,0.14,0.75,0.08726646259971647,5.0,0.184,0.175,0.174,0.0,0.0,0.0,-0.00030045758316262226,0.0,-0.0008345676139215673,0.0,7.4996912541888765,0.0,-0.5189858770235477,0.0,0.14708931893819446,0.0,-6.552125428589117,0.0,-0.03336299534340826,0.0,-0.005802673526905467,0.4529854995757447,-0.014724250387788167,0.09208337106649896,0.0,0.0,0.0,0.4456574112180293,0.09208337106649896,0.0,0.0,-0.00832204629109062,0.0,0.0,-0.0009771186718683053,0.0,1.111074039407031,0.0,5.377283372001144,0.0,-0.014057883931003951,0.0,86.18541053292249,-1.3169403369438424,0.0,-5.3306031678201755,0.0,-0.014057883931003951,0.0
sim_raptor_glider_3dof,raptor_glider_3dof,0.032,-14.618383532168103,0.0,-0.007578351527047036,11.848560572727576,0.0,-0.4673918755649968,0.0,0.0,0.0,-9.589276322068041,-0.1673644447036195,-0.007057160211738598,0.0,0.0,0.0,0.0,0.0,-0.003348171422751852,-0.19183609160999324,0.0,0.0,11.857775626606307,0.007578351527047036,0.03484608900234008,-0.03942670218742431,-2.258983635458624,0.0,0.0,0.03607853076467246,2.067147543848631,-4.834518232967614,0.0,-11.349136842985157,11.850059065312582,0.0,-0.42771831798706617,0.0,-1.6992854117058647,0.0,0.0,-0.1673644447036195,0.0,0.009460556419684851,0.6108652381980153,1.0,0.14,0.14,0.75,0.08726646259971647,5.0,0.184,0.175,0.174,0.0,0.0,0.0,-0.0003173167495679717,0.0,-0.0008398860098046186,0.0,7.50003816379725,0.0,-0.5190748793758831,0.0,0.14594098747018108,0.0,-6.552051770587225,0.0,-0.033069102202896654,0.0,-0.00571348108600888,0.44867164014432354,-0.014054858165948597,0.0919100828974158,0.0,0.0,0.0,0.4412615842160736,0.0919100828974158,0.0,0.0,-0.007581415097459052,0.0,0.0,-0.000988002429643404,0.0,1.1081634526730173,0.0,5.3203081237847325,0.0,-0.012797318435556867,0.0,86.12170704071087,-1.3170101271774644,0.0,-5.272493631552531,0.0,-0.012797318435556867,0.0
sim_raptor_glider_3dof,raptor_glider_3dof,0.033,-14.606535834668007,0.0,-0.008010690975141233,11.843725622276864,0.0,-0.4786464410425846,0.0,0.0,0.0,-9.68197877100641,-0.16898240766225595,-0.007128018095445428,0.0,0.0,0.0,0.0,0.0,-0.003516330434305135,-0.201470893259088,0.0,0.0,11.85339356603417,0.008010690975141233,0.034833211572582706,-0.04039152274083617,-2.3142637811566,0.0,0.0,0.03687519230653104,2.1127928878975117,-4.835455449496058,0.0,-11.159717496950416,11.845335476586955,0.0,-0.4369971148768503,0.0,-1.535931721737579,0.0,0.0,-0.16898240766225595,0.0,0.009460556419684851,0.6108652381980153,1.0,0.14,0.14,0.75,0.08726646259971647,5.0,0.184,0.175,0.174,0.0,0.0,0.0,-0.00033394402346514576,0.0,-0.0008451132931532204,0.0,7.500374609107514,0.0,-0.519161325782139,0.0,0.14481029929759767,0.0,-6.551973108378213,0.0,-0.032779846317219516,0.0,-0.00562632915434229,0.4444224649580646,-0.013396036688928286,0.0917418266541491,0.0,0.0,0.0,0.4369376721269773,0.0917418266541491,0.0,0.0,-0.006857675086093442,0.0,0.0,-0.0009979225333623602,0.0,1.1053173837803922,0.0,5.2642815414079545,0.0,-0.011567101796405709,0.0,86.05806596399266,-1.3169903923718203,0.0,-5.2153545394820435,0.0,-0.011567101796405709,0.0
sim_raptor_glider_3dof,raptor_glider_3dof,0.034,-14.594692859977958,0.0,-0.008452249292974815,11.838889850510162,0.0,-0.48971204959496767,0.0,0.0,0.0,-9.765388310110845,-0.1704381787471993,-0.007192082816087919,0.0,0.0,0.0,0.0,0.0,-0.003686060269652255,-0.21119569648192837,0.0,0.0,11.849013916104202,0.008452249292974815,0.03482034122690705,-0.04134112546696398,-2.368672009577841,0.0,0.0,0.037655065197311724,2.1574763130959123,-4.835990895604679,0.0,-10.971877127614244,11.84061452690631,0.0,-0.4460699600357282,0.0,-1.3765711287385987,0.0,0.0,-0.1704381787471993,0.0,0.009460556419684851,0.6108652381980153,1.0,0.14,0.14,0.75,0.08726646259971647,5.0,0.184,0.175,0.174,0.0,0.0,0.0,-0.00035034221002574437,0.0,-0.0008502478859746287,0.0,7.50070084887598,0.0,-0.5192452767104371,0.0,0.14369719753016205,0.0,-6.551889726615498,0.0,-0.032495202905853386,0.0,-0.005541181496352109,0.4402379424575227,-0.012747744055050586,0.09157848927989187,0.0,0.0,0.0,0.4326855498217883,0.09157848927989187,0.0,0.0,-0.006150701362853383,0.0,0.0,-0.0010068915942523088,0.0,1.1025342826757862,0.0,5.209199846471925,0.0,-0.010366957170530386,0.0,85.9944834008613,-1.3168850988830423,0.0,-5.159181962414037,0.0,-0.010366957170530386,0.0
sim_raptor_glider_3dof,raptor_glider_3dof,0.034999999999999996,-14.58285460467631,0.0,-0.008902771679506517,11.834053753900148,0.0,-0.500590674661679,0.0,0.0,0.0,-9.839788267559474,-0.17173670296802154,-0.007249555510980589,0.0,0.0,0.0,0.0,0.0,-0.0038571608135149395,-0.2209990355176532,0.0,0.0,11.844636730341561,0.008902771679506517,0.034807478122605894,-0.04227565851500346,-2.4222168090459992,0.0,0.0,0.038418497701488516,2.201217773528346,-4.83613752280999,0.0,-10.785640289368953,11.835896576266542,0.0,-0.454941215629443,0.0,-1.2211306637413468,0.0,0.0,-0.17173670296802154,0.0,0.009460556419684851,0.6108652381980153,1.0,0.14,0.14,0.75,0.08726646259971647,5.0,0.184,0.175,0.174,0.0,0.0,0.0,-0.00036651537624653424,0.0,-0.0008552888958100569,0.0,7.501017166670701,0.0,-0.5193267991494761,0.0,0.14260152095747608,0.0,-6.551801895287103,0.0,-0.032215121070618996,0.0,-0.005457994675686286,0.43611763694743316,-0.012109877481679812,0.09141994443572038,0.0,0.0,0.0,0.4285045713000295,0.09141994443572038,0.0,0.0,-0.005460206266523376,0.0,0.0,-0.0010149377715372825,0.0,1.0998125035321482,0.0,5.1550532900161645,0.0,-0.009196335028636083,0.0,85.93096008915002,-1.3166982023540124,0.0,-5.103965890339574,0.0,-0.009196335028636083,0.0
sim_raptor_glider_3dof,raptor_glider_3dof,0.036,-14.571021065717726,0.0,-0.009362065997780772,11.829217699964762,0.0,-0.511283872724535,0.0,0.0,0.0,-9.905393000282944,-0.17288172155893697,-0.00730058686911996,0.0,0.0,0.0,0.0,0.0,-0.004029482905512108,-0.23087236410595607,0.0,0.0,11.840261930872467,0.009362065997780772,0.034794622030833895,-0.043195235458988214,-2.474904686873864,0.0,0.0,0.0391657525534761,2.2440323227679078,-4.83590693656876,0.0,-10.60102540570488,11.83118187022288,0.0,-0.46361422042173966,0.0,-1.069553081655113,0.0,0.0,-0.17288172155893697,0.0,0.009460556419684851,0.6108652381980153,1.0,0.14,0.14,0.75,0.08726646259971647,5.0,0.184,0.175,0.174,0.0,0.0,0.0,-0.00038246674223490606,0.0,-0.0008602354367143543,0.0,7.501323827920628,0.0,-0.5194059555724971,0.0,0.14152314851582343,0.0,-6.551709879807887,0.0,-0.031939560730700235,0.0,-0.0053767291843339286,0.43206125206229945,-0.011482357503237157,0.09126607401215021,0.0,0.0,0.0,0.4243942827888207,0.09126607401215021,0.0,0.0,-0.0047859717066038995,0.0,0.0,-0.0010220821616767947,0.0,1.0971504797546332,0.0,5.101834345420508,0.0,-0.008054804257944657,0.0,85.8674948597133,-1.3164335035631625,0.0,-5.049698574572005,0.0,-0.008054804257944657,0.0
sim_raptor_glider_3dof,raptor_glider_3dof,0.037,-14.559192239753084,0.0,-0.009829935462959682,11.824382060934282,0.0,-0.5217932734321604,0.0,0.0,0.0,-9.96242239714655,-0.17387707230463345,-0.007345331876885175,0.0,0.0,0.0,0.0,0.0,-0.0042028746785103,-0.24080698090104288,0.0,0.0,11.835889461428046,0.009829935462959682,0.034781772786235406,-0.04409997616113267,-2.526742510660444,0.0,0.0,0.03989710148262237,2.285935529759401,-4.835310787678715,0.0,-10.418050131488313,11.826470652505915,0.0,-0.4720924152745841,0.0,-0.9217794054508628,0.0,0.0,-0.17387707230463345,0.0,0.009460556419684851,0.6108652381980153,1.0,0.14,0.14,0.75,0.08726646259971647,5.0,0.184,0.175,0.174,0.0,0.0,0.0,-0.0003981994005769514,0.0,-0.0008650868398322743,0.0,7.501621094205713,0.0,-0.5194828076085739,0.0,0.14046195140526446,0.0,-6.551613937736825,0.0,-0.03166848035073484,0.0,-0.005297345745011775,0.4280684513578303,-0.010865100091231367,0.0911167610140605,0.0,0.0,0.0,0.4203541858406086,0.0911167610140605,0.0,0.0,-0.004127771072964877,0.0,0.0,-0.0010283464627639245,0.0,1.0945466666822146,0.0,5.0495349902391204,0.0,-0.006941920702450448,0.0,85.80408685834524,-1.3160946976569896,0.0,-4.996371760587226,0.0,-0.006941920702450448,0.0
sim_raptor_glider_3dof,raptor_glider_3dof,0.038,-14.547368123175549,0.0,-0.01030618701197103,11.819547196460055,0.0,-0.5321205247893304,0.0,0.0,0.0,-10.01109268401305,-0.17472652905834402,-0.007383943055190054,0.0,0.0,0.0,0.0,0.0,-0.004377188400923055,-0.25079442150650877,0.0,0.0,11.83151926771236,0.01030618701197103,0.03476893022925258,-0.04499000221613094,-2.5777372472685234,0.0,0.0,0.040612813815207885,2.3269428257620146,-4.834360591260249,0.0,-10.236730624997055,11.821763151040123,0.0,-0.48037920745877327,0.0,-0.7777510110932305,0.0,0.0,-0.17472652905834402,0.0,0.009460556419684851,0.6108652381980153,1.0,0.14,0.14,0.75,0.08726646259971647,5.0,0.184,0.175,0.174,0.0,0.0,0.0,-0.00041371625232831857,0.0,-0.0008698426182882862,0.0,7.501909221734115,0.0,-0.5195574156502666,0.0,0.1394177984351906,0.0,-6.5515143192281,0.0,-0.031401838286034205,0.0,-0.005219805713017304,0.4241388789273936,-0.01025801978692664,0.0909718903538467,0.0,0.0,0.0,0.41638376505760505,0.0909718903538467,0.0,0.0,-0.0034853785747446867,0.0,0.0,-0.0010337520277266077,0.0,1.0919995473787436,0.0,4.998147023329778,0.0,-0.00585724286454312,0.0,85.74073526066073,-1.3156853700323108,0.0,-4.943977011008307,0.0,-0.00585724286454312,0.0
sim_raptor_glider_3dof,raptor_glider_3dof,0.039,-14.535548712148485,0.0,-0.010790631106879193,11.814713454298996,0.0,-0.5422672909828058,0.0,0.0,0.0,-10.051616607598486,-0.17543380495073646,-0.00741657058968778,0.0,0.0,0.0,0.0,0.0,-0.004552280236101895,-0.2608264446894565,0.0,0.0,11.827151297842754,0.010790631106879193,0.034756094207419416,-0.045865436770525146,-2.6278959524752272,0.0,0.0,0.04131315653442325,2.367069507785771,-4.833067722473287,0.0,-10.057081644388354,11.817059578993879,0.0,-0.48847797143020427,0.0,-0.6374096322455267,0.0,0.0,-0.17543380495073646,0.0,0.009460556419684851,0.6108652381980153,1.0,0.14,0.14,0.75,0.08726646259971647,5.0,0.184,0.175,0.174,0.0,0.0,0.0,-0.0004290200179578337,0.0,-0.0008745024561074891,0.0,7.502188461340293,0.0,-0.5196298388521494,0.0,0.1383905562423181,0.0,-6.551411267119766,0.0,-0.031139592816830125,0.0,-0.0051440710835353965,0.42027216073021434,-0.00966102984589998,0.0908313488830584,0.0,0.0,0.0,0.4124824892881203,0.0908313488830584,0.0,0.0,-0.002858569268446234,0.0,0.0,-0.0010383198825562893,0.0,1.089507632990742,0.0,4.9476620801152755,0.0,-0.0048003319404410615,0.0,85.67743927842089,-1.31520899760341,0.0,-4.892505721404804,0.0,-0.0048003319404410615,0.0
sim_raptor_glider_3dof,raptor_glider_3dof,0.04,-14.52373400264329,0.0,-0.011283081369081972,11.809881171577857,0.0,-0.5522352492532602,0.0,0.0,0.0,-10.08420378168284,-0.176002558432429,-0.0074433625808036155,0.0,0.0,0.0,0.0,0.0,-0.004728009808914181,-0.27089500754723744,0.0,0.0,11.822785503311264,0.011283081369081972,0.03474326457818703,-0.04672640425850582,-2.6772257558345003,0.0,0.0,0.041998394449591636,2.406330748287263,-4.831443416413429,0.0,-9.879116689201416,11.812360136276329,0.0,-0.49639205092025673,0.0,-0.5006973529056686,0.0,0.0,-0.176002558432429,0.0,0.009460556419684851,0.6108652381980153,1.0,0.14,0.14,0.75,0.08726646259971647,5.0,0.184,0.175,0.174,0.0,0.0,0.0,-0.0004441132463012547,0.0,-0.0008790661970472057,0.0,7.502459058463267,0.0,-0.5197001351239894,0.0,0.1373800896069796,0.0,-6.5513050170405664,0.0,-0.030881702208128466,0.0,-0.0050701045053336575,0.41646790627427666,-0.009074042438629722,0.09069502543351356,0.0,0.0,0.0,0.40864981305150794,0.09069502543351356,0.0,0.0,-0.002247119031931817,0.0,0.0,-0.0010420707613125063,0.0,1.0870694633127824,0.0,4.898071650935552,0.0,-0.0037707517647325908,0.0,85.61419817339124,-1.3146689501925228,0.0,-4.84194913925842,0.0,-0.0037707517647325908,0.0
sim_raptor_glider_3dof,raptor_glider_3dof,0.04,-14.52373400264329,0.0,-0.011283081369081972,11.809881171577857,0.0,-0.5522352492532602,0.0,0.0,0.0,-10.08420378168284,-0.176002558432429,-0.0074433625808036155,0.0,0.0,0.0,0.0,0.0,-0.004728009808914181,-0.27089500754723744,0.0,0.0,11.822785503311264,0.011283081369081972,0.03474326457818703,-0.04672640425850582,-2.6772257558345003,0.0,0.0,0.041998394449591636,2.406330748287263,-4.82965845938807,0.0,-9.874791744823638,11.812360136276329,0.0,-0.49639205092025673,0.0,-0.44948419132368617,0.0,0.0,-0.176002558432429,0.0,0.009258780835003366,0.6108652381980153,1.0,0.14,0.14,0.75,0.08726646259971647,5.0,0.184,0.175,0.174,0.0,0.0,0.0,-0.0005224394493875921,0.0,-0.0008730576355957157,0.0,7.50240143467721,0.0,-0.5197121977880687,0.0,0.13737885356884905,0.0,-6.5511708798379775,0.0,-0.030856290127574907,0.0,-0.005072311536133758,0.4163668124613163,-0.008844059082191475,0.09065875198299646,0.0,0.0,0.0,0.40854877928661015,0.09065875198299646,0.0,0.0,-0.0020172754559503927,0.0,0.0,-0.0010420707613125063,0.0,1.0866346901794421,0.0,4.896860661467729,0.0,-0.0033850654448586807,0.0,85.61419817339124,-1.314178087010549,0.0,-4.840759779554531,0.0,-0.0033850654448586807,0.0
sim_raptor_glider_3dof,raptor_glider_3dof,0.041,-14.511924007998296,0.0,-0.011783369009047272,11.805052503391853,0.0,-0.5620209895940453,0.0,0.0,0.0,-10.106128055550176,-0.17638520919752296,-0.0074622986030964756,0.0,0.0,0.0,0.0,0.0,-0.00490420569538446,-0.2809902882095506,0.0,0.0,11.818423422799782,0.011783369009047272,0.03473044586323366,-0.047572591981291316,-2.7257087410258953,0.0,0.0,0.042668386285906856,2.444718452816345,-4.827690618037937,0.0,-9.698116608169338,11.807666796128753,0.0,-0.5041200573088168,0.0,-0.3169050056112175,0.0,0.0,-0.17638520919752296,0.0,0.009258780835003366,0.6108652381980153,1.0,0.14,0.14,0.75,0.08726646259971647,5.0,0.184,0.175,0.174,0.0,0.0,0.0,-0.0005375030858298413,0.0,-0.0008775661666373003,0.0,7.502663275244735,0.0,-0.5197804211802134,0.0,0.13638553472469764,0.0,-6.551060954770781,0.0,-0.03060279715479936,0.0,-0.0050001003276189575,0.4126266204929972,-0.008267349206396298,0.09052667464882086,0.0,0.0,0.0,0.4047884245780265,0.09052667464882086,0.0,0.0,-0.0014233129847742755,0.0,0.0,-0.0010447218044335068,0.0,1.0842510892809136,0.0,4.8482095689433,0.0,-0.002386611597258079,0.0,85.55103418704542,-1.3135793176582675,0.0,-4.791163306047986,0.0,-0.002386611597258079,0.0
sim_raptor_glider_3dof,raptor_glider_3dof,0.042,-14.500118685633586,0.0,-0.012291264491361125,11.80022595107453,0.0,-0.5716316254013609,0.0,0.0,0.0,-10.120587532914383,-0.17663757468564598,-0.007475733282891739,0.0,0.0,0.0,0.0,0.0,-0.005080717096316281,-0.2911036465188855,0.0,0.0,11.814063450463257,0.012291264491361125,0.0347176333435107,-0.0484045909693756,-2.77337877160228,0.0,0.0,0.04332387387305932,2.4822751250833948,-4.825413898777202,0.0,-9.523154746007103,11.802977933814065,0.0,-0.5116708956644541,0.0,-0.18782615734639851,0.0,0.0,-0.17663757468564598,0.0,0.009258780835003366,0.6108652381980153,1.0,0.14,0.14,0.75,0.08726646259971647,5.0,0.184,0.175,0.174,0.0,0.0,0.0,-0.0005523580256684395,0.0,-0.0008819785226266124,0.0,7.502916963710971,0.0,-0.5198466323275418,0.0,0.1354086854876372,0.0,-6.550948295790612,0.0,-0.030353568448458938,0.0,-0.00492958190348463,0.4089479517200125,-0.0077004448294508265,0.09039859210654932,0.0,0.0,0.0,0.40109537887099833,0.09039859210654932,0.0,0.0,-0.0008442049201425536,0.0,0.0,-0.0010466026596048436,0.0,1.0819183162887553,0.0,4.800433578299848,0.0,-0.0014145187909757272,0.0,85.48792401968416,-1.3129233905714315,0.0,-4.742461592177652,0.0,-0.0014145187909757272,0.0
sim_raptor_glider_3dof,raptor_glider_3dof,0.043000000000000003,-14.488318049811491,0.0,-0.012806623542006413,11.795401824665836,0.0,-0.581068163464242,0.0,0.0,0.0,-10.127750316290214,-0.17676258883916135,-0.007483784780811026,0.0,0.0,0.0,0.0,0.0,-0.0052574172345378235,-0.30122781867835813,0.0,0.0,11.809705517747759,0.012806623542006413,0.03470482681756078,-0.049222469539573585,-2.820239761828819,0.0,0.0,0.043965052305035765,2.5190119431504607,-4.822838590562403,0.0,-9.34992219480927,11.798293713720684,0.0,-0.5190470698316948,0.0,-0.062204741558607356,0.0,0.0,-0.17676258883916135,0.0,0.009258780835003366,0.6108652381980153,1.0,0.14,0.14,0.75,0.08726646259971647,5.0,0.184,0.175,0.174,0.0,0.0,0.0,-0.000567005337906783,0.0,-0.0008862946459053351,0.0,7.50316271137713,0.0,-0.5199108807200455,0.0,0.13444823553098031,0.0,-6.550833125349635,0.0,-0.03010858008139662,0.0,-0.004860725907745005,0.405330634279767,-0.007143295833316427,0.0902744083488727,0.0,0.0,0.0,0.3974693465927376,0.0902744083488727,0.0,0.0,-0.0002797922989990209,0.0,0.0,-0.0010477298693135437,0.0,1.0796351012619034,0.0,4.753527229985013,0.0,-0.000468463908677872,0.0,85.42486664576606,-1.3122133449994797,0.0,-4.694648998092516,0.0,-0.000468463908677872,0.0
