name,vehicle,t,north,east,down,u,v,w,p_rad,p_deg,p_hat_div_b,q_deg,q_rad,q_hat_div_c,r_rad,r_deg,r_hat_div_b,phi_rad,phi_deg,theta_rad,theta_deg,psi_rad,psi_deg,speed,altitude,mach,alpha_rad,alpha_deg,beta_rad,beta_deg,gamma_rad,gamma_deg,u_dot,v_dot,w_dot,north_dot,east_dot,down_dot,p_rad_dot,q_rad_dot,r_rad_dot,phi_rad_dot,theta_rad_dot,psi_rad_dot,del_tail_alt_rad,del_tail_splay_rad,DIM_b,DIM_c_bar,DIM_S,DIM_wing_position,DIM_wing_incidence_rad,DIM_wing_incidence_deg,DIM_empennage_length,DIM_nose_length,DIM_tail_length,CDp,CDq,CDr,CYp,CYq,CYr,CLp,CLq,CLr,Clp,Clq,Clr,Cmp,Cmq,Cmr,Cnp,Cnq,Cnr,CL_0,Cm_0,CD_0,Cl_0,CY_0,Cn_0,CL,CD,CY,Cl,Cm,Cn,p_hat,q_hat,r_hat,drag_force_wind,side_force_wind,lift_force_wind,roll_moment_wind,pitch_moment_wind,yaw_moment_wind,qbar,X_total,Y_total,Z_total,L_total,M_total,N_total
sim_raptor_glider_3dof,raptor_glider_3dof,0.0,-15.0,0.0,0.0,12.0,0.0,0.0,0.0,0.0,0.0,0.0,0.0,0.0,0.0,0.0,0.0,0.0,0.0,0.0,0.0,0.0,0.0,12.0,-0.0,0.035264039495724236,0.0,0.0,0.0,0.0,0.0,0.0,-6.361452575839584,0.0,-21.468984382144093,12.0,0.0,0.0,0.0,-49.793843261168824,0.0,0.0,0.0,0.0,0.23680593639016623,0.3490658503988659,1.0,0.14,0.14,0.75,0.08726646259971647,5.0,0.184,0.175,0.174,0.0,0.0,0.0,-0.0009142433750517906,0.0,0.015995189312298604,0.0,6.072651429641608,0.0,-0.5145850296116301,0.0,0.19445155666916294,0.0,-3.702385383678468,0.0,-0.04616146020384946,0.0,-0.016079923052010905,0.6965336795656966,-0.2169219796841409,0.14167469525612414,0.0,0.0,0.0,0.6965336795656966,0.14167469525612414,0.0,0.0,-0.2169219796841409,0.0,0.0,0.0,0.0,1.7493994583558856,0.0,8.600799455089627,0.0,-0.37499743359986243,0.0,88.20001620075907,-1.7493994583558856,0.0,-8.600799455089627,0.0,-0.37499743359986243,0.0
sim_raptor_glider_3dof,raptor_glider_3dof,0.001,-14.988003184486377,0.0,-0.000010660166055868967,11.993626725426594,0.0,-0.021542352165277424,0.0,0.0,0.0,-2.8405702909027433,-0.049577304210585996,-0.0020668153751045694,0.0,0.0,0.0,0.0,0.0,-0.000024825164333903653,-0.001422377142051379,0.0,0.0,11.993646072058482,0.000010660166055868967,0.035245367398567345,-0.0017961480286302607,-0.1029117014212569,0.0,0.0,0.001771322864296357,0.10148932427920551,-6.385203787581806,0.0,-21.61433984837982,11.993627256523258,0.0,-0.021244608404251637,0.0,-49.36103236428703,0.0,0.0,-0.049577304210585996,0.0,0.23680593639016623,0.3490658503988659,1.0,0.14,0.14,0.75,0.08726646259971647,5.0,0.184,0.175,0.174,0.0,0.0,0.0,-0.0009613498673095619,0.0,0.015967429962188206,0.0,6.073851696506795,0.0,-0.514845688665376,0.0,0.19239563938675625,0.0,-3.7037468111859666,0.0,-0.04562000197869398,0.0,-0.01585440980266893,0.6892680252779183,-0.2163360781540848,0.1411013401128825,0.0,0.0,0.0,0.6875105310677759,0.1411013401128825,0.0,0.0,-0.21526438363440528,0.0,0.0,-0.0002893541525146397,0.0,1.7404750606269033,0.0,8.480393823932031,0.0,-0.37173793473544564,0.0,88.10663817096206,-1.755704287571544,0.0,-8.4772539952659,0.0,-0.37173793473544564,0.0
sim_raptor_glider_3dof,raptor_glider_3dof,0.002,-14.976012752385419,0.0,-0.00004233959863588137,11.987229388864744,0.0,-0.043225994797632124,0.0,0.0,0.0,-5.656388157049987,-0.09872259711133638,-0.004117797034539616,0.0,0.0,0.0,0.0,0.0,-0.0000990110685728888,-0.005672916354306911,0.0,0.0,11.987307325162265,0.00004233959863588137,0.03522673991349221,-0.0036059881760151713,-0.20660790345974714,0.0,0.0,0.0035069771074422826,0.20093498710544025,-6.409569614089386,0.0,-21.75160694640234,11.98723360996012,0.0,-0.04203912619667512,0.0,-48.92982177388936,0.0,0.0,-0.09872259711133638,0.0,0.23680593639016623,0.3490658503988659,1.0,0.14,0.14,0.75,0.08726646259971647,5.0,0.184,0.175,0.174,0.0,0.0,0.0,-0.0010090283472530888,0.0,0.015940313266221393,0.0,6.075045844545439,0.0,-0.515104415535753,0.0,0.19032318909270451,0.0,-3.7051063376288593,0.0,-0.04507519767718339,0.0,-0.015629483549131743,0.6819190897133354,-0.215745558239291,0.1405297388057012,0.0,0.0,0.0,0.6784168769064648,0.1405297388057012,0.0,0.0,-0.21360959561472712,0.0,0.0,-0.0005764915848355462,0.0,1.7315926231472794,0.0,8.359381220327094,0.0,-0.36849048777916077,0.0,88.0135325225873,-1.7617251295914262,0.0,-8.353082782246412,0.0,-0.36849048777916077,0.0
sim_raptor_glider_3dof,raptor_glider_3dof,0.003,-14.964028723356776,0.0,-0.00009458772172172808,11.980807394172103,0.0,-0.06504292708259322,0.0,0.0,0.0,-8.447545952014067,-0.1474374905761644,-0.006152979220963466,0.0,0.0,0.0,0.0,0.0,-0.0002221269232717093,-0.012726935219695212,0.0,0.0,11.980983949518187,0.00009458772172172808,0.035208157599453956,-0.005428873526235233,-0.31105154056358364,0.0,0.0,0.005206746602963524,0.29832460534388844,-6.434513642332651,0.0,-21.88094769408916,11.980821546388524,0.0,-0.06238166561507839,0.0,-48.50023806149952,0.0,0.0,-0.1474374905761644,0.0,0.23680593639016623,0.3490658503988659,1.0,0.14,0.14,0.75,0.08726646259971647,5.0,0.184,0.175,0.174,0.0,0.0,0.0,-0.001057242161336683,0.0,0.01591380181949247,0.0,6.076233116343897,0.0,-0.5153610319340036,0.0,0.18823489489238535,0.0,-3.706463228893034,0.0,-0.04452721429291054,0.0,-0.015405272868220339,0.6744896616045231,-0.21515056094461707,0.13996027230256902,0.0,0.0,0.0,0.6692554905495999,0.13996027230256902,0.0,0.0,-0.2119577501723269,0.0,0.0,-0.0008614170909348852,0.0,1.7227567490097682,0.0,8.237797727798528,0.0,-0.36525529284115293,0.0,87.9207016936041,-1.767453104273465,0.0,-8.228323750593155,0.0,-0.36525529284115293,0.0
sim_raptor_glider_3dof,raptor_glider_3dof,0.004,-14.952051114613804,0.0,-0.00016695168425517252,11.97436018106402,0.0,-0.08698530265701923,0.0,0.0,0.0,-11.214137597376187,-0.19572362384590067,-0.008172397394209894,0.0,0.0,0.0,0.0,0.0,-0.0003937431345485005,-0.02255981982188079,0.0,0.0,11.974676120410516,0.00016695168425517252,0.03518962097155519,-0.007264168717042669,-0.41620620915750683,0.0,0.0,0.006870425582494169,0.39364638933562607,-6.45999950505272,0.0,-22.002524541975724,11.974393502714456,0.0,-0.0822704739241157,0.0,-48.072306088008695,0.0,0.0,-0.19572362384590067,0.0,0.23680593639016623,0.3490658503988659,1.0,0.14,0.14,0.75,0.08726646259971647,5.0,0.184,0.175,0.174,0.0,0.0,0.0,-0.0011059536717714848,0.0,0.015887854195299554,0.0,6.077412781844131,0.0,-0.51561536624807,0.0,0.18613143239059696,0.0,-3.707816776152971,0.0,-0.04397621246271031,0.0,-0.015181901847340626,0.6669825484956787,-0.21455122090724152,0.1393933120706434,0.0,0.0,0.0,0.6600291639622154,0.1393933120706434,0.0,0.0,-0.21030897560489187,0.0,0.0,-0.0011441356351893851,0.0,1.713971899995542,0.0,8.115679464130018,0.0,-0.3620325371487935,0.0,87.82814789805056,-1.7728798250366513,0.0,-8.103014868828394,0.0,-0.3620325371487935,0.0
sim_raptor_glider_3dof,raptor_glider_3dof,0.005,-14.940079940912266,0.0,-0.00025897691475247213,11.967887226210088,0.0,-0.10904544056747661,0.0,0.0,0.0,-13.956258419652864,-0.24358266068212295,-0.01017608812875569,0.0,0.0,0.0,0.0,0.0,-0.0006134317881798877,-0.035147052481870666,0.0,0.0,11.968383999830184,0.00025897691475247213,0.0351711305058338,-0.009111250885351559,-0.522036221815479,0.0,0.0,0.008497819097171672,0.48688916933360843,-6.485990974929868,0.0,-22.116500062356813,11.967951866396206,0.0,-0.10170393804917845,0.0,-47.64604900176299,0.0,0.0,-0.24358266068212295,0.0,0.23680593639016623,0.3490658503988659,1.0,0.14,0.14,0.75,0.08726646259971647,5.0,0.184,0.175,0.174,0.0,0.0,0.0,-0.001155124350791074,0.0,0.015862425121857066,0.0,6.078584138800068,0.0,-0.5158672536374069,0.0,0.18401346269087576,0.0,-3.709166296398334,0.0,-0.04342234631420795,0.0,-0.014959489997119903,0.6594005703618879,-0.2139476662712933,0.13882921975194673,0.0,0.0,0.0,0.6507407012566598,0.13882921975194673,0.0,0.0,-0.20866339383500293,0.0,0.0,-0.0014246523380257966,0.0,1.7052423939241668,0.0,7.993062506707903,0.0,-0.3588223950322771,0.0,87.7358731505314,-1.777997404383601,0.0,-7.977194061083197,0.0,-0.3588223950322771,0.0
sim_raptor_glider_3dof,raptor_glider_3dof,0.006,-14.928115214651683,0.0,-0.000370207304152109,11.961388042336557,0.0,-0.13121582214577482,0.0,0.0,0.0,-16.674005018948044,-0.29101628707470284,-0.01216408903404056,0.0,0.0,0.0,0.0,0.0,-0.0008807666426403592,-0.05046421135919979,0.0,0.0,11.96210773615308,0.000370207304152109,0.03515268663831755,-0.010969509438746566,-0.6285065941690986,0.0,0.0,0.010088742796106207,0.5780423828098988,-6.512452037206719,0.0,-22.223036852810218,11.961498973318387,0.0,-0.12068058102519395,0.0,-47.22148830613677,0.0,0.0,-0.29101628707470284,0.0,0.23680593639016623,0.3490658503988659,1.0,0.14,0.14,0.75,0.08726646259971647,5.0,0.184,0.175,0.174,0.0,0.0,0.0,-0.00120471484521131,0.0,0.01583746568050279,0.0,6.079746512426505,0.0,-0.5161165359515711,0.0,0.18188163273833466,0.0,-3.710511132051699,0.0,-0.04286576366985174,0.0,-0.014738152314955313,0.6517465579284581,-0.21334001894731272,0.13826834722166328,0.0,0.0,0.0,0.6413929170250406,0.13826834722166328,0.0,0.0,-0.20702112065922215,0.0,0.0,-0.0017029724647656787,0.0,1.6965724061521816,0.0,7.8699828730985955,0.0,-0.355625028433516,0.0,87.64387926204837,-1.7827984528529206,0.0,-7.850899185996943,0.0,-0.355625028433516,0.0
sim_raptor_glider_3dof,raptor_glider_3dof,0.007,-14.916156945959187,0.0,-0.0005001853604662602,11.954862177505248,0.0,-0.1534890888670208,0.0,0.0,0.0,-19.367475159706977,-0.33802620933510136,-0.01413643869042369,0.0,0.0,0.0,0.0,0.0,-0.0011953231283873085,-0.06848697041096702,0.0,0.0,11.955847464046485,0.0005001853604662602,0.03513428976474914,-0.01283834590855358,-0.7355830364891685,0.0,0.0,0.011643022780166271,0.6670960660782015,-6.539346959459475,0.0,-22.322297428302683,11.955037105982566,0.0,-0.13919905936007565,0.0,-46.798643921294676,0.0,0.0,-0.33802620933510136,0.0,0.23680593639016623,0.3490658503988659,1.0,0.14,0.14,0.75,0.08726646259971647,5.0,0.184,0.175,0.174,0.0,0.0,0.0,-0.0012546850439517471,0.0,0.015812923505252163,0.0,6.080899255081676,0.0,-0.5163630616553121,0.0,0.17973657556869033,0.0,-3.71185065063094,0.0,-0.04230660622840746,0.0,-0.014517999341517384,0.6440233506227057,-0.21272839484636216,0.13771103662767914,0.0,0.0,0.0,0.6319886342924109,0.13771103662767914,0.0,0.0,-0.20538226596527065,0.0,0.0,-0.0019791014166593165,0.0,1.6879659708988286,0.0,7.74647649748356,0.0,-0.3524405873712702,0.0,87.55216783918334,-1.7872760777687848,0.0,-7.724168011301478,0.0,-0.3524405873712702,0.0
sim_raptor_glider_3dof,raptor_glider_3dof,0.008,-14.904205142690294,0.0,-0.0006484523038685058,11.948309215576838,0.0,-0.17585804567262928,0.0,0.0,0.0,-22.036767712775085,-0.38461415308510527,-0.016093176620435915,0.0,0.0,0.0,0.0,0.0,-0.0015566784025375818,-0.08919110252457049,0.0,0.0,11.949603305686185,0.0006484523038685058,0.035115940244162876,-0.014717174258384093,-0.8432319713639859,0.0,0.0,0.013160495855846511,0.7540408688394153,-6.566640365527209,0.0,-22.41444404124202,11.948568493034703,0.0,-0.15725816520808072,0.0,-46.377534217942916,0.0,0.0,-0.38461415308510527,0.0,0.23680593639016623,0.3490658503988659,1.0,0.14,0.14,0.75,0.08726646259971647,5.0,0.184,0.175,0.174,0.0,0.0,0.0,-0.0013049941583365627,0.0,0.015788742978453858,0.0,6.082041746205631,0.0,-0.5166066858073118,0.0,0.17757891003342524,0.0,-3.7131842447177044,0.0,-0.04174500961192086,0.0,-0.014299137167401638,0.6362337926070584,-0.2121129039655145,0.13715762030356055,0.0,0.0,0.0,0.6225306805222212,0.13715762030356055,0.0,0.0,-0.20374693378308983,0.0,0.0,-0.002253044726861028,0.0,1.6794269813823894,0.0,7.622579185126165,0.0,-0.34926921019532814,0.0,87.46074030246791,-1.7914238832375615,0.0,-7.59703816561954,0.0,-0.34926921019532814,0.0
sim_raptor_glider_3dof,raptor_glider_3dof,0.009000000000000001,-14.892259810497556,0.0,-0.0008145482094966674,11.941728775595887,0.0,-0.19831565958289363,0.0,0.0,0.0,-24.681982561345016,-0.4307818616152938,-0.018034343233660835,0.0,0.0,0.0,0.0,0.0,-0.0019644113562468607,-0.11255247994051513,0.0,0.0,11.943375370921348,0.0008145482094966674,0.035097638399369205,-0.016605420799685945,-0.951420528860757,0.0,0.0,0.014641009443439084,0.8388680489202419,-6.594297297771827,0.0,-22.49963856337609,11.94209530784645,0.0,-0.1748568244090366,0.0,-45.95817607495793,0.0,0.0,-0.4307818616152938,0.0,0.23680593639016623,0.3490658503988659,1.0,0.14,0.14,0.75,0.08726646259971647,5.0,0.184,0.175,0.174,0.0,0.0,0.0,-0.001355600792254133,0.0,0.015764865433201866,0.0,6.083173391983162,0.0,-0.5168472699785897,0.0,0.17540924097403457,0.0,-3.7145113316176914,0.0,-0.041181103531783926,0.0,-0.014081667491068794,0.6283807303959948,-0.2114936506013686,0.13660842081166186,0.0,0.0,0.0,0.6130218852298692,0.13660842081166186,0.0,0.0,-0.20211522247940836,0.0,0.0,-0.0025248080527125174,0.0,1.6709591912449793,0.0,7.498326585382286,0.0,-0.3461110240205082,0.0,87.36959788929866,-1.7952359675211815,0.0,-7.469547109482284,0.0,-0.3461110240205082,0.0
sim_raptor_glider_3dof,raptor_glider_3dof,0.01,-14.880320952891513,0.0,-0.0009980121527308505,11.935120511308748,0.0,-0.2208550592285675,0.0,0.0,0.0,-27.30322050897214,-0.47653109427960577,-0.019959979772193572,0.0,0.0,0.0,0.0,0.0,-0.0024181026332529294,-0.1385470753148636,0.0,0.0,11.937163757637308,0.0009980121527308505,0.035079384518020826,-0.018502524183708742,-1.0601165460652495,0.0,0.0,0.016084421550455814,0.9215694707503861,-6.622283276381334,0.0,-22.578042354294507,11.93561966736585,0.0,-0.19199409532365674,0.0,-45.540584932435756,0.0,0.0,-0.47653109427960577,0.0,0.23680593639016623,0.3490658503988659,1.0,0.14,0.14,0.75,0.08726646259971647,5.0,0.184,0.175,0.174,0.0,0.0,0.0,-0.0014064630143982067,0.0,0.0157412293552519,0.0,6.084293625031606,0.0,-0.5170846821752699,0.0,0.17322815930694083,0.0,-3.715831353057994,0.0,-0.04061501193257409,0.0,-0.013865687671118662,0.6204670101421218,-0.21087073353758615,0.13606375097214884,0.0,0.0,0.0,0.6034650772664014,0.13606375097214884,0.0,0.0,-0.2004872249274373,0.0,0.0,-0.0027943971681071004,0.0,1.6625662158493848,0.0,7.37375416111691,0.0,-0.3429661451261737,0.0,87.27874165973537,-1.7987069200123902,0.0,-7.341732102615311,0.0,-0.3429661451261737,0.0
sim_raptor_glider_3dof,raptor_glider_3dof,0.01,-14.880320952891513,0.0,-0.0009980121527308505,11.935120511308748,0.0,-0.2208550592285675,0.0,0.0,0.0,-27.30322050897214,-0.47653109427960577,-0.019959979772193572,0.0,0.0,0.0,0.0,0.0,-0.0024181026332529294,-0.1385470753148636,0.0,0.0,11.937163757637308,0.0009980121527308505,0.035079384518020826,-0.018502524183708742,-1.0601165460652495,0.0,0.0,0.016084421550455814,0.9215694707503861,-4.798086025187766,0.0,-18.90668876872038,11.93561966736585,0.0,-0.19199409532365674,0.0,-2.3957788799317115,0.0,0.0,-0.47653109427960577,0.0,-0.06351855138861745,0.3490658503988659,1.0,0.14,0.14,0.75,0.08726646259971647,5.0,0.184,0.175,0.174,0.0,0.0,0.0,-0.011751181288246381,0.0,0.0022198582342706657,0.0,6.076628723488298,0.0,-0.5181984377512566,0.0,0.17139852683670484,0.0,-3.7687295347413965,0.0,-0.03619927662903252,0.0,-0.008810087732761523,0.5370730751637472,-0.02107847008635008,0.09654431880252577,0.0,0.0,0.0,0.5200925610671933,0.09654431880252577,0.0,0.0,-0.01054714294710713,0.0,0.0,-0.0027943971681071004,0.0,1.1796773323273093,0.0,6.355023398714719,0.0,-0.01804261074476572,0.0,87.27874165973537,-1.297052675934159,0.0,-6.332109866582425,0.0,-0.01804261074476572,0.0
sim_raptor_glider_3dof,raptor_glider_3dof,0.011,-14.86838766509859,0.0,-0.0011965636572269555,11.930313958210823,0.0,-0.23961409937013683,0.0,0.0,0.0,-27.436681980343078,-0.4788604363795848,-0.020065016077143817,0.0,0.0,0.0,0.0,0.0,-0.002895806784521375,-0.1659175070384246,0.0,0.0,11.932719977360438,0.0011965636572269555,0.03506632571442134,-0.0200817756348536,-1.1506009890057607,0.0,0.0,0.017185968850332224,0.984683481967336,-4.8148828460703434,0.0,-18.611876198024895,11.930957811412043,0.0,-0.20506525888823351,0.0,-2.2632873102891593,0.0,0.0,-0.4788604363795848,0.0,-0.06351855138861745,0.3490658503988659,1.0,0.14,0.14,0.75,0.08726646259971647,5.0,0.184,0.175,0.174,0.0,0.0,0.0,-0.011827217819918747,0.0,0.002208630561495503,0.0,6.076873725238206,0.0,-0.5184072347015601,0.0,0.16957174807660833,0.0,-3.7679790709777703,0.0,-0.03571585681676411,0.0,-0.008640463417756856,0.5304948133842766,-0.02055592495683629,0.09620888006996076,0.0,0.0,0.0,0.5134242537248818,0.09620888006996076,0.0,0.0,-0.009971286467584837,0.0,0.0,-0.0028091022508001345,0.0,1.1747035094120257,0.0,6.268873229054261,0.0,-0.01704481673378766,0.0,87.2137722301881,-1.3003482958941666,0.0,-6.244020676322529,0.0,-0.01704481673378766,0.0
sim_raptor_glider_3dof,raptor_glider_3dof,0.012,-14.856459038888087,0.0,-0.0014080307522701242,11.925491133358088,0.0,-0.25807982635836557,0.0,0.0,0.0,-27.56262855004857,-0.4810586187025382,-0.020164620679099354,0.0,0.0,0.0,0.0,0.0,-0.0033757763227231746,-0.19341773587223085,0.0,0.0,11.928283362184835,0.0014080307522701242,0.03505328796668969,-0.021637645411463926,-1.2397457606774946,0.0,0.0,0.01826186908874075,1.0463280248052638,-4.830603155415574,0.0,-18.32003567715131,11.926294400886931,0.0,-0.21782064169541515,0.0,-2.1334890952284065,0.0,0.0,-0.4810586187025382,0.0,-0.06351855138861745,0.3490658503988659,1.0,0.14,0.14,0.75,0.08726646259971647,5.0,0.184,0.175,0.174,0.0,0.0,0.0,-0.011901985502547407,0.0,0.0021972862799156294,0.0,6.077103565131782,0.0,-0.5186099403440347,0.0,0.16777101335064848,0.0,-3.7672305891454436,0.0,-0.035240013338466596,0.0,-0.0084749904482492,0.5240013666695386,-0.020041500957318954,0.09588318059634476,0.0,0.0,0.0,0.5068454183189507,0.09588318059634476,0.0,0.0,-0.009406432339604453,0.0,0.0,-0.0028230468950739096,0.0,1.1698563458206526,0.0,6.183945143275227,0.0,-0.01606730637616513,0.0,87.14893168844624,-1.3033780717735524,0.0,-6.15718661459225,0.0,-0.01606730637616513,0.0
sim_raptor_glider_3dof,raptor_glider_3dof,0.013000000000000001,-14.844535076528123,0.0,-0.0016321041465831773,11.920653089632825,0.0,-0.27625514493995146,0.0,0.0,0.0,-27.681211064208707,-0.4831282740099254,-0.020258898099770776,0.0,0.0,0.0,0.0,0.0,-0.0038578824574768498,-0.22104038267098178,0.0,0.0,11.92385369704268,0.0016321041465831773,0.035040270642812545,-0.023170350134562395,-1.3275632725508044,0.0,0.0,0.019312467677085547,1.1065228898798227,-4.845277420438387,0.0,-18.03119082352508,11.921630137904536,0.0,-0.2302647247944781,0.0,-2.0063453202279065,0.0,0.0,-0.4831282740099254,0.0,-0.06351855138861745,0.3490658503988659,1.0,0.14,0.14,0.75,0.08726646259971647,5.0,0.184,0.175,0.174,0.0,0.0,0.0,-0.011975506760505123,0.0,0.002185839916527914,0.0,6.077318796335768,0.0,-0.5188067226349141,0.0,0.16599612569860842,0.0,-3.766484387766776,0.0,-0.03477165539343444,0.0,-0.00831358174329908,0.5175928516447166,-0.019535111555998654,0.09556699410640922,0.0,0.0,0.0,0.5003560821346462,0.09556699410640922,0.0,0.0,-0.008852436279138403,0.0,0.0,-0.0028362457339679093,0.0,1.1651327563983978,0.0,6.10023645307,0.0,-0.015109786606636364,0.0,87.08421677624978,-1.306151978514002,0.0,-6.071604905823545,0.0,-0.015109786606636364,0.0
sim_raptor_glider_3dof,raptor_glider_3dof,0.014,-14.832615778578738,0.0,-0.0018684631726506484,11.91580089825661,0.0,-0.29414316942991153,0.0,0.0,0.0,-27.792586185466657,-0.48507213658068454,-0.02034795719701952,0.0,0.0,0.0,0.0,0.0,-0.004341993144808912,-0.24877788187228633,0.0,0.0,11.919430827477262,0.0018684631726506484,0.035027273288892595,-0.024680124131935495,-1.4140669506188783,0.0,0.0,0.020338130987126585,1.1652890687465922,-4.858936059645349,0.0,-17.745360578282227,11.91696573831728,0.0,-0.24240223346205858,0.0,-1.881815468142986,0.0,0.0,-0.48507213658068454,0.0,-0.06351855138861745,0.3490658503988659,1.0,0.14,0.14,0.75,0.08726646259971647,5.0,0.184,0.175,0.174,0.0,0.0,0.0,-0.012047804191616855,0.0,0.002174305208244085,0.0,6.077519959714873,0.0,-0.518997747586051,0.0,0.1642468656196736,0.0,-3.7657407459043055,0.0,-0.03431068780583398,0.0,-0.008156149567462837,0.5112692536949728,-0.019036664645126496,0.09526009390091958,0.0,0.0,0.0,0.4939561374543694,0.09526009390091958,0.0,0.0,-0.008309146233343853,0.0,0.0,-0.0028487140075827326,0.0,1.1605296724907692,0.0,6.017742907339198,0.0,-0.014171952290584829,0.0,87.01962512518928,-1.3086798112489686,0.0,-5.987271162323627,0.0,-0.014171952290584829,0.0
sim_raptor_glider_3dof,raptor_glider_3dof,0.015,-14.820701144832059,0.0,-0.002116808312519814,11.910935543515459,0.0,-0.3117468779281916,0.0,0.0,0.0,-27.896900218865937,-0.48689275991953734,-0.02043189951758023,0.0,0.0,0.0,0.0,0.0,-0.004827985878940494,-0.2766232144120495,0.0,0.0,11.915014546263796,0.002116808312519814,0.03501429529596461,-0.02616719066607506,-1.4992695868802224,0.0,0.0,0.021339204787134566,1.2226463724681729,-4.871608713990715,0.0,-17.462561395998783,11.912301828798102,0.0,-0.25423763940701083,0.0,-1.7598609187858003,0.0,0.0,-0.48689275991953734,0.0,-0.06351855138861745,0.3490658503988659,1.0,0.14,0.14,0.75,0.08726646259971647,5.0,0.184,0.175,0.174,0.0,0.0,0.0,-0.012118899215298436,0.0,0.0021626953364641613,0.0,6.077707579952064,0.0,-0.5191831756325194,0.0,0.16252302444481453,0.0,-3.764999937249432,0.0,-0.03385701978431152,0.0,-0.00800260858557662,0.5050305497431047,-0.01854607205331734,0.09496225886412366,0.0,0.0,0.0,0.4876454742631904,0.09496225886412366,0.0,0.0,-0.007776417997096663,0.0,0.0,-0.0028604659324612323,0.0,1.1560440928049611,0.0,5.936460196378221,0.0,-0.013253512579375864,0.0,86.95515360017784,-1.3109710899954914,0.0,-5.904180926164799,0.0,-0.013253512579375864,0.0
sim_raptor_glider_3dof,raptor_glider_3dof,0.016,-14.808791174512196,0.0,-0.0023768395640905164,11.90605799773905,0.0,-0.32906930792039196,0.0,0.0,0.0,-27.994299684185073,-0.48859270127903826,-0.020510826894613098,0.0,0.0,0.0,0.0,0.0,-0.005315738610554831,-0.30456938737952816,0.0,0.0,11.910604672095419,0.0023768395640905164,0.03500133613122754,-0.027631778202081566,-1.5831842714208597,0.0,0.0,0.022316039591526733,1.2786148840413314,-4.883324664747115,0.0,-17.1828065200608,11.90763902112407,0.0,-0.26577546452712547,0.0,-1.640442852382475,0.0,0.0,-0.48859270127903826,0.0,-0.06351855138861745,0.3490658503988659,1.0,0.14,0.14,0.75,0.08726646259971647,5.0,0.184,0.175,0.174,0.0,0.0,0.0,-0.012188812881521457,0.0,0.002151022827314688,0.0,6.077882168100537,0.0,-0.5193631638098999,0.0,0.16082438556021353,0.0,-3.764262222369649,0.0,-0.03341055991558519,0.0,-0.007852874157402934,0.498876642726479,-0.01806324417313311,0.0946732701311956,0.0,0.0,0.0,0.4814239082614718,0.0946732701311956,0.0,0.0,-0.007254105857079345,0.0,0.0,-0.002871515765245834,0.0,1.1516730579401855,0.0,5.856383156773532,0.0,-0.012354175121292419,0.0,86.89079944893095,-1.3130351149362833,0.0,-5.822328855215092,0.0,-0.012354175121292419,0.0
sim_raptor_glider_3dof,raptor_glider_3dof,0.017,-14.796885866229431,0.0,-0.0026482615552308195,11.90116920345393,0.0,-0.3461135090910403,0.0,0.0,0.0,-28.084928826970565,-0.4901744782189052,-0.02058483965529883,0.0,0.0,0.0,0.0,0.0,-0.005805131896403488,-0.3326095571806957,0.0,0.0,11.906201030152967,0.0026482615552308195,0.034988395280945564,-0.02907411649557005,-1.6658241682678514,0.0,0.0,0.023268984599166563,1.3332146110871557,-4.894112713209618,0.0,-16.906106309650543,11.902977895242438,0.0,-0.27702020826180457,0.0,-1.5235227475058908,0.0,0.0,-0.4901744782189052,0.0,-0.06351855138861745,0.3490658503988659,1.0,0.14,0.14,0.75,0.08726646259971647,5.0,0.184,0.175,0.174,0.0,0.0,0.0,-0.01225756571029488,0.0,0.0021392996008423796,0.0,6.078044221251474,0.0,-0.5195378653269139,0.0,0.15915072899364457,0.0,-3.763527850742035,0.0,-0.032971217327261444,0.0,-0.007706862763043561,0.4928073803102167,-0.017588091257223753,0.09439291193598097,0.0,0.0,0.0,0.4752912011104979,0.09439291193598097,0.0,0.0,-0.0067420648288150815,0.0,0.0,-0.0028818775517418364,0.0,1.1474136566857953,0.0,5.777505999885356,0.0,-0.011473649811466865,0.0,86.82656001785936,-1.3148809523994047,0.0,-5.741708958078386,0.0,-0.011473649811466865,0.0
sim_raptor_glider_3dof,raptor_glider_3dof,0.018000000000000002,-14.784985217993965,0.0,-0.0029307836727045945,11.896270072879679,0.0,-0.3628825408542619,0.0,0.0,0.0,-28.168929561126003,-0.49164056760401004,-0.020654036576458482,0.0,0.0,0.0,0.0,0.0,-0.006296048943631066,-0.36073703207786045,0.0,0.0,11.90180345096278,0.0029307836727045945,0.034975472247091535,-0.030494436397122928,-1.7472025041852677,0.0,0.0,0.024198387453491864,1.3864654721074074,-4.904001162848739,0.0,-16.63246837433503,11.898318999347484,0.0,-0.2879763447163482,0.0,-1.4090623989083837,0.0,0.0,-0.49164056760401004,0.0,-0.06351855138861745,0.3490658503988659,1.0,0.14,0.14,0.75,0.08726646259971647,5.0,0.184,0.175,0.174,0.0,0.0,0.0,-0.012325177708767471,0.0,0.0021275369924015092,0.0,6.078194222743711,0.0,-0.5197074296197501,0.0,0.1575018316974169,0.0,-3.762797060994751,0.0,-0.032538901715150524,0.0,-0.007564492032477393,0.48682255799507235,-0.01712052348549069,0.09412097167983621,0.0,0.0,0.0,0.4692470635837209,0.09412097167983621,0.0,0.0,-0.006240150747630043,0.0,0.0,-0.0028915651207041876,0.0,1.1432630264084445,0.0,5.699822350653978,0.0,-0.010611648926179038,0.0,86.76243273522738,-1.3165174343597768,0.0,-5.66231463463432,0.0,-0.010611648926179038,0.0
sim_raptor_glider_3dof,raptor_glider_3dof,0.019000000000000003,-14.77308922731809,0.0,-0.0032241195008515604,11.89136149190086,0.0,-0.3793794681218138,0.0,0.0,0.0,-28.24644175053902,-0.4929934105196967,-0.020718515081211697,0.0,0.0,0.0,0.0,0.0,-0.006788375268189899,-0.38894525261826957,0.0,0.0,11.897411773654596,0.0032241195008515604,0.03496256655692085,-0.03189296949667178,-1.8273325482987663,0.0,0.0,0.02510459422848188,1.4383872956804968,-4.913017810960079,0.0,-16.3618978139055,11.893662854281288,0.0,-0.298648322587802,0.0,-1.29702391940571,0.0,0.0,-0.4929934105196967,0.0,-0.06351855138861745,0.3490658503988659,1.0,0.14,0.14,0.75,0.08726646259971647,5.0,0.184,0.175,0.174,0.0,0.0,0.0,-0.012391668379913054,0.0,0.002115745775020403,0.0,6.078332642364208,0.0,-0.5198720023886064,0.0,0.15587746801645722,0.0,-3.7620700812386185,0.0,-0.03211352341992878,0.0,-0.007425680788431673,0.48092192282265245,-0.01666045108429231,0.09385724002401945,0.0,0.0,0.0,0.46329115910993024,0.09385724002401945,0.0,0.0,-0.005748220284231841,0.0,0.0,-0.0029005921113696375,0.0,1.1392183545723849,0.0,5.623325295247105,0.0,-0.009767887137044403,0.0,86.6984151584776,-1.3179531590843576,0.0,-5.584138725535041,0.0,-0.009767887137044403,0.0
sim_raptor_glider_3dof,raptor_glider_3dof,0.02,-14.761197891205384,0.0,-0.003527987070613454,11.886444318787518,0.0,-0.39560735973590916,0.0,0.0,0.0,-28.31760309205549,-0.4942354102292952,-0.02077837115259781,0.0,0.0,0.0,0.0,0.0,-0.007281998815359579,-0.4172277985393691,0.0,0.0,11.893025844027806,0.003527987070613454,0.0349496777572888,-0.03326994800306241,-1.9062276051951774,0.0,0.0,0.025987949187702832,1.4889998066558083,-4.9211899346981545,0.0,-16.09439731619816,11.889009952791644,0.0,-0.3090405622803138,0.0,-1.1873697564663508,0.0,0.0,-0.4942354102292952,0.0,-0.06351855138861745,0.3490658503988659,1.0,0.14,0.14,0.75,0.08726646259971647,5.0,0.184,0.175,0.174,0.0,0.0,0.0,-0.012457056741621767,0.0,0.0021039361794838824,0.0,6.0784599365813605,0.0,-0.5200317256637271,0.0,0.15427740988270164,0.0,-3.761347129285536,0.0,-0.03169499343282389,0.0,-0.007290349062928852,0.4751051760142044,-0.01620778436756494,0.09360151092977785,0.0,0.0,0.0,0.4574231064904167,0.09360151092977785,0.0,0.0,-0.0052661310315174955,0.0,0.0,-0.0029089719613636937,0.0,1.1352768786214191,0.0,5.548007413420348,0.0,-0.008942081635948089,0.0,86.63450494581465,-1.3191964916680448,0.0,-5.507173546100599,0.0,-0.008942081635948089,0.0
sim_raptor_glider_3dof,raptor_glider_3dof,0.02,-14.761197891205384,0.0,-0.003527987070613454,11.886444318787518,0.0,-0.39560735973590916,0.0,0.0,0.0,-28.31760309205549,-0.4942354102292952,-0.02077837115259781,0.0,0.0,0.0,0.0,0.0,-0.007281998815359579,-0.4172277985393691,0.0,0.0,11.893025844027806,0.003527987070613454,0.0349496777572888,-0.03326994800306241,-1.9062276051951774,0.0,0.0,0.025987949187702832,1.4889998066558083,-4.924373045963565,0.0,-16.083843353727456,11.889009952791644,0.0,-0.3090405622803138,0.0,-1.066487016459699,0.0,0.0,-0.4942354102292952,0.0,-0.06444283280882845,0.3490658503988659,1.0,0.14,0.14,0.75,0.08726646259971647,5.0,0.184,0.175,0.174,0.0,0.0,0.0,-0.012510611681942022,0.0,0.0021430631060357095,0.0,6.078275629936612,0.0,-0.5200498254348134,0.0,0.15427365520015007,0.0,-3.7606749213891146,0.0,-0.03167823156350636,0.0,-0.007306266585270326,0.4748678803721794,-0.015669699101416582,0.093681602249701,0.0,0.0,0.0,0.4571863469912536,0.093681602249701,0.0,0.0,-0.004730001199292035,0.0,0.0,-0.0029089719613636937,0.0,1.1362482926806987,0.0,5.545135797540178,0.0,-0.008031713720957992,0.0,86.63450494581465,-1.3200718472660327,0.0,-5.504271206421155,0.0,-0.008031713720957992,0.0
sim_raptor_glider_3dof,raptor_glider_3dof,0.021,-14.749311212484335,0.0,-0.003842100499583846,11.881516264014307,0.0,-0.4115580747464684,0.0,0.0,0.0,-28.375647020587778,-0.4952484678929759,-0.020828639115522764,0.0,0.0,0.0,0.0,0.0,-0.007776745339917365,-0.4455746863252958,0.0,0.0,11.88864200743405,0.003842100499583846,0.03493679510839005,-0.03462467117354946,-1.9838475252726673,0.0,0.0,0.026847925833632096,1.5382728389473714,-4.9316673333396635,0.0,-15.818348969804257,11.884357532111796,0.0,-0.31914703486500184,0.0,-0.9600061688861891,0.0,0.0,-0.4952484678929759,0.0,-0.06444283280882845,0.3490658503988659,1.0,0.14,0.14,0.75,0.08726646259971647,5.0,0.184,0.175,0.174,0.0,0.0,0.0,-0.012575082806043275,0.0,0.0021312681805281436,0.0,6.078389307993216,0.0,-0.5202048763507499,0.0,0.15269877408838994,0.0,-3.7599492663252145,0.0,-0.03126672874204604,0.0,-0.00717443806329148,0.469138829185039,-0.015224933817896847,0.09343411409717796,0.0,0.0,0.0,0.451414188363061,0.09343411409717796,0.0,0.0,-0.004260886127362097,0.0,0.0,-0.0029160094761731875,0.0,1.132411262578072,0.0,5.471090681698979,0.0,-0.0072298064578818905,0.0,86.5706487797904,-1.3211293915466857,0.0,-5.4286099183657095,0.0,-0.0072298064578818905,0.0
sim_raptor_glider_3dof,raptor_glider_3dof,0.022,-14.737429179322545,0.0,-0.004166180498121135,11.876581302988491,0.0,-0.4272450510213189,0.0,0.0,0.0,-28.427659738752062,-0.49615626107785454,-0.02087450585746124,0.0,0.0,0.0,0.0,0.0,-0.008272453508837374,-0.4739766722745704,0.0,0.0,11.884263619598734,0.004166180498121135,0.034923928471594035,-0.035958234310146026,-2.0602550647138784,0.0,0.0,0.02768578080130865,1.5862783924393082,-4.938168381062662,0.0,-15.555947562431331,11.87970925187965,0.0,-0.32898308607448135,0.0,-0.8558351138292731,0.0,0.0,-0.49615626107785454,0.0,-0.06444283280882845,0.3490658503988659,1.0,0.14,0.14,0.75,0.08726646259971647,5.0,0.184,0.175,0.174,0.0,0.0,0.0,-0.012638481615505995,0.0,0.0021194738413611576,0.0,6.0784927870452465,0.0,-0.5203553431066138,0.0,0.15114781946751077,0.0,-3.759228210674758,0.0,-0.030861919629328112,0.0,-0.007045938226884144,0.4634932544172656,-0.014787417688280525,0.09319423246383444,0.0,0.0,0.0,0.4457292797569859,0.09319423246383444,0.0,0.0,-0.003801333305823598,0.0,0.0,-0.0029224308200445736,0.0,1.1286721217934002,0.0,5.398211870289191,0.0,-0.006445294242248256,0.0,86.50689548008548,-1.3220108563505524,0.0,-5.3541460057357435,0.0,-0.006445294242248256,0.0
sim_raptor_glider_3dof,raptor_glider_3dof,0.023,-14.72555179204659,0.0,-0.004499956696685637,11.871640244804695,0.0,-0.44267124830436017,0.0,0.0,0.0,-28.473772354096663,-0.4969610780423235,-0.020916062953088028,0.0,0.0,0.0,0.0,0.0,-0.008769015345644837,-0.502427569790902,0.0,0.0,11.879890569198936,0.004499956696685637,0.03491107751975943,-0.03727086115565793,-2.1354630430372814,0.0,0.0,0.028501845810013096,1.6330354732463797,-4.943901982939521,0.0,-15.296637156040246,11.875065550321722,0.0,-0.33855296735378154,0.0,-0.7539379942351716,0.0,0.0,-0.4969610780423235,0.0,-0.06444283280882845,0.3490658503988659,1.0,0.14,0.14,0.75,0.08726646259971647,5.0,0.184,0.175,0.174,0.0,0.0,0.0,-0.012700825424111214,0.0,0.00210768888446826,0.0,6.078586484837354,0.0,-0.5205013563463832,0.0,0.1496205684068511,0.0,-3.758511947528883,0.0,-0.03046372002271921,0.0,-0.006920691570010425,0.4579307754490363,-0.01435706436672549,0.09296176247197838,0.0,0.0,0.0,0.4401311617874656,0.09296176247197838,0.0,0.0,-0.003351206216102822,0.0,0.0,-0.0029282488134323246,0.0,1.1250282756417136,0.0,5.326491116723324,0.0,-0.005677907034585077,0.0,86.4432433389583,-1.3227239202114118,0.0,-5.280870919500533,0.0,-0.005677907034585077,0.0
sim_raptor_glider_3dof,raptor_glider_3dof,0.024,-14.713679046406236,0.0,-0.004843190851246829,11.866693769374221,0.0,-0.4578394524722523,0.0,0.0,0.0,-28.514101460192627,-0.49766495372808417,-0.02095339164438634,0.0,0.0,0.0,0.0,0.0,-0.009266338913917095,-0.5309221113052887,0.0,0.0,11.875522640302828,0.004843190851246829,0.03489824161833385,-0.038562761447800506,-2.209483477328769,0.0,0.0,0.029296422533883412,1.6785613660234806,-4.948892941886281,0.0,-15.04041389526602,11.870426740792018,0.0,-0.34786056378216856,0.0,-0.6542813886866611,0.0,0.0,-0.49766495372808417,0.0,-0.06444283280882845,0.3490658503988659,1.0,0.14,0.14,0.75,0.08726646259971647,5.0,0.184,0.175,0.174,0.0,0.0,0.0,-0.01276213045277509,0.0,0.0020959217773828154,0.0,6.078670806063403,0.0,-0.5206430418176257,0.0,0.14811681281023895,0.0,-3.757800668552204,0.0,-0.030072050688608968,0.0,-0.00679862514051107,0.4524510357193225,-0.013933792398269501,0.09273651501855605,0.0,0.0,0.0,0.43461940790857834,0.09273651501855605,0.0,0.0,-0.0029103787201099386,0.0,0.0,-0.002933474830214088,0.0,1.1214771873540206,0.0,5.2559205082620695,0.0,-0.004927393138199245,0.0,86.379689129359,-1.323276001855944,0.0,-5.208776448825332,0.0,-0.004927393138199245,0.0
sim_raptor_glider_3dof,raptor_glider_3dof,0.025,-14.701810936850014,0.0,-0.005195597874181225,11.861742679861072,0.0,-0.4727530369064892,0.0,0.0,0.0,-28.548786633877164,-0.49827032421050543,-0.020986589890456743,0.0,0.0,0.0,0.0,0.0,-0.009764314760263832,-0.5594540256004118,0.0,0.0,11.871159793261231,0.005195597874181225,0.03488542065080147,-0.03983419419813584,-2.282331207857694,0.0,0.0,0.030069879437872003,1.7228771822572821,-4.953166522994607,0.0,-14.787267828985469,11.865793260256316,0.0,-0.3569105518163043,0.0,-0.5568265062097795,0.0,0.0,-0.49827032421050543,0.0,-0.06444283280882845,0.3490658503988659,1.0,0.14,0.14,0.75,0.08726646259971647,5.0,0.184,0.175,0.174,0.0,0.0,0.0,-0.012822414852199687,0.0,0.0020841800958368187,0.0,6.078746146588754,0.0,-0.5207805273490983,0.0,0.1466362857960135,0.0,-3.7570945291846187,0.0,-0.02968681815559325,0.0,-0.006679662581540313,0.4470534359631337,-0.013517504490741059,0.09251829580866584,0.0,0.0,0.0,0.42919333462340237,0.09251829580866584,0.0,0.0,-0.0024787002018263806,0.0,0.0,-0.0029381225846639445,0.0,1.118016298430415,0.0,5.186489213755248,0.0,-0.0041934604182658495,0.0,86.31623219249126,-1.3236743876935955,0.0,-5.137851391712255,0.0,-0.0041934604182658495,0.0
sim_raptor_glider_3dof,raptor_glider_3dof,0.026000000000000002,-14.689947457972446,0.0,-0.005556927825597902,11.856787665314426,0.0,-0.4874150100597133,0.0,0.0,0.0,-28.577950285656268,-0.4987793259559559,-0.02101574335342764,0.0,0.0,0.0,0.0,0.0,-0.010262847624704268,-0.5880178546814163,0.0,0.0,11.866801891511622,0.005556927825597902,0.03487261421585008,-0.04108538832604563,-2.3540193507384766,0.0,0.0,0.030822540701341362,1.7660014960570605,-4.956746816910838,0.0,-14.537189915566987,11.861165434708154,0.0,-0.3657070724888588,0.0,-0.4615384076286908,0.0,0.0,-0.4987793259559559,0.0,-0.06444283280882845,0.3490658503988659,1.0,0.14,0.14,0.75,0.08726646259971647,5.0,0.184,0.175,0.174,0.0,0.0,0.0,-0.012881694955169828,0.0,0.0020724712565617486,0.0,6.0788128882309795,0.0,-0.520913934150238,0.0,0.14517875410298653,0.0,-3.756393692274611,0.0,-0.02930793875826822,0.0,-0.006563731670084903,0.4417374723642158,-0.013108113526741903,0.09230691931715708,0.0,0.0,0.0,0.4238523643468559,0.09230691931715708,0.0,0.0,-0.002056036718763027,0.0,0.0,-0.00294220406947987,0.0,1.114643145641239,0.0,5.118187630764565,0.0,-0.0034758457478516708,0.0,86.25287046168846,-1.3239260855311747,0.0,-5.06808580095942,0.0,-0.0034758457478516708,0.0
sim_raptor_glider_3dof,raptor_glider_3dof,0.027,-14.678088603968252,0.0,-0.005926929191040827,11.851829407949557,0.0,-0.5018284350939494,0.0,0.0,0.0,-28.601715623653725,-0.4991941093518608,-0.021040938375100578,0.0,0.0,0.0,0.0,0.0,-0.010761842140794254,-0.6166081344535455,0.0,0.0,11.862448823636997,0.005926929191040827,0.03485982198606188,-0.04231657762587086,-2.4245613014001295,0.0,0.0,0.03155473548507661,1.8079531669465843,-4.959657469664074,0.0,-14.290169107480954,11.856543585604703,0.0,-0.37425432003216386,0.0,-0.3683819154872695,0.0,0.0,-0.4991941093518608,0.0,-0.06444283280882845,0.3490658503988659,1.0,0.14,0.14,0.75,0.08726646259971647,5.0,0.184,0.175,0.174,0.0,0.0,0.0,-0.012939986956638085,0.0,0.002060802217948523,0.0,6.078871401460134,0.0,-0.5210433807662241,0.0,0.14374397744865652,0.0,-3.7556983091319105,0.0,-0.028935328005114447,0.0,-0.006450760981482683,0.43650258997135905,-0.012705531099171576,0.09210220260611171,0.0,0.0,0.0,0.4185958677745993,0.09210220260611171,0.0,0.0,-0.0016422527642636214,0.0,0.0,-0.002945731372514081,0.0,1.1113553091099697,0.0,5.051005587915499,0.0,-0.0027742842055346268,0.0,86.18960223869378,-1.3240378945811389,0.0,-4.9994691444146016,0.0,-0.0027742842055346268,0.0
sim_raptor_glider_3dof,raptor_glider_3dof,0.028,-14.666234368709942,0.0,-0.0063053547575818904,11.846868565917053,0.0,-0.5159963630770904,0.0,0.0,0.0,-28.620203791258827,-0.49951678874923044,-0.021062259906868275,0.0,0.0,0.0,0.0,0.0,-0.011261205140609406,-0.6452195267879457,0.0,0.0,11.85810048299568,0.0063053547575818904,0.03484704364805219,-0.04352799520642341,-2.49397041599374,0.0,0.0,0.03226679006581401,1.8487508892057947,-4.961921568296806,0.0,-14.046192898061395,11.851928013152273,0.0,-0.3825564479638485,0.0,-0.2773222614860516,0.0,0.0,-0.49951678874923044,0.0,-0.06444283280882845,0.3490658503988659,1.0,0.14,0.14,0.75,0.08726646259971647,5.0,0.184,0.175,0.174,0.0,0.0,0.0,-0.012997306668696144,0.0,0.002049179545757986,0.0,6.078922045282165,0.0,-0.521168982543792,0.0,0.14233171504646194,0.0,-3.7550085227571977,0.0,-0.0285689022393082,0.0,-0.006340680407997149,0.4313482078402344,-0.012309669330939296,0.09190396628198369,0.0,0.0,0.0,0.41342319079024903,0.09190396628198369,0.0,0.0,-0.0012372141667048326,0.0,0.0,-0.0029487163869615584,0.0,1.1081504198286398,0.0,4.9849326528023905,0.0,-0.0020885139512514545,0.0,86.12642589708146,-1.32401639845437,0.0,-4.931990620689154,0.0,-0.0020885139512514545,0.0
sim_raptor_glider_3dof,raptor_glider_3dof,0.029,-14.654384745764482,0.0,-0.006691961658876312,11.84190577335765,0.0,-0.529921831298806,0.0,0.0,0.0,-28.633533848980292,-0.4997494421459509,-0.021079791494251696,0.0,0.0,0.0,0.0,0.0,-0.01176084566183482,-0.6738468199278786,0.0,0.0,11.853756767049354,0.006691961658876312,0.03483427890049474,-0.0447198733537346,-2.562260003528543,0.0,0.0,0.032959027691899775,1.8884131836006641,-4.963561641920445,0.0,-13.80524741387896,11.847318996650104,0.0,-0.3906175674261316,0.0,-0.18832509523637017,0.0,0.0,-0.4997494421459509,0.0,-0.06444283280882845,0.3490658503988659,1.0,0.14,0.14,0.75,0.08726646259971647,5.0,0.184,0.175,0.174,0.0,0.0,0.0,-0.01305366953226136,0.0,0.0020376094293612485,0.0,6.078965167493094,0.0,-0.5212908516955701,0.0,0.14094172581065278,0.0,-3.754324468100659,0.0,-0.02820857865560206,0.0,-0.006233421161077565,0.42627372111777634,-0.011920440916927419,0.09171203449598515,0.0,0.0,0.0,0.4083336565653561,0.09171203449598515,0.0,0.0,-0.0008407881384213164,0.0,0.0,-0.0029511708091952376,0.0,1.1050261593299728,0.0,4.919958157283409,0.0,-0.001418276292225104,0.0,86.06333987236562,-1.3238679686868777,0.0,-4.865639185524136,0.0,-0.001418276292225104,0.0
sim_raptor_glider_3dof,raptor_glider_3dof,0.03,-14.642539728446328,0.0,-0.007086510892750552,11.83694164344635,0.0,-0.5436078631041386,0.0,0.0,0.0,-28.641823009857436,-0.49989411529548455,-0.021093615442752373,0.0,0.0,0.0,0.0,0.0,-0.012260674687014037,-0.7024849135487858,0.0,0.0,11.849417579745555,0.007086510892750552,0.03482152746112303,-0.04589244350994312,-2.629443324662287,0.0,0.0,0.033631768822929085,1.926958411113501,-4.964599671837245,0.0,-13.567317537970204,11.842716797715703,0.0,-0.3984417501785996,0.0,-0.10135646326797663,0.0,0.0,-0.49989411529548455,0.0,-0.06444283280882845,0.3490658503988659,1.0,0.14,0.14,0.75,0.08726646259971647,5.0,0.184,0.175,0.174,0.0,0.0,0.0,-0.01310909063352214,0.0,0.0020260976964174325,0.0,6.079001104936498,0.0,-0.5214090973755307,0.0,0.13957376842456173,0.0,-3.753646272254411,0.0,-0.02785427528286031,0.0,-0.006128915761997655,0.4212785025689385,-0.011537759127769633,0.09152623492258057,0.0,0.0,0.0,0.4033265669472349,0.09152623492258057,0.0,0.0,-0.00045284319126186016,0.0,0.0,-0.0029531061619853323,0.0,1.1019802596683133,0.0,4.856071216647308,0.0,-0.0007633155248711321,0.0,86.00034269646814,-1.323598769098626,0.0,-4.800403571814531,0.0,-0.0007633155248711321,0.0
sim_raptor_glider_3dof,raptor_glider_3dof,0.03,-14.642539728446328,0.0,-0.007086510892750552,11.83694164344635,0.0,-0.5436078631041386,0.0,0.0,0.0,-28.641823009857436,-0.49989411529548455,-0.021093615442752373,0.0,0.0,0.0,0.0,0.0,-0.012260674687014037,-0.7024849135487858,0.0,0.0,11.849417579745555,0.007086510892750552,0.03482152746112303,-0.04589244350994312,-2.629443324662287,0.0,0.0,0.033631768822929085,1.926958411113501,-4.967439116739541,0.0,-13.55793719355021,11.842716797715703,0.0,-0.3984417501785996,0.0,0.006000842607903786,0.0,0.0,-0.49989411529548455,0.0,-0.06527435397100906,0.3490658503988659,1.0,0.14,0.14,0.75,0.08726646259971647,5.0,0.184,0.175,0.174,0.0,0.0,0.0,-0.013153308074329352,0.0,0.0020611496475183054,0.0,6.078810380904075,0.0,-0.5214256887017162,0.0,0.13957042085337473,0.0,-3.7529739923165484,0.0,-0.027840682192699893,0.0,-0.006143350910636882,0.42106688899279326,-0.01105611989300961,0.09160084987183281,0.0,0.0,0.0,0.40311551659940503,0.09160084987183281,0.0,0.0,0.000026810729471081138,0.0,0.0,-0.0029531061619853323,0.0,1.1028786272371494,0.0,4.853530160333768,0.0,0.00004519234568012341,0.0,86.00034269646814,-1.3243796164467574,0.0,-4.797823977099031,0.0,0.00004519234568012341,0.0
sim_raptor_glider_3dof,raptor_glider_3dof,0.031,-14.630699321881727,0.0,-0.007488762499579054,11.831974004255255,0.0,-0.5570472872011412,0.0,0.0,0.0,-28.639053704018863,-0.49984578179060674,-0.021099300260069002,0.0,0.0,0.0,0.0,0.0,-0.012760544705225524,-0.7311253558974317,0.0,0.0,11.845079591017964,0.007488762499579054,0.034808779543971206,-0.047045088714942035,-2.695485030184716,0.0,0.0,0.03428454400971651,1.9643596742872846,-4.967833731020268,0.0,-13.322070935126886,11.83811874218774,0.0,-0.4060235995771888,0.0,0.0902475551235768,0.0,0.0,-0.49984578179060674,0.0,-0.06527435397100906,0.3490658503988659,1.0,0.14,0.14,0.75,0.08726646259971647,5.0,0.184,0.175,0.174,0.0,0.0,0.0,-0.013207904530252893,0.0,0.00204972015416913,0.0,6.078837300618109,0.0,-0.5215404319737954,0.0,0.1382252553968525,0.0,-3.752296675551791,0.0,-0.027492563212357646,0.0,-0.006041623724246094,0.4161541014187509,-0.010680410897598417,0.09142137229996976,0.0,0.0,0.0,0.3981978115374521,0.09142137229996976,0.0,0.0,0.0004035058935272177,0.0,0.0,-0.002953902036409661,0.0,1.0999119261065045,0.0,4.79081106354929,0.0,0.0006796543376356569,0.0,85.93738597715407,-1.3239959683342284,0.0,-4.733784064324471,0.0,0.0006796543376356569,0.0
sim_raptor_glider_3dof,raptor_glider_3dof,0.032,-14.618863498523117,0.0,-0.007898463028453259,11.827006253215293,0.0,-0.5702529242131475,0.0,0.0,0.0,-28.631525494826395,-0.49971438975341925,-0.021101474125432923,0.0,0.0,0.0,0.0,0.0,-0.013260324795899968,-0.7597606457777429,0.0,0.0,11.840745977816063,0.007898463028453259,0.034796044485045294,-0.048178856052995676,-2.760445113604972,0.0,0.0,0.03491853125709571,2.000684467827229,-4.96766813722643,0.0,-13.089203046120735,11.83352797784032,0.0,-0.41337744113301045,0.0,0.17253635522833946,0.0,0.0,-0.49971438975341925,0.0,-0.06527435397100906,0.3490658503988659,1.0,0.14,0.14,0.75,0.08726646259971647,5.0,0.184,0.175,0.174,0.0,0.0,0.0,-0.013261585018848264,0.0,0.002038359249348145,0.0,6.078857721920649,0.0,-0.5216517582524498,0.0,0.13690167428414943,0.0,-3.7516255677382127,0.0,-0.027150311459455692,0.0,-0.0059425207904959575,0.41131939909907367,-0.01031108401015793,0.09124769096944478,0.0,0.0,0.0,0.39336119884869214,0.09124769096944478,0.0,0.0,0.0007719921682737413,0.0,0.0,-0.00295420637756061,0.0,1.0970191788839778,0.0,4.729158346706109,0.0,0.0012993712912246246,0.0,85.87451577669634,-1.323503527074612,0.0,-4.670838057659503,0.0,0.0012993712912246246,0.0
sim_raptor_glider_3dof,raptor_glider_3dof,0.033,-14.607032262185575,0.0,-0.008315405119988495,11.822038937790209,0.0,-0.5832271861957544,0.0,0.0,0.0,-28.619337746033487,-0.4995016734085771,-0.021100206637569428,0.0,0.0,0.0,0.0,0.0,-0.013759932847527813,-0.7883860785467726,0.0,0.0,11.836416628242928,0.008315405119988495,0.03478332195551714,-0.04929392635703553,-2.824333935886825,0.0,0.0,0.035533993509507714,2.0359478573400525,-4.96696232594353,0.0,-12.859321860897285,11.828944701809721,0.0,-0.4205066454568872,0.0,0.25289550888712614,0.0,0.0,-0.4995016734085771,0.0,-0.06527435397100906,0.3490658503988659,1.0,0.14,0.14,0.75,0.08726646259971647,5.0,0.184,0.175,0.174,0.0,0.0,0.0,-0.013314361424220954,0.0,0.0020270722525494544,0.0,6.078871949585249,0.0,-0.5217597634351892,0.0,0.13559949191412882,0.0,-3.7509608012705344,0.0,-0.026813861814745595,0.0,-0.005845982575332682,0.40656230035580987,-0.009948069735766733,0.0910796509472558,0.0,0.0,0.0,0.3886051367594696,0.0910796509472558,0.0,0.0,0.0011323769837056456,0.0,0.0,-0.00295402892925972,0.0,1.0941983433192741,0.0,4.668563092032613,0.0,0.0019045560774289471,0.0,85.81173040294807,-1.322907838404973,0.0,-4.608976698780158,0.0,0.0019045560774289471,0.0
sim_raptor_glider_3dof,raptor_glider_3dof,0.034,-14.595205606231795,0.0,-0.008739392772952432,11.817072524806424,0.0,-0.5959726911448405,0.0,0.0,0.0,-28.602586935723462,-0.49920931661629014,-0.02109556546007871,0.0,0.0,0.0,0.0,0.0,-0.014259298084123762,-0.8169975990392723,0.0,0.0,11.832091383399863,0.008739392772952432,0.03477061148843593,-0.050390498385765106,-2.8871628850651283,0.0,0.0,0.036131200301641346,2.070165286025856,-4.965735787769518,0.0,-12.63241076075375,11.824369041042878,0.0,-0.42741465388073263,0.0,0.33135418675824163,0.0,0.0,-0.49920931661629014,0.0,-0.06527435397100906,0.3490658503988659,1.0,0.14,0.14,0.75,0.08726646259971647,5.0,0.184,0.175,0.174,0.0,0.0,0.0,-0.013366246226244743,0.0,0.002015864002561053,0.0,6.078880279492737,0.0,-0.5218645426831205,0.0,0.13431850075739357,0.0,-3.750302490863063,0.0,-0.02648314422382019,0.0,-0.005751949045858493,0.4018822264661663,-0.009591293009611552,0.09091709748908557,0.0,0.0,0.0,0.38392898810576337,0.09091709748908557,0.0,0.0,0.0014847722271421684,0.0,0.0,-0.00295337916441102,0.0,1.091447376802032,0.0,4.609015229468789,0.0,0.002495428380476318,0.0,85.7490274849457,-1.3222142655576803,0.0,-4.548189551652288,0.0,0.002495428380476318,0.0
sim_raptor_glider_3dof,raptor_glider_3dof,0.034999999999999996,-14.583383521747319,0.0,-0.009170171392985517,11.81210761027561,0.0,-0.608492870239171,0.0,0.0,0.0,-28.58139843999621,-0.49883950760230483,-0.021087639336943104,0.0,0.0,0.0,0.0,0.0,-0.01475832904242852,-0.8455899667965038,0.0,0.0,11.827770278876018,0.009170171392985517,0.034757913188386426,-0.05146883924356302,-2.9489472650934654,0.0,0.0,0.0367105102011345,2.1033572982969617,-4.964008616503824,0.0,-12.408445102363903,11.819801258230118,0.0,-0.4341059614939702,0.0,0.4079488006792259,0.0,0.0,-0.49883950760230483,0.0,-0.06527435397100906,0.3490658503988659,1.0,0.14,0.14,0.75,0.08726646259971647,5.0,0.184,0.175,0.174,0.0,0.0,0.0,-0.013417254897446409,0.0,0.0020047383366609507,0.0,6.078882998353862,0.0,-0.5219661950807539,0.0,0.13305841242813674,0.0,-3.749650702726112,0.0,-0.02615806849506159,0.0,-0.0056603554753091815,0.39727828728871456,-0.009240656822362157,0.09075986895803297,0.0,0.0,0.0,0.379331786375008,0.09075986895803297,0.0,0.0,0.0018293226098423342,0.0,0.0,-0.0029522695071720344,0.0,1.0887641959239847,0.0,4.550500922075651,0.0,0.0030722624179152502,0.0,85.6864074730953,-1.3214280327614185,0.0,-4.488462328055081,0.0,0.0030722624179152502,0.0
sim_raptor_glider_3dof,raptor_glider_3dof,0.036,-14.571566001039113,0.0,-0.009607534246108461,11.807144666026133,0.0,-0.6207905512640791,0.0,0.0,0.0,-28.555874192925245,-0.498394025451824,-0.02107650007697322,0.0,0.0,0.0,0.0,0.0,-0.015256952113017778,-0.8741589643091221,0.0,0.0,11.823453221162087,0.009607534246108461,0.03474522678057564,-0.05252916590273205,-3.009699507569058,0.0,0.0,0.03727221378971427,2.1355405432599355,-4.961799581880339,0.0,-12.187404435097493,11.815241495334305,0.0,-0.4405842484003172,0.0,0.48270997017341566,0.0,0.0,-0.498394025451824,0.0,-0.06527435397100906,0.3490658503988659,1.0,0.14,0.14,0.75,0.08726646259971647,5.0,0.184,0.175,0.174,0.0,0.0,0.0,-0.013467400308889368,0.0,0.0019936993079112675,0.0,6.078880382788664,0.0,-0.5220648123166417,0.0,0.13181899610813874,0.0,-3.749005525658745,0.0,-0.02583856001863169,0.0,-0.005571142625944764,0.3927497879408701,-0.00889608077562314,0.09060781447498084,0.0,0.0,0.0,0.3748127747410642,0.09060781447498084,0.0,0.0,0.0021661473593936,0.0,0.0,-0.002950710010776251,0.0,1.0861468285087885,0.0,4.493008786587576,0.0,0.0036352887853759934,0.0,85.62386894728455,-1.3205541428677634,0.0,-4.429783250361991,0.0,0.0036352887853759934,0.0
sim_raptor_glider_3dof,raptor_glider_3dof,0.037,-14.559753036022238,0.0,-0.010051270451890427,11.802184164072745,0.0,-0.6328686449156488,0.0,0.0,0.0,-28.526118230398723,-0.4978746859336361,-0.021062221101978716,0.0,0.0,0.0,0.0,0.0,-0.015755092623617996,-0.9027003131710064,0.0,0.0,11.819140144883928,0.010051270451890427,0.034732552072890555,-0.05357170259792552,-3.0694324601911602,0.0,0.0,0.037816609974307525,2.1667321470201535,-4.959127082508539,0.0,-11.969266695361096,11.810689899548182,0.0,-0.44685328813535863,0.0,0.555668650466333,0.0,0.0,-0.4978746859336361,0.0,-0.06527435397100906,0.3490658503988659,1.0,0.14,0.14,0.75,0.08726646259971647,5.0,0.184,0.175,0.174,0.0,0.0,0.0,-0.013516694970926,0.0,0.001982750418344823,0.0,6.078872699239953,0.0,-0.5221604830445893,0.0,0.13060001263942497,0.0,-3.7483670378220024,0.0,-0.025524542397017534,0.0,-0.005484250707769925,0.3882959850088974,-0.008557483330500716,0.09046078524491613,0.0,0.0,0.0,0.370371146490993,0.09046078524491613,0.0,0.0,0.0024953676145759284,0.0,0.0,-0.0029487109542770205,0.0,1.0835933382941656,0.0,4.436526898892549,0.0,0.0041847406066619535,0.0,85.56141089679386,-1.3195974252742262,0.0,-4.372139988907293,0.0,0.0041847406066619535,0.0
sim_raptor_glider_3dof,raptor_glider_3dof,0.038,-14.54794461846949,0.0,-0.010501172404357668,11.79722655997819,0.0,-0.6447300441753335,0.0,0.0,0.0,-28.49223306699507,-0.49728327826466606,-0.021044874812798896,0.0,0.0,0.0,0.0,0.0,-0.01625267750320496,-0.9312098267208647,0.0,0.0,11.814830990637029,0.010501172404357668,0.03471988889076091,-0.05459667240556637,-3.1281589042973166,0.0,0.0,0.038343994902361414,2.196949077576452,-4.956009017427681,0.0,-11.754009140226708,11.806146606545378,0.0,-0.45291681584397786,0.0,0.6268549409427341,0.0,0.0,-0.49728327826466606,0.0,-0.06527435397100906,0.3490658503988659,1.0,0.14,0.14,0.75,0.08726646259971647,5.0,0.184,0.175,0.174,0.0,0.0,0.0,-0.013565149995352164,0.0,0.0019718944542745486,0.0,6.0788602028052106,0.0,-0.5222532904744678,0.0,0.12940122584484734,0.0,-3.7477353131128415,0.0,-0.02521593992053084,0.0,-0.005399618663567277,0.3839161235324498,-0.008224785791431603,0.09031863575023812,0.0,0.0,0.0,0.36600608425629405,0.09031863575023812,0.0,0.0,0.0028171010780035574,0.0,0.0,-0.0029462824737918458,0.0,1.0811018349907906,0.0,4.381043247835264,0.0,0.0047208445602397306,0.0,85.49903239874361,-1.3185625338907558,0.0,-4.315520126386042,0.0,0.0047208445602397306,0.0
sim_raptor_glider_3dof,raptor_glider_3dof,0.039,-14.53614074000577,0.0,-0.010957036707088598,11.792272289261327,0.0,-0.6563776160284298,0.0,0.0,0.0,-28.454319276613653,-0.49662155779059936,-0.02102453228544226,0.0,0.0,0.0,0.0,0.0,-0.016749635693856218,-0.9596834336396395,0.0,0.0,11.81052570036168,0.010957036707088598,0.03470723706356837,-0.05560429656190744,-3.18589151579109,0.0,0.0,0.03885466086805123,2.2262080821514507,-4.952462780421314,0.0,-11.541608427652,11.801611737081657,0.0,-0.4587785152774777,0.0,0.6962984845809432,0.0,0.0,-0.49662155779059936,0.0,-0.06527435397100906,0.3490658503988659,1.0,0.14,0.14,0.75,0.08726646259971647,5.0,0.184,0.175,0.174,0.0,0.0,0.0,-0.013612776204382327,0.0,0.0019611339567611377,0.0,6.078843139752471,0.0,-0.5223433152637526,0.0,0.12822240084447953,0.0,-3.74711041972776,0.0,-0.024912677835542078,0.0,-0.005317186676295093,0.37960944078572467,-0.007897910360746462,0.09018122385079504,0.0,0.0,0.0,0.3617167640467436,0.09018122385079504,0.0,0.0,0.003131463798789213,0.0,0.0,-0.0029434345199619164,0.0,1.0786704744569915,0.0,4.326545780071588,0.0,0.005243823887379084,0.0,85.43673255102202,-1.3174539512215198,0.0,-4.259911203996082,0.0,0.005243823887379084,0.0
sim_raptor_glider_3dof,raptor_glider_3dof,0.04,-14.52434139215235,0.0,-0.01141866334155101,11.78732177166739,0.0,-0.6678142055017241,0.0,0.0,0.0,-28.412475876567736,-0.495891252689569,-0.021001263545290336,0.0,0.0,0.0,0.0,0.0,-0.017245897742064434,-0.9881171545344881,0.0,0.0,11.806224221227291,0.01141866334155101,0.03469459643606127,-0.05659479478583845,-3.242642883637541,0.0,0.0,0.03934889704377401,2.2545257291030527,-4.948505281875696,0.0,-11.33204067761057,11.797085401268541,0.0,-0.4644420276747181,0.0,0.764028605499485,0.0,0.0,-0.495891252689569,0.0,-0.06527435397100906,0.3490658503988659,1.0,0.14,0.14,0.75,0.08726646259971647,5.0,0.184,0.175,0.174,0.0,0.0,0.0,-0.01365958434260111,0.0,0.001950471302833502,0.0,6.078821748124124,0.0,-0.5224306360874476,0.0,0.12706330329807541,0.0,-3.746492419803067,0.0,-0.024614682243384905,0.0,-0.005236896529071899,0.3753751657959956,-0.007576779673990247,0.09004841070104565,0.0,0.0,0.0,0.35750235453518797,0.09004841070104565,0.0,0.0,0.0034385707810300975,0.0,0.0,-0.0029401768963406476,0.0,1.0762974582450036,0.0,4.273022394368131,0.0,0.005753899428016622,0.0,85.37451052842445,-1.316275993624334,0.0,-4.205300715763913,0.0,0.005753899428016622,0.0
sim_raptor_glider_3dof,raptor_glider_3dof,0.04,-14.52434139215235,0.0,-0.01141866334155101,11.78732177166739,0.0,-0.6678142055017241,0.0,0.0,0.0,-28.412475876567736,-0.495891252689569,-0.021001263545290336,0.0,0.0,0.0,0.0,0.0,-0.017245897742064434,-0.9881171545344881,0.0,0.0,11.806224221227291,0.01141866334155101,0.03469459643606127,-0.05659479478583845,-3.242642883637541,0.0,0.0,0.03934889704377401,2.2545257291030527,-4.95095797300924,0.0,-11.32400464468129,11.797085401268541,0.0,-0.4644420276747181,0.0,0.8560626179694136,0.0,0.0,-0.495891252689569,0.0,-0.06599600041056525,0.3490658503988659,1.0,0.14,0.14,0.75,0.08726646259971647,5.0,0.184,0.175,0.174,0.0,0.0,0.0,-0.013694478916568865,0.0,0.001980775627230734,0.0,6.078638471307228,0.0,-0.5224450744102166,0.0,0.12706041436379245,0.0,-3.7458604357494947,0.0,-0.024604092568556994,0.0,-0.005249576418517576,0.3751932229521842,-0.007160715223367926,0.09011520989252152,0.0,0.0,0.0,0.3573209505576393,0.09011520989252152,0.0,0.0,0.0038527770867392494,0.0,0.0,-0.0029401768963406476,0.0,1.0770958710036362,0.0,4.270854175757374,0.0,0.006447007575927655,0.0,85.37451052842445,-1.3169504836860586,0.0,-4.203090806708361,0.0,0.006447007575927655,0.0
sim_raptor_glider_3dof,raptor_glider_3dof,0.041,-14.512546587292483,0.0,-0.01188586094212524,11.782373037999829,0.0,-0.6790334883318132,0.0,0.0,0.0,-28.361535436569973,-0.4950021742891934,-0.020971249716023006,0.0,0.0,0.0,0.0,0.0,-0.01774134071019658,-1.0165039455978946,0.0,0.0,11.801923609516432,0.01188586094212524,0.03468195835762565,-0.05756762306181851,-3.2983818380421863,0.0,0.0,0.03982628235162193,2.281877892444292,-4.946544695185382,0.0,-11.116453071896586,11.79256513772695,0.0,-0.46990249768262954,0.0,0.9214913150100218,0.0,0.0,-0.4950021742891934,0.0,-0.06599600041056525,0.3490658503988659,1.0,0.14,0.14,0.75,0.08726646259971647,5.0,0.184,0.175,0.174,0.0,0.0,0.0,-0.013740537699510978,0.0,0.0019702259775453406,0.0,6.07861146529872,0.0,-0.5225297656949073,0.0,0.12592171140625777,0.0,-3.7452458346445305,0.0,-0.024311510797534852,0.0,-0.005171449036863491,0.3710340095339815,-0.0068456808552374016,0.08998713737375387,0.0,0.0,0.0,0.3531873584788171,0.08998713737375387,0.0,0.0,0.004150267135234165,0.0,0.0,-0.0029359749602432214,0.0,1.0747816511004507,0.0,4.218372796070138,0.0,0.006939751093340474,0.0,85.31232371231941,-1.3157087993639922,0.0,-4.149546360681246,0.0,0.006939751093340474,0.0
sim_raptor_glider_3dof,raptor_glider_3dof,0.042,-14.500756277931474,0.0,-0.012358398755645716,11.777428889179129,0.0,-0.6900475613612082,0.0,0.0,0.0,-28.306910717406932,-0.4940487930868211,-0.020938482105550788,0.0,0.0,0.0,0.0,0.0,-0.01823586619817473,-1.04483816892069,0.0,0.0,11.79762674763919,0.012358398755645716,0.03466933129871342,-0.05852377256982533,-3.353165169434487,0.0,0.0,0.0402879063716506,2.3083270005137972,-4.9417527548685545,0.0,-10.911693030669817,11.78805358777856,0.0,-0.47517311400447976,0.0,0.9852709430396287,0.0,0.0,-0.4940487930868211,0.0,-0.06599600041056525,0.3490658503988659,1.0,0.14,0.14,0.75,0.08726646259971647,5.0,0.184,0.175,0.174,0.0,0.0,0.0,-0.013785798913919315,0.0,0.0019597778799088695,0.0,6.078580616365974,0.0,-0.5226119058749583,0.0,0.12480225490227706,0.0,-3.744638302045334,0.0,-0.024024046193153684,0.0,-0.005095349610883741,0.3669455884015596,-0.006536231287062959,0.08986338858586572,0.0,0.0,0.0,0.3491269131967499,0.08986338858586572,0.0,0.0,0.004440754604016126,0.0,0.0,-0.0029313874947771105,0.0,1.0725222318821006,0.0,4.166840156423635,0.0,0.007420075472031444,0.0,85.25021374585798,-1.3144060698208029,0.0,-4.096974189653156,0.0,0.007420075472031444,0.0
sim_raptor_glider_3dof,raptor_glider_3dof,0.043000000000000003,-14.488970475729271,0.0,-0.012836113639781651,11.772489713960665,0.0,-0.7008582622566747,0.0,0.0,0.0,-28.248678292860546,-0.4930324455470675,-0.02090301453763187,0.0,0.0,0.0,0.0,0.0,-0.018729406849305776,-1.0731159652486375,0.0,0.0,11.7933335562547,0.012836113639781651,0.03465671502616797,-0.05946337869966841,-3.4070006350791173,0.0,0.0,0.040733971850362635,2.3338846698304794,-4.936597196435408,0.0,-10.709711080414433,11.783550826578349,0.0,-0.4802564799436045,0.0,1.0474226283820136,0.0,0.0,-0.4930324455470675,0.0,-0.06599600041056525,0.3490658503988659,1.0,0.14,0.14,0.75,0.08726646259971647,5.0,0.184,0.175,0.174,0.0,0.0,0.0,-0.013830269291456532,0.0,0.00194943416327316,0.0,6.078546141488946,0.0,-0.5226915611432028,0.0,0.1237019058649831,0.0,-3.744037932860829,0.0,-0.02374165133759871,0.0,-0.005021230770853733,0.3629275096744956,-0.006232316361742869,0.08974384450065473,0.0,0.0,0.0,0.3451391183036463,0.08974384450065473,0.0,0.0,0.004724318745862043,0.0,0.0,-0.002926422035268462,0.0,1.0703160618479877,0.0,4.116248239061682,0.0,0.007888139814344945,0.0,85.18817942360215,-1.3130461665290118,0.0,-4.045365966435132,0.0,0.007888139814344945,0.0
