name,vehicle,t,north,east,down,u,v,w,p_rad,p_deg,p_hat_div_b,q_deg,q_rad,q_hat_div_c,r_rad,r_deg,r_hat_div_b,phi_rad,phi_deg,theta_rad,theta_deg,psi_rad,psi_deg,speed,altitude,mach,alpha_rad,alpha_deg,beta_rad,beta_deg,gamma_rad,gamma_deg,u_dot,v_dot,w_dot,north_dot,east_dot,down_dot,p_rad_dot,q_rad_dot,r_rad_dot,phi_rad_dot,theta_rad_dot,psi_rad_dot,del_tail_alt_rad,del_tail_splay_rad,DIM_b,DIM_c_bar,DIM_S,DIM_wing_position,DIM_wing_incidence_rad,DIM_wing_incidence_deg,DIM_empennage_length,DIM_nose_length,DIM_tail_length,CDp,CDq,CDr,CYp,CYq,CYr,CLp,CLq,CLr,Clp,Clq,Clr,Cmp,Cmq,Cmr,Cnp,Cnq,Cnr,CL_0,Cm_0,CD_0,Cl_0,CY_0,Cn_0,CL,CD,CY,Cl,Cm,Cn,p_hat,q_hat,r_hat,drag_force_wind,side_force_wind,lift_force_wind,roll_moment_wind,pitch_moment_wind,yaw_moment_wind,qbar,X_total,Y_total,Z_total,L_total,M_total,N_total
sim_raptor_glider_3dof,raptor_glider_3dof,0.0,-15.0,0.0,0.0,12.0,0.0,0.0,0.0,0.0,0.0,0.0,0.0,0.0,0.0,0.0,0.0,0.0,0.0,0.0,0.0,0.0,0.0,12.0,-0.0,0.035264039495724236,0.0,0.0,0.0,0.0,0.0,0.0,-10.779100061558605,0.0,-28.742355564435968,12.0,0.0,0.0,0.0,-132.8349689688793,0.0,0.0,0.0,0.0,0.4363323129985824,0.6108652381980153,1.0,0.14,0.14,0.75,0.08726646259971647,5.0,0.184,0.175,0.174,0.0,0.0,0.0,-0.3024317815595607,0.0,0.0852532024492907,0.0,7.33005651232117,0.0,-0.5595621061845162,0.0,0.20649708952411758,0.0,-5.995098195510987,0.0,0.03308667554778354,0.0,-0.0345475477778499,0.8585175399263748,-0.5786824746360089,0.2400592786239603,0.0,0.0,0.0,0.8585175399263748,0.2400592786239603,0.0,0.0,-0.5786824746360089,0.0,0.0,0.0,0.0,2.9642525169286165,0.0,10.600976530219892,0.0,-1.0003801513046302,0.0,88.20001620075907,-2.9642525169286165,0.0,-10.600976530219892,0.0,-1.0003801513046302,0.0
sim_raptor_glider_3dof,raptor_glider_3dof,0.001,-14.98800539486409,0.0,-0.000014239928150024689,11.989203329364585,0.0,-0.02914129276881495,0.0,0.0,0.0,-7.566095614276913,-0.13205327998983502,-0.005507158661071997,0.0,0.0,0.0,0.0,0.0,-0.00006615697397570378,-0.003790515394164649,0.0,0.0,11.989238745132699,0.000014239928150024689,0.03523241571933556,-0.0024306231681957293,-0.1392644491243321,0.0,0.0,0.0023644661942200254,0.13547393373016747,-10.814980018444555,0.0,-29.534909995738907,11.989205231027487,0.0,-0.02834812329297133,0.0,-131.2719689290965,0.0,0.0,-0.13205327998983502,0.0,0.4363323129985824,0.6108652381980153,1.0,0.14,0.14,0.75,0.08726646259971647,5.0,0.184,0.175,0.174,0.0,0.0,0.0,-0.3044380371666877,0.0,0.08464439771670837,0.0,7.327927165673367,0.0,-0.5605379965738345,0.0,0.20357242360164482,0.0,-5.988855088718713,0.0,0.034282649469979484,0.0,-0.03399326086232219,0.8486528294716064,-0.5775178998668075,0.23917122996071302,0.0,0.0,0.0,0.8430029814134664,0.23917122996071302,0.0,0.0,-0.5729004793427636,0.0,0.0,-0.0007710022125500797,0.0,2.9479924195633664,0.0,10.390741391782104,0.0,-0.9886091980050257,0.0,88.04189665548738,-2.973239663195905,0.0,-10.383545246296933,0.0,-0.9886091980050257,0.0
sim_raptor_glider_3dof,raptor_glider_3dof,0.002,-14.97602159842358,0.0,-0.000056431491468085584,11.978368585153119,0.0,-0.059059266348941944,0.0,0.0,0.0,-15.042704936386867,-0.262544729545955,-0.010958985630534332,0.0,0.0,0.0,0.0,0.0,-0.0002635860405793804,-0.01510236766376255,0.0,0.0,11.978514179927526,0.000056431491468085584,0.03520089976175475,-0.00493045337215955,-0.2824941693107868,0.0,0.0,0.0046668673315801695,0.26739180164702425,-10.855226500779768,0.0,-30.29579418440903,11.978383736236962,0.0,-0.05590193358589358,0.0,-129.71134135340725,0.0,0.0,-0.262544729545955,0.0,0.4363323129985824,0.6108652381980153,1.0,0.14,0.14,0.75,0.08726646259971647,5.0,0.184,0.175,0.174,0.0,0.0,0.0,-0.3064956412635138,0.0,0.08400337099256082,0.0,7.325730306209036,0.0,-0.5615324029284862,0.0,0.2005380657966504,0.0,-5.9823937268020275,0.0,0.035570741481510966,0.0,-0.03345849167713382,0.8384550199658897,-0.5762821967447832,0.23825829815769872,0.0,0.0,0.0,0.8272154597236416,0.23825829815769872,0.0,0.0,-0.5671036613804321,0.0,0.0,-0.0015342579882748066,0.0,2.931488173731686,0.0,10.177913449641244,0.0,-0.97685611173251,0.0,87.8844573425155,-2.981634066863078,0.0,-10.16333623336542,0.0,-0.97685611173251,0.0
sim_raptor_glider_3dof,raptor_glider_3dof,0.003,-14.964048634024827,0.0,-0.00012577622045863583,11.967491467456625,0.0,-0.08972247522216092,0.0,0.0,0.0,-22.429971055964497,-0.3914768460536098,-0.016355384316110954,0.0,0.0,0.0,0.0,0.0,-0.000590726659208764,-0.03384614441852506,0.0,0.0,11.967827795644752,0.00012577622045863583,0.035169496005303565,-0.007497042675138883,-0.4295489041149263,0.0,0.0,0.006906316015930119,0.39570275969640123,-10.899700995929967,0.0,-31.025462569443114,11.967542380835788,0.0,-0.0826529437249549,0.0,-128.153356202033,0.0,0.0,-0.3914768460536098,0.0,0.4363323129985824,0.6108652381980153,1.0,0.14,0.14,0.75,0.08726646259971647,5.0,0.184,0.175,0.174,0.0,0.0,0.0,-0.3086020165217676,0.0,0.08333074427780962,0.0,7.3234642980274804,0.0,-0.5625430410103436,0.0,0.19739764788369984,0.0,-5.975719361899775,0.0,0.03694820459382027,0.0,-0.03294511578331399,0.8279304032151751,-0.5749760536892732,0.2373206873409218,0.0,0.0,0.0,0.8111614729784371,0.2373206873409218,0.0,0.0,-0.5612931275471997,0.0,0.0,-0.0022897538042555335,0.0,2.9147443493905083,0.0,9.962588370607227,0.0,-0.9651229255575106,0.0,87.72771867855833,-2.9893516877305073,0.0,-9.940456636972218,0.0,-0.9651229255575106,0.0
sim_raptor_glider_3dof,raptor_glider_3dof,0.004,-14.952086518049361,0.0,-0.00022146713146720877,11.956567826772272,0.0,-0.12109993691634943,0.0,0.0,0.0,-29.72805541244732,-0.5188524471625265,-0.021696269533393077,0.0,0.0,0.0,0.0,0.0,-0.0010460208980095954,-0.05993258273843415,0.0,0.0,11.957181080460686,0.00022146713146720877,0.035138208823241014,-0.010127973010315693,-0.5802901085134966,0.0,0.0,0.009081952112306097,0.5203575257750624,-10.948245550040017,0.0,-31.724372531633342,11.956687958617081,0.0,-0.10859305313048898,0.0,-126.59837740143017,0.0,0.0,-0.5188524471625265,0.0,0.4363323129985824,0.6108652381980153,1.0,0.14,0.14,0.75,0.08726646259971647,5.0,0.184,0.175,0.174,0.0,0.0,0.0,-0.3107546074733051,0.0,0.082627350671427,0.0,7.321126988413349,0.0,-0.5635675703450943,0.0,0.19415525840986914,0.0,-5.968837598324044,0.0,0.03841121822814562,0.0,-0.03245469290625979,0.8170853288764246,-0.5736006230004033,0.23635848196611606,0.0,0.0,0.0,0.7948475686563906,0.23635848196611606,0.0,0.0,-0.5554704116936028,0.0,0.0,-0.0030374777346750307,0.0,2.8977640023693074,0.0,9.744861503017479,0.0,-0.9534123802101706,0.0,87.5717009622916,-2.9963093903568563,0.0,-9.715013739757591,0.0,-0.9534123802101706,0.0
sim_raptor_glider_3dof,raptor_glider_3dof,0.005,-14.940135260228624,0.0,-0.0003426894646750239,11.94559367911851,0.0,-0.15316112167152215,0.0,0.0,0.0,-36.937142881166054,-0.6446747595559322,-0.026981571347783416,0.0,0.0,0.0,0.0,0.0,-0.0016279138076716563,-0.09327259059065753,0.0,0.0,11.946575520867382,0.0003426894646750239,0.03510704258387664,-0.012820855436272626,-0.7345809062457793,0.0,0.0,0.01119294162860097,0.6413083156551217,-11.000684078536684,0.0,-32.392986066805065,11.945827183587642,0.0,-0.13371453042325188,0.0,-125.04686293774726,0.0,0.0,-0.6446747595559322,0.0,0.4363323129985824,0.6108652381980153,1.0,0.14,0.14,0.75,0.08726646259971647,5.0,0.184,0.175,0.174,0.0,0.0,0.0,-0.3129508810216347,0.0,0.08189423760613948,0.0,7.31871570951495,0.0,-0.5646035956894148,0.0,0.1908154490696245,0.0,-5.961754402659113,0.0,0.03995487580318525,0.0,-0.03198846001127823,0.8059262159350572,-0.5721575289412355,0.2353716488895487,0.0,0.0,0.0,0.7782803529223983,0.2353716488895487,0.0,0.0,-0.5496374786929723,0.0,0.0,-0.0037774199886896785,0.0,2.8805487130077863,0.0,9.524827988191094,0.0,-0.9417279247841747,0.0,87.41642439574731,-3.002425069363658,0.0,-9.487115093404098,0.0,-0.9417279247841747,0.0
sim_raptor_glider_3dof,raptor_glider_3dof,0.006,-14.928194863592637,0.0,-0.0004886208782471757,11.934565225590674,0.0,-0.18587596647831958,0.0,0.0,0.0,-44.05744730245485,-0.7689475154517311,-0.03221123924086439,0.0,0.0,0.0,0.0,0.0,-0.002334853919442332,-0.13377727536362394,0.0,0.0,11.936012608856965,0.0004886208782471757,0.03507600167168287,-0.015573331409482315,-0.8922861627218583,0.0,0.0,0.013238477490039983,0.7585088873582343,-11.056823768202486,0.0,-33.03177112341886,11.934966687543278,0.0,-0.15801001874763382,0.0,-123.49936405342734,0.0,0.0,-0.7689475154517311,0.0,0.4363323129985824,0.6108652381980153,1.0,0.14,0.14,0.75,0.08726646259971647,5.0,0.184,0.175,0.174,0.0,0.0,0.0,-0.3151883286081969,0.0,0.08113266807691978,0.0,7.316227281428784,0.0,-0.5656486697084402,0.0,0.18738323530193554,0.0,-5.954476105677233,0.0,0.04157318071485014,0.0,-0.03154732611275317,0.7944595549023822,-0.5706488715409134,0.23436003973825809,0.0,0.0,0.0,0.7614664902800123,0.23436003973825809,0.0,0.0,-0.5437967239257562,0.0,0.0,-0.004509573493721015,0.0,2.863098630763414,0.0,9.302582761667908,0.0,-0.9300737106863614,0.0,87.26190919020603,-3.0076177944949998,0.0,-9.256868531495805,0.0,-0.9300737106863614,0.0
sim_raptor_glider_3dof,raptor_glider_3dof,0.007,-14.916265324580014,0.0,-0.000658431846922711,11.923478867370353,0.0,-0.2192148795855598,0.0,0.0,0.0,-51.0892165685473,-0.8916750413855896,-0.03738524596641254,0.0,0.0,0.0,0.0,0.0,-0.003165293768040672,-0.18135797382779187,0.0,0.0,11.925493845709665,0.000658431846922711,0.03504509049842683,-0.01838307324843562,-1.0532725116152093,0.0,0.0,0.015217779480394947,0.8719145377874173,-11.116456487822859,0.0,-33.64120293943532,11.924113014581788,0.0,-0.1814725310902123,0.0,-121.95652383210188,0.0,0.0,-0.8916750413855896,0.0,0.4363323129985824,0.6108652381980153,1.0,0.14,0.14,0.75,0.08726646259971647,5.0,0.184,0.175,0.174,0.0,0.0,0.0,-0.3174644677094228,0.0,0.08034412064781016,0.0,7.313658019052537,0.0,-0.5667002957260814,0.0,0.18386409467400272,0.0,-5.947009403497592,0.0,0.04325904895453867,0.0,-0.031131869329350245,0.7826919124073973,-0.5690772276511937,0.23332339458615386,0.0,0.0,0.0,0.7444127058534867,0.23332339458615386,0.0,0.0,-0.5379509703471881,0.0,0.0,-0.005233934435297756,0.0,2.845412532524628,0.0,9.078220580336863,0.0,-0.9184545809795593,0.0,87.10817562194374,-3.01180795500553,0.0,-9.024382207534508,0.0,-0.9184545809795593,0.0
sim_raptor_glider_3dof,raptor_glider_3dof,0.008,-14.904346633135566,0.0,-0.0008512860644050707,11.912331221784493,0.0,-0.25314874907106316,0.0,0.0,0.0,-58.03273831681081,-1.0128623575766207,-0.042503591852397146,0.0,0.0,0.0,0.0,0.0,-0.0041176905850922214,-0.23592629186653885,0.0,0.0,11.91502074805822,0.0008512860644050707,0.03501431352099156,-0.021247784920916633,-1.2174083999702348,0.0,0.0,0.017130094335824412,0.9814821081036958,-11.179360242945373,0.0,-34.221765381480125,11.913272618176196,0.0,-0.20409544745330857,0.0,-120.41907505958375,0.0,0.0,-1.0128623575766207,0.0,0.4363323129985824,0.6108652381980153,1.0,0.14,0.14,0.75,0.08726646259971647,5.0,0.184,0.175,0.174,0.0,0.0,0.0,-0.3197768435893425,0.0,0.07953028799818115,0.0,7.311003741557072,0.0,-0.567755930968509,0.0,0.1802639618007342,0.0,-5.939361355153818,0.0,0.04500431867788742,0.0,-0.030742335884852708,0.7706299336442523,-0.5674456488038336,0.23226134648800711,0.0,0.0,0.0,0.7271257849755036,0.23226134648800711,0.0,0.0,-0.5321034620773635,0.0,0.0,-0.005950502859335602,0.0,2.827487891721358,0.0,8.851836019484987,0.0,-0.9068760542737252,0.0,86.95524412094471,-3.0149174111122763,0.0,-8.789764598546126,0.0,-0.9068760542737252,0.0
sim_raptor_glider_3dof,raptor_glider_3dof,0.009000000000000001,-14.892438772797073,0.0,-0.0010663407823958352,11.901119134279686,0.0,-0.2876489515966038,0.0,0.0,0.0,-64.88834461591229,-1.1325152597164048,-0.04756630838286822,0.0,0.0,0.0,0.0,0.0,-0.005190506999015194,-0.2973941445766851,0.0,0.0,11.904594851051113,0.0010663407823958352,0.034983675250671815,-0.02416520283760698,-1.3845641336724408,0.0,0.0,0.018974695838591786,1.0871699890957556,-11.245300652385273,0.0,-34.77395203375447,11.902451855647241,0.0,-0.22587251198903294,0.0,-118.88783755518315,0.0,0.0,-1.1325152597164048,0.0,0.4363323129985824,0.6108652381980153,1.0,0.14,0.14,0.75,0.08726646259971647,5.0,0.184,0.175,0.174,0.0,0.0,0.0,-0.32212303104432405,0.0,0.0786930741576781,0.0,7.308259784591808,0.0,-0.5688129901494,0.0,0.17658922034001392,0.0,-5.931539377519366,0.0,0.04679976621730942,0.0,-0.03037864103052052,0.7582803440770345,-0.5657576561726089,0.23117342694420098,0.0,0.0,0.0,0.7096125726651934,0.23117342694420098,0.0,0.0,-0.5262578558023392,0.0,0.0,-0.006659283173601551,0.0,2.809320956498501,0.0,8.623523463465926,0.0,-0.8953443046280843,0.0,86.80313531687665,-3.0168696475950068,0.0,-8.553124498742491,0.0,-0.8953443046280843,0.0
sim_raptor_glider_3dof,raptor_glider_3dof,0.01,-14.880541720793032,0.0,-0.001302747168380568,11.8898396898363,0.0,-0.3226873625562957,0.0,0.0,0.0,-71.65641679120353,-1.2506404031878517,-0.052573461889410075,0.0,0.0,0.0,0.0,0.0,-0.006382211843688122,-0.36567380260173726,0.0,0.0,11.894217712147366,0.001302747168380568,0.034953180264325624,-0.027133096751099782,-1.5546119289581435,0.0,0.0,0.02075088490741166,1.1889381263564063,-11.314032453231006,0.0,-35.29826724313323,11.891656983575565,0.0,-0.24679783009294004,0.0,-117.36371492364573,0.0,0.0,-1.2506404031878517,0.0,0.4363323129985824,0.6108652381980153,1.0,0.14,0.14,0.75,0.08726646259971647,5.0,0.184,0.175,0.174,0.0,0.0,0.0,-0.32450063621579645,0.0,0.07783459047380277,0.0,7.3054210149468295,0.0,-0.5698688494034582,0.0,0.17284669210554093,0.0,-5.9235512374601385,0.0,0.04863512823113572,0.0,-0.030040371781199844,0.7456499500771785,-0.5640172327383646,0.230059072208333,0.0,0.0,0.0,0.6918799718130221,0.230059072208333,0.0,0.0,-0.5204182094058036,0.0,0.0,-0.0073602846645174115,0.0,2.7909068374541595,0.0,8.393377081352119,0.0,-0.8838661370899761,0.0,86.651870094068,-3.0175899305478646,0.0,-8.31457099411458,0.0,-0.8838661370899761,0.0
sim_raptor_glider_3dof,raptor_glider_3dof,0.01,-14.880541720793032,0.0,-0.001302747168380568,11.8898396898363,0.0,-0.3226873625562957,0.0,0.0,0.0,-71.65641679120353,-1.2506404031878517,-0.052573461889410075,0.0,0.0,0.0,0.0,0.0,-0.006382211843688122,-0.36567380260173726,0.0,0.0,11.894217712147366,0.001302747168380568,0.034953180264325624,-0.027133096751099782,-1.5546119289581435,0.0,0.0,0.02075088490741166,1.1889381263564063,-11.314032453231006,0.0,-35.29826724313323,11.891656983575565,0.0,-0.24679783009294004,0.0,-117.36371492364573,0.0,0.0,-1.2506404031878517,0.0,0.4363323129985824,0.6108652381980153,1.0,0.14,0.14,0.75,0.08726646259971647,5.0,0.184,0.175,0.174,0.0,0.0,0.0,-0.32450063621579645,0.0,0.07783459047380277,0.0,7.3054210149468295,0.0,-0.5698688494034582,0.0,0.17284669210554093,0.0,-5.9235512374601385,0.0,0.04863512823113572,0.0,-0.030040371781199844,0.7456499500771785,-0.5640172327383646,0.230059072208333,0.0,0.0,0.0,0.6918799718130221,0.230059072208333,0.0,0.0,-0.5204182094058036,0.0,0.0,-0.0073602846645174115,0.0,2.7909068374541595,0.0,8.393377081352119,0.0,-0.8838661370899761,0.0,86.651870094068,-3.0175899305478646,0.0,-8.31457099411458,0.0,-0.8838661370899761,0.0
sim_raptor_glider_3dof,raptor_glider_3dof,0.011,-14.86865545020146,0.0,-0.001559646318800498,11.87849018430742,0.0,-0.35823620606446105,0.0,0.0,0.0,-78.33737615953278,-1.3672451413571576,-0.05752514711630991,0.0,0.0,0.0,0.0,0.0,-0.007691291406543229,-0.44067853660016565,0.0,0.0,11.883890871176122,0.001559646318800498,0.03492283308700262,-0.030149257272632266,-1.727425197175932,0.0,0.0,0.022457965866089037,1.2867466605757663,-11.385300458498971,0.0,-35.795227042994256,11.880894116161423,0.0,-0.26686558149009554,0.0,-115.8476935606049,0.0,0.0,-1.3672451413571576,0.0,0.4363323129985824,0.6108652381980153,1.0,0.14,0.14,0.75,0.08726646259971647,5.0,0.184,0.175,0.174,0.0,0.0,0.0,-0.3269072877248939,0.0,0.07695715432073742,0.0,7.3024818607414925,0.0,-0.5709208458773309,0.0,0.16904364047465398,0.0,-5.9154050778433485,0.0,0.05049912127735292,0.0,-0.029726792706598695,0.7327456964251882,-0.5622288208557163,0.22891763550370617,0.0,0.0,0.0,0.6739350083557207,0.22891763550370617,0.0,0.0,-0.5145889842259456,0.0,0.0,-0.008053520596283389,0.0,2.7722396454570437,0.0,8.161491553563181,0.0,-0.8724489802049155,0.0,86.50146900955565,-3.017005421519545,0.0,-8.074214222898016,0.0,-0.8724489802049155,0.0
sim_raptor_glider_3dof,raptor_glider_3dof,0.012,-14.85677992193157,0.0,-0.001836191879857243,11.8670683138705,0.0,-0.39426889889668576,0.0,0.0,0.0,-84.93174409471861,-1.4823385739140904,-0.0624215304955916,0.0,0.0,0.0,0.0,0.0,-0.009116218539442127,-0.5223208474289495,0.0,0.0,11.873616059596438,0.001836191879857243,0.03489263880688953,-0.03321156642986189,-1.9028825874494533,0.0,0.0,0.024095347890419762,1.380561740020504,-11.458843699579578,0.0,-36.265357174777705,11.870169399978256,0.0,-0.28607122631664506,0.0,-114.34082605282838,0.0,0.0,-1.4823385739140904,0.0,0.4363323129985824,0.6108652381980153,1.0,0.14,0.14,0.75,0.08726646259971647,5.0,0.184,0.175,0.174,0.0,0.0,0.0,-0.3293406938973819,0.0,0.07606326252172423,0.0,7.299436261981814,0.0,-0.5719663062068473,0.0,0.16518766676624938,0.0,-5.9071092167022154,0.0,0.05237951783153337,0.0,-0.02943684512498798,0.7195743670661674,-0.5603972679448438,0.22774836842686516,0.0,0.0,0.0,0.6557844894142579,0.22774836842686516,0.0,0.0,-0.5087749562092804,0.0,0.0,-0.008739014269382825,0.0,2.7533123714453223,0.0,7.927958211854502,0.0,-0.8611007610038506,0.0,86.35195533886116,-3.015045557845838,0.0,-7.832161305015314,0.0,-0.8611007610038506,0.0
sim_raptor_glider_3dof,raptor_glider_3dof,0.013000000000000001,-14.844915096672207,0.0,-0.0021315073317254127,11.85557187027515,0.0,-0.430758456089832,0.0,0.0,0.0,-91.4400662338625,-1.5959302240225917,-0.0672627964019574,0.0,0.0,0.0,0.0,0.0,-0.010655482954012533,-0.6105142019385092,0.0,0.0,11.86339484375161,0.0021315073317254127,0.034862602026952336,-0.03631786436274357,-2.080860348913786,0.0,0.0,0.025662381408731037,1.4703461469752763,-11.53439249877043,0.0,-36.70920433525552,11.859488692407062,0.0,-0.30440954883399957,0.0,-112.84424756445253,0.0,0.0,-1.5959302240225917,0.0,0.4363323129985824,0.6108652381980153,1.0,0.14,0.14,0.75,0.08726646259971647,5.0,0.184,0.175,0.174,0.0,0.0,0.0,-0.33179853758897165,0.0,0.07515562321423523,0.0,7.296277823431884,0.0,-0.5730025047533126,0.0,0.1612868614163498,0.0,-5.8986724957866885,0.0,0.05426310129988098,0.0,-0.02916916810351812,0.7061431597476033,-0.5585278914042384,0.22655048047389892,0.0,0.0,0.0,0.6374356327854571,0.22655048047389892,0.0,0.0,-0.5029813224066088,0.0,0.0,-0.009416791496274036,0.0,2.734117446743946,0.0,7.692872163101758,0.0,-0.849830028407892,0.0,86.20334988049309,-3.0116417853476496,0.0,-7.588523841114527,0.0,-0.849830028407892,0.0
sim_raptor_glider_3dof,raptor_glider_3dof,0.014,-14.833060927575934,0.0,-0.002444722803610372,11.843998981605706,0.0,-0.46767886429427796,0.0,0.0,0.0,-97.86296575167458,-1.708030968133169,-0.07204918517546087,0.0,0.0,0.0,0.0,0.0,-0.012307587798572581,-0.7051728368449168,0.0,0.0,11.853228901712166,0.002444722803610372,0.03483272767848648,-0.03946606425566821,-2.261238915841905,0.0,0.0,0.02715847645709563,1.5560660789969885,-11.611673480602237,0.0,-37.127324556471656,11.848857801253983,0.0,-0.3218760662851696,0.0,-111.35915506590266,0.0,0.0,-1.708030968133169,0.0,0.4363323129985824,0.6108652381980153,1.0,0.14,0.14,0.75,0.08726646259971647,5.0,0.184,0.175,0.174,0.0,0.0,0.0,-0.3342785688499958,0.0,0.07423711447419991,0.0,7.292999726227469,0.0,-0.5740267081673357,0.0,0.1573496401362246,0.0,-5.8901039561893604,0.0,0.0561357788891801,0.0,-0.028922095689111884,0.6924591968384688,-0.5566263938657714,0.22532310505734793,0.0,0.0,0.0,0.618895540552132,0.22532310505734793,0.0,0.0,-0.4972135871758631,0.0,0.0,-0.010086885924564522,0.0,2.71464646542804,0.0,7.4563262884266415,0.0,-0.8386457968013129,0.0,86.05567498716766,-3.0067280804119254,0.0,-7.343411564266678,0.0,-0.8386457968013129,0.0
sim_raptor_glider_3dof,raptor_glider_3dof,0.015,-14.821217362088438,0.0,-0.0027749671657836096,11.832348061112437,0.0,-0.5050047665983327,0.0,0.0,0.0,-104.2011348329694,-1.8186528871498675,-0.07678098730994268,0.0,0.0,0.0,0.0,0.0,-0.014071052966302292,-0.8062119482741591,0.0,0.0,11.84311996281378,0.0027749671657836096,0.034803020843438774,-0.0426541260093756,-2.4439013991564145,0.0,0.0,0.028583073043073306,1.637689450882255,-11.690410276115148,0.0,-37.520286654990095,11.83828242466498,0.0,-0.33846667113100976,0.0,-109.88680602123786,0.0,0.0,-1.8186528871498675,0.0,0.4363323129985824,0.6108652381980153,1.0,0.14,0.14,0.75,0.08726646259971647,5.0,0.184,0.175,0.174,0.0,0.0,0.0,-0.3367785846656233,0.0,0.07331078326164837,0.0,7.289594777391116,0.0,-0.5750361704106751,0.0,0.1533847567057797,0.0,-5.881412893559737,0.0,0.057982610432920856,0.0,-0.028693670444178723,0.6785296391132725,-0.554698860319064,0.22406531929277054,0.0,0.0,0.0,0.6001713193396236,0.22406531929277054,0.0,0.0,-0.49147756389477193,0.0,0.0,-0.010749338223391977,0.0,2.6948903991849944,0.0,7.218412610481698,0.0,-0.8275575361459424,0.0,85.90895368276097,-3.000240990283091,0.0,-7.0969337660010465,0.0,-0.8275575361459424,0.0
sim_raptor_glider_3dof,raptor_glider_3dof,0.016,-14.8093843421752,0.0,-0.003121362773125761,11.820617778391576,0.0,-0.542711267610887,0.0,0.0,0.0,-110.45533734366893,-1.9278093130480702,-0.08145854585966346,0.0,0.0,0.0,0.0,0.0,-0.015944405564441343,-0.913547145687394,0.0,0.0,11.83306977004779,0.003121362773125761,0.03477348664388547,-0.04588003993459085,-2.628732652143729,0.0,0.0,0.029935634370149504,1.715185506456335,-11.770324702348404,0.0,-37.88867581921048,11.827768109367014,0.0,-0.3541775456737215,0.0,-108.42851452353167,0.0,0.0,-1.9278093130480702,0.0,0.4363323129985824,0.6108652381980153,1.0,0.14,0.14,0.75,0.08726646259971647,5.0,0.184,0.175,0.174,0.0,0.0,0.0,-0.3392964170125942,0.0,0.07237984079762502,0.0,7.28605545315238,0.0,-0.5760281322044459,0.0,0.14940130128497472,0.0,-5.872608885558783,0.0,0.05978784750242128,0.0,-0.028481656119511093,0.6643617588690741,-0.5527517481463955,0.22277616082807497,0.0,0.0,0.0,0.5812701513517411,0.22277616082807497,0.0,0.0,-0.48577936291557344,0.0,0.0,-0.011404196420352886,0.0,2.6748397853752097,0.0,6.979223095987411,0.0,-0.8165751428767171,0.0,85.76320911513788,-2.99211974768698,0.0,-6.849200122385957,0.0,-0.8165751428767171,0.0
sim_raptor_glider_3dof,raptor_glider_3dof,0.017,-14.797561803801253,0.0,-0.0034830279539236966,11.808807107112703,0.0,-0.5807741185366937,0.0,0.0,0.0,-116.62642074195185,-2.0355150367632677,-0.08608226509444523,0.0,0.0,0.0,0.0,0.0,-0.01792618788125179,-1.0270949083542908,0.0,0.0,11.823080134624714,0.0034830279539236966,0.03474413040237654,-0.04914184220171177,-2.8156201556559615,0.0,0.0,0.03121565432045998,1.7885252473016706,-11.851138724061865,0.0,-38.23309296803688,11.817320296775438,0.0,-0.3690052481697557,0.0,-106.98564369594054,0.0,0.0,-2.0355150367632677,0.0,0.4363323129985824,0.6108652381980153,1.0,0.14,0.14,0.75,0.08726646259971647,5.0,0.184,0.175,0.174,0.0,0.0,0.0,-0.34182994585551996,0.0,0.07144764807990844,0.0,7.282373909971703,0.0,-0.5769998307980577,0.0,0.14540865776733375,0.0,-5.863701731552939,0.0,0.0615349941491158,0.0,-0.02828354887906509,0.6499628746047927,-0.5507918565966219,0.22145463259969603,0.0,0.0,0.0,0.562199220803885,0.22145463259969603,0.0,0.0,-0.4801253548319802,0.0,0.0,-0.012051517113222334,0.0,2.654484810197588,0.0,6.738848830615436,0.0,-0.8057088826741282,0.0,85.61846534680103,-2.982306444720373,0.0,-6.600319798254937,0.0,-0.8057088826741282,0.0
sim_raptor_glider_3dof,raptor_glider_3dof,0.018000000000000002,-14.78574967772472,0.0,-0.003859077898735239,11.7969152897577,0.0,-0.6191696620757431,0.0,0.0,0.0,-122.71530961666953,-2.141786195415144,-0.09065260619488678,0.0,0.0,0.0,0.0,0.0,-0.020014957351033615,-1.1467725833485682,0.0,0.0,11.813152899381013,0.003859077898735239,0.034714957534400105,-0.052437610335755,-3.004453759990345,0.0,0.0,0.032422652984721384,1.857681176641777,-11.932575718210876,0.0,-38.55415430297079,11.80694428223156,0.0,-0.3829466548143013,0.0,-105.5596012014263,0.0,0.0,-2.141786195415144,0.0,0.4363323129985824,0.6108652381980153,1.0,0.14,0.14,0.75,0.08726646259971647,5.0,0.184,0.175,0.174,0.0,0.0,0.0,-0.34437709638605885,0.0,0.07051770670297235,0.0,7.278542017150236,0.0,-0.5779485032936288,0.0,0.14141648499242912,0.0,-5.854701445509599,0.0,0.06320685819412612,0.0,-0.02809659092010877,0.6353403722907335,-0.5488263071542865,0.22009971563232755,0.0,0.0,0.0,0.5429657398492215,0.22009971563232755,0.0,0.0,-0.47452215492030825,0.0,0.0,-0.012691364867284149,0.0,2.633815445711929,0.0,6.4973802805642515,0.0,-0.7949693566479415,0.0,85.47474682247035,-2.9707461465645184,0.0,-6.350401691626128,0.0,-0.7949693566479415,0.0
sim_raptor_glider_3dof,raptor_glider_3dof,0.019000000000000003,-14.77394788960643,0.0,-0.004248624920539952,11.784941830819012,0.0,-0.6578748680627383,0.0,0.0,0.0,-128.72300502658234,-2.246640260775073,-0.0951700870300365,0.0,0.0,0.0,0.0,0.0,-0.022209287942143476,-1.2724984650756104,0.0,0.0,11.803289935344988,0.004248624920539952,0.03468597353829083,-0.055765466286219305,-3.195125860779447,0.0,0.0,0.03355617834407583,1.9226273957038367,-12.014383882854448,0.0,-38.852535876418344,11.79664520570511,0.0,-0.39599897541654505,0.0,-104.15163975769906,0.0,0.0,-2.246640260775073,0.0,0.4363323129985824,0.6108652381980153,1.0,0.14,0.14,0.75,0.08726646259971647,5.0,0.184,0.175,0.174,0.0,0.0,0.0,-0.3469364744622706,0.0,0.06959239753979962,0.0,7.274553719102606,0.0,-0.5788722758500837,0.0,0.13743257542680687,0.0,-5.845616022171631,0.0,0.06479000070163725,0.0,-0.027917397403677807,0.620502794959997,-0.5468616164310757,0.2187108247549809,0.0,0.0,0.0,0.5235780074827632,0.2187108247549809,0.0,0.0,-0.46897572645068064,0.0,0.0,-0.013323812184205112,0.0,2.612826891805129,0.0,6.254919935678929,0.0,-0.7843659990152316,0.0,85.33207831888285,-2.9573930448680943,0.0,-6.099566717928379,0.0,-0.7843659990152316,0.0
sim_raptor_glider_3dof,raptor_glider_3dof,0.02,-14.762156360029456,0.0,-0.004650778724717699,11.772886449256433,0.0,-0.6968674658143302,0.0,0.0,0.0,-134.65056270419723,-2.350095658851321,-0.09963526658200225,0.0,0.0,0.0,0.0,0.0,-0.024507771689707285,-1.4041918830904296,0.0,0.0,11.793493104758921,0.004650778724717699,0.03465718388656417,-0.05912358790417764,-3.387532056580103,0.0,0.0,0.03461581621447035,1.9833401734896732,-12.096400242116651,0.0,-39.12909334123046,11.786428005822605,0.0,-0.40815986519593367,0.0,-102.76230826985118,0.0,0.0,-2.350095658851321,0.0,0.4363323129985824,0.6108652381980153,1.0,0.14,0.14,0.75,0.08726646259971647,5.0,0.184,0.175,0.174,0.0,0.0,0.0,-0.3495091681680761,0.0,0.0686694249740849,0.0,7.270411674017602,0.0,-0.5797726754551101,0.0,0.1334568291466759,0.0,-5.836445134860455,0.0,0.06628724581979555,0.0,-0.027740873986067567,0.6054628978212652,-0.5449011091320604,0.21728907178914547,0.0,0.0,0.0,0.5040483810790348,0.21728907178914547,0.0,0.0,-0.4634889017656332,0.0,0.0,-0.013948937321480316,0.0,2.591534579589744,0.0,6.011617605049758,0.0,-0.7739029435802492,0.0,85.19048441030981,-2.9422277820899025,0.0,-5.847981992521174,0.0,-0.7739029435802492,0.0
sim_raptor_glider_3dof,raptor_glider_3dof,0.02,-14.762156360029456,0.0,-0.004650778724717699,11.772886449256433,0.0,-0.6968674658143302,0.0,0.0,0.0,-134.65056270419723,-2.350095658851321,-0.09963526658200225,0.0,0.0,0.0,0.0,0.0,-0.024507771689707285,-1.4041918830904296,0.0,0.0,11.793493104758921,0.004650778724717699,0.03465718388656417,-0.05912358790417764,-3.387532056580103,0.0,0.0,0.03461581621447035,1.9833401734896732,-12.096400242116651,0.0,-39.12909334123046,11.786428005822605,0.0,-0.40815986519593367,0.0,-102.76230826985118,0.0,0.0,-2.350095658851321,0.0,0.4363323129985824,0.6108652381980153,1.0,0.14,0.14,0.75,0.08726646259971647,5.0,0.184,0.175,0.174,0.0,0.0,0.0,-0.3495091681680761,0.0,0.0686694249740849,0.0,7.270411674017602,0.0,-0.5797726754551101,0.0,0.1334568291466759,0.0,-5.836445134860455,0.0,0.06628724581979555,0.0,-0.027740873986067567,0.6054628978212652,-0.5449011091320604,0.21728907178914547,0.0,0.0,0.0,0.5040483810790348,0.21728907178914547,0.0,0.0,-0.4634889017656332,0.0,0.0,-0.013948937321480316,0.0,2.591534579589744,0.0,6.011617605049758,0.0,-0.7739029435802492,0.0,85.19048441030981,-2.9422277820899025,0.0,-5.847981992521174,0.0,-0.7739029435802492,0.0
sim_raptor_glider_3dof,raptor_glider_3dof,0.021,-14.750375011056647,0.0,-0.005064629513341461,11.760748932862006,0.0,-0.7361256947770954,0.0,0.0,0.0,-140.49902456925057,-2.45217057457383,-0.10404869583964507,0.0,0.0,0.0,0.0,0.0,-0.02690906755844098,-1.5417760017310709,0.0,0.0,11.783764105765435,0.005064629513341461,0.03462859356950082,-0.06251018872845075,-3.581569990706478,0.0,0.0,0.03560112117000977,2.0397939889754073,-12.178491848597947,0.0,-39.38472674511393,11.776297288481539,0.0,-0.41942660100215146,0.0,-101.3919855749745,0.0,0.0,-2.45217057457383,0.0,0.4363323129985824,0.6108652381980153,1.0,0.14,0.14,0.75,0.08726646259971647,5.0,0.184,0.175,0.174,0.0,0.0,0.0,-0.35209702980502494,0.0,0.0677451765981556,0.0,7.266121011187782,0.0,-0.5806522492564045,0.0,0.12948694110383363,0.0,-5.82718610843361,0.0,0.06770589959228814,0.0,-0.027561274819946573,0.5902347385782846,-0.5429473349256331,0.2158360716603512,0.0,0.0,0.0,0.4843904804744861,0.2158360716603512,0.0,0.0,-0.45806377882599514,0.0,0.0,-0.014566817417550311,0.0,2.569959719345918,0.0,5.767636584921797,0.0,-0.7635830433651329,0.0,85.0499872286049,-2.925241561669408,0.0,-5.595827601049807,0.0,-0.7635830433651329,0.0
sim_raptor_glider_3dof,raptor_glider_3dof,0.022,-14.738603738834884,0.0,-0.005489292511754377,11.748529409376076,0.0,-0.7756293245792063,0.0,0.0,0.0,-146.26959271605122,-2.552885988446209,-0.10841104394489542,0.0,0.0,0.0,0.0,0.0,-0.02941167104622829,-1.6851646193760033,0.0,0.0,11.774104812346533,0.005489292511754377,0.03460020809411541,-0.06592360319103842,-3.7771442331416676,0.0,0.0,0.03651193214481013,2.0919796137656643,-12.260544320210599,0.0,-39.620354547449075,11.766257529883077,0.0,-0.4297998052484108,0.0,-100.04101789215657,0.0,0.0,-2.552885988446209,0.0,0.4363323129985824,0.6108652381980153,1.0,0.14,0.14,0.75,0.08726646259971647,5.0,0.184,0.175,0.174,0.0,0.0,0.0,-0.3547021929787963,0.0,0.06681577245472961,0.0,7.261687221267846,0.0,-0.5815138241920924,0.0,0.1255201080993301,0.0,-5.81783557699993,0.0,0.06905403191145464,0.0,-0.027372548633809276,0.574832323075606,-0.5410027776335441,0.21435352416058043,0.0,0.0,0.0,0.4646177301313525,0.21435352416058043,0.0,0.0,-0.4527023096572199,0.0,0.0,-0.01517754615228536,0.0,2.5481244302348958,0.0,5.5231365731177595,0.0,-0.7534089057458312,0.0,84.91061137747904,-2.9064308533457277,0.0,-5.343279462276976,0.0,-0.7534089057458312,0.0
sim_raptor_glider_3dof,raptor_glider_3dof,0.023,-14.726842463864742,0.0,-0.005923928448250874,11.736227897038464,0.0,-0.8153600110735966,0.0,0.0,0.0,-151.9632610702851,-2.652259247744197,-0.11272282903388518,0.0,0.0,0.0,0.0,0.0,-0.032014389376465315,-1.8342893949599217,0.0,0.0,11.764516870610617,0.005923928448250874,0.034572032297777236,-0.06936231958362564,-3.9741681693793667,0.0,0.0,0.037347930207160325,2.139878774419445,-12.342453169114702,0.0,-39.836838867646065,11.75631285088755,0.0,-0.4392782158701447,0.0,-98.70975720057763,0.0,0.0,-2.652259247744197,0.0,0.4363323129985824,0.6108652381980153,1.0,0.14,0.14,0.75,0.08726646259971647,5.0,0.184,0.175,0.174,0.0,0.0,0.0,-0.35732708329539514,0.0,0.06587707399575739,0.0,7.257116072774348,0.0,-0.5823604960286215,0.0,0.12155301812579776,0.0,-5.8083894208814595,0.0,0.07034043404185586,0.0,-0.027168359638881777,0.5592694128994785,-0.539069836468938,0.21284319329182474,0.0,0.0,0.0,0.44474344129042204,0.21284319329182474,0.0,0.0,-0.4474065041976233,0.0,0.0,-0.01578119606474393,0.0,2.5260513122476853,0.0,5.278274283100474,0.0,-0.7433831814775501,0.0,84.77237810547861,-2.885797014145305,0.0,-5.090509820528601,0.0,-0.7433831814775501,0.0
sim_raptor_glider_3dof,raptor_glider_3dof,0.024,-14.715091082193476,0.0,-0.006367572879855994,11.723844586625358,0.0,-0.8552975097868677,0.0,0.0,0.0,-157.58125425192074,-2.7503117261183307,-0.11698474355000403,0.0,0.0,0.0,0.0,0.0,-0.03471578492959546,-1.9890679589496878,0.0,0.0,11.755001732096527,0.006367572879855994,0.03454407044607989,-0.07282465789298413,-4.172545541752069,0.0,0.0,0.03810887296338867,2.1834775828023814,-12.424128875574578,0.0,-40.03512573071073,11.746466951693849,0.0,-0.44786144549014784,0.0,-97.3985401582268,0.0,0.0,-2.7503117261183307,0.0,0.4363323129985824,0.6108652381980153,1.0,0.14,0.14,0.75,0.08726646259971647,5.0,0.184,0.175,0.174,0.0,0.0,0.0,-0.3599741586602814,0.0,0.06492478929248077,0.0,7.2524140115068985,0.0,-0.5831955337163519,0.0,0.11758224557096925,0.0,-5.798843679978197,0.0,0.07157445210779967,0.0,-0.02694212957493969,0.5435609458000044,-0.5371510047020933,0.2113070441575033,0.0,0.0,0.0,0.4247818947443617,0.2113070441575033,0.0,0.0,-0.44217833099165976,0.0,0.0,-0.016377864097000566,0.0,2.503765082008656,0.0,5.033216378426366,0.0,-0.733508405931606,0.0,84.6353058004611,-2.863347101487176,0.0,-4.837700907905554,0.0,-0.733508405931606,0.0
sim_raptor_glider_3dof,raptor_glider_3dof,0.025,-14.703349495477118,0.0,-0.006819353243583638,11.711379749655805,0.0,-0.8954245915439198,0.0,0.0,0.0,-163.12470259728966,-2.84706315165925,-0.12119741134808133,0.0,0.0,0.0,0.0,0.0,-0.03751458136240614,-2.1494271822660096,0.0,0.0,11.745560899326591,0.006819353243583638,0.034516326954440596,-0.07630918721320484,-4.372194365390306,0.0,0.0,0.038794605850798705,2.222767183124296,-12.50549732716656,0.0,-40.21610308984523,11.73672334729464,0.0,-0.45555011673641316,0.0,-96.10768781563795,0.0,0.0,-2.84706315165925,0.0,0.4363323129985824,0.6108652381980153,1.0,0.14,0.14,0.75,0.08726646259971647,5.0,0.184,0.175,0.174,0.0,0.0,0.0,-0.36264621411679765,0.0,0.06395437640222969,0.0,7.247587579037816,0.0,-0.584022466293029,0.0,0.1136037925871388,0.0,-5.7891934360598905,0.0,0.07276609876964757,0.0,-0.026687036129638096,0.5277211096258495,-0.5352486320559469,0.20974705510130356,0.0,0.0,0.0,0.4047466701921447,0.20974705510130356,0.0,0.0,-0.43701969590182005,0.0,0.0,-0.016967637588731387,0.0,2.4812904405571152,0.0,4.78811987662968,0.0,-0.7237869969395694,0.0,84.49941353539597,-2.839092589036038,0.0,-4.585024261032539,0.0,-0.7237869969395694,0.0
sim_raptor_glider_3dof,raptor_glider_3dof,0.026000000000000002,-14.691617600084932,0.0,-0.007278375338196005,11.698833719322497,0.0,-0.9357243194392093,0.0,0.0,0.0,-168.59478036316509,-2.942534019013912,-0.12536149212106942,0.0,0.0,0.0,0.0,0.0,-0.04040948606129945,-2.315293003605187,0.0,0.0,11.7361957377315,0.007278375338196005,0.0344888058354095,-0.07981449540454394,-4.573033730646672,0.0,0.0,0.039405009343244486,2.257740727041485,-12.58649880065139,0.0,-40.380669030101544,11.727085199786396,0.0,-0.46234522956104884,0.0,-94.83751034624916,0.0,0.0,-2.942534019013912,0.0,0.4363323129985824,0.6108652381980153,1.0,0.14,0.14,0.75,0.08726646259971647,5.0,0.184,0.175,0.174,0.0,0.0,0.0,-0.36534619287993475,0.0,0.06296112260464874,0.0,7.2426436856643015,0.0,-0.5848450094199968,0.0,0.10961337889447276,0.0,-5.779433471178887,0.0,0.07392591921563126,0.0,-0.026396047733414366,0.5117643455332452,-0.5333650532868934,0.20816531310154146,0.0,0.0,0.0,0.38465153882618863,0.20816531310154146,0.0,0.0,-0.4319324767882923,0.0,0.0,-0.01755060889694972,0.0,2.458653121780808,0.0,4.543142623725611,0.0,-0.7142212904176025,0.0,84.36471836282128,-2.8130498010328138,0.0,-4.332651715712237,0.0,-0.7142212904176025,0.0
sim_raptor_glider_3dof,raptor_glider_3dof,0.027,-14.679895289013345,0.0,-0.007743746397418978,11.686206888220616,0.0,-0.9761807486437745,0.0,0.0,0.0,-173.99268112622065,-3.036745160025146,-0.12947766286512222,0.0,0.0,0.0,0.0,0.0,-0.04339922933846022,-2.4865926752141103,0.0,0.0,11.726907533033494,0.007743746397418978,0.03446151086729993,-0.08333924876949331,-4.774987222282806,0.0,0.0,0.039940019431033084,2.2883945470686955,-12.667088499712833,0.0,-40.529713967234244,11.717555364693837,0.0,-0.468248399519281,0.0,-93.58830465279263,0.0,0.0,-3.036745160025146,0.0,0.4363323129985824,0.6108652381980153,1.0,0.14,0.14,0.75,0.08726646259971647,5.0,0.184,0.175,0.174,0.0,0.0,0.0,-0.36807721937729404,0.0,0.061940143714497575,0.0,7.2375895008765125,0.0,-0.5856670644257959,0.0,0.10560639544373056,0.0,-5.769558128531919,0.0,0.0750649689399089,0.0,-0.026061940310053523,0.49570504061589066,-0.5315025534280757,0.2065639821008095,0.0,0.0,0.0,0.3645101763468014,0.2065639821008095,0.0,0.0,-0.4269185071135263,0.0,0.0,-0.018126872801117116,0.0,2.4358795378510463,0.0,4.29843998392869,0.0,-0.7048135223401814,0.0,84.23123614836003,-2.7852395444933964,0.0,-4.080751903528137,0.0,-0.7048135223401814,0.0
sim_raptor_glider_3dof,raptor_glider_3dof,0.028,-14.668182452507194,0.0,-0.008214575542900577,11.673499687299548,0.0,-1.0167788426750808,0.0,0.0,0.0,-179.31961554555338,-3.129717704680314,-0.13354661659438297,0.0,0.0,0.0,0.0,0.0,-0.04648256296651733,-2.663254678932543,0.0,0.0,11.717697477076898,0.008214575542900577,0.034434445552548994,-0.08688218543041751,-4.977982540035935,0.0,0.0,0.04039962246390018,2.314727861103392,-12.747236375253776,0.0,-40.664119948997474,11.708136377761477,0.0,-0.47326179228064225,0.0,-92.36035529555184,0.0,0.0,-3.129717704680314,0.0,0.4363323129985824,0.6108652381980153,1.0,0.14,0.14,0.75,0.08726646259971647,5.0,0.184,0.175,0.174,0.0,0.0,0.0,-0.3708425823761482,0.0,0.06088640061566381,0.0,7.2324324329916765,0.0,-0.5864927017614492,0.0,0.10157793349770028,0.0,-5.759561353914013,0.0,0.07619476874467955,0.0,-0.025677316757039846,0.47955752175697225,-0.5296633705249549,0.20494530046530526,0.0,0.0,0.0,0.3443361583926795,0.20494530046530526,0.0,0.0,-0.42197958006133773,0.0,0.0,-0.018696526323213614,0.0,2.412996740887135,0.0,4.0541648239052455,0.0,-0.695565835730801,0.0,84.09898137310286,-2.755686924076516,0.0,-3.829490209857742,0.0,-0.695565835730801,0.0
sim_raptor_glider_3dof,raptor_glider_3dof,0.029,-14.656478978609607,0.0,-0.008689974284313867,11.660712566901948,0.0,-1.0575043934491417,0.0,0.0,0.0,-184.5768092658394,-3.221473044514475,-0.13756906116222853,0.0,0.0,0.0,0.0,0.0,-0.0496582588828482,-2.8452086519552324,0.0,0.0,11.708566654807463,0.008689974284313867,0.034407613079454176,-0.09044210901478776,-5.181951136809435,0.0,0.0,0.04078385013193956,2.336742484854202,-12.826926907541013,0.0,-40.78476000377769,11.698830443678583,0.0,-0.47738806031196374,0.0,-91.15393534423751,0.0,0.0,-3.221473044514475,0.0,0.4363323129985824,0.6108652381980153,1.0,0.14,0.14,0.75,0.08726646259971647,5.0,0.184,0.175,0.174,0.0,0.0,0.0,-0.37364571895504495,0.0,0.05979471495847396,0.0,7.227180110279514,0.0,-0.5873261453826606,0.0,0.09752281213950485,0.0,-5.749436735222398,0.0,0.07732726232549915,0.0,-0.025234625473008192,0.46333604952106305,-0.5278496981515063,0.20331157845647962,0.0,0.0,0.0,0.3241429559540553,0.20331157845647962,0.0,0.0,-0.417117452208842,0.0,0.0,-0.019259668562711996,0.0,2.390032386148684,0.0,3.8104675019184486,0.0,-0.6864802870774527,0.0,83.96796695332502,-2.7244211648863943,0.0,-3.5790287378470795,0.0,-0.6864802870774527,0.0
sim_raptor_glider_3dof,raptor_glider_3dof,0.03,-14.64478475332364,0.0,-0.009169057030073492,11.647845985688178,0.0,-1.098344060889042,0.0,0.0,0.0,-189.76550325451407,-3.3120328384952855,-0.1415457196949225,0.0,0.0,0.0,0.0,0.0,-0.0529251105507975,-3.0323854648240007,0.0,0.0,11.699516049068118,0.009169057030073492,0.034381016336266466,-0.09401789245248734,-5.386828436242402,0.0,0.0,0.04109278190168984,2.354442971418401,-12.906159027789194,0.0,-40.892496024143234,11.689639439768735,0.0,-0.48063036796039976,0.0,-89.96930620865359,0.0,0.0,-3.3120328384952855,0.0,0.4363323129985824,0.6108652381980153,1.0,0.14,0.14,0.75,0.08726646259971647,5.0,0.184,0.175,0.174,0.0,0.0,0.0,-0.3764902070913276,0.0,0.058659780940491145,0.0,7.221840348714797,0.0,-0.5881717603104553,0.0,0.0934355930953446,0.0,-5.739177511898855,0.0,0.07847477937866824,0.0,-0.024726176563758313,0.4470547673002682,-0.5260636828456071,0.2016651911703727,0.0,0.0,0.0,0.303943884744975,0.2016651911703727,0.0,0.0,-0.4123338412525978,0.0,0.0,-0.01981640075728915,0.0,2.367014650115669,0.0,3.567495331391229,0.0,-0.6775588450573702,0.0,83.83820431629405,-2.6914753796509374,0.0,-3.3295257281020163,0.0,-0.6775588450573702,0.0
sim_raptor_glider_3dof,raptor_glider_3dof,0.03,-14.64478475332364,0.0,-0.009169057030073492,11.647845985688178,0.0,-1.098344060889042,0.0,0.0,0.0,-189.76550325451407,-3.3120328384952855,-0.1415457196949225,0.0,0.0,0.0,0.0,0.0,-0.0529251105507975,-3.0323854648240007,0.0,0.0,11.699516049068118,0.009169057030073492,0.034381016336266466,-0.09401789245248734,-5.386828436242402,0.0,0.0,0.04109278190168984,2.354442971418401,-12.906159027789194,0.0,-40.892496024143234,11.689639439768735,0.0,-0.48063036796039976,0.0,-89.96930620865359,0.0,0.0,-3.3120328384952855,0.0,0.4363323129985824,0.6108652381980153,1.0,0.14,0.14,0.75,0.08726646259971647,5.0,0.184,0.175,0.174,0.0,0.0,0.0,-0.3764902070913276,0.0,0.058659780940491145,0.0,7.221840348714797,0.0,-0.5881717603104553,0.0,0.0934355930953446,0.0,-5.739177511898855,0.0,0.07847477937866824,0.0,-0.024726176563758313,0.4470547673002682,-0.5260636828456071,0.2016651911703727,0.0,0.0,0.0,0.303943884744975,0.2016651911703727,0.0,0.0,-0.4123338412525978,0.0,0.0,-0.01981640075728915,0.0,2.367014650115669,0.0,3.567495331391229,0.0,-0.6775588450573702,0.0,83.83820431629405,-2.6914753796509374,0.0,-3.3295257281020163,0.0,-0.6775588450573702,0.0
sim_raptor_glider_3dof,raptor_glider_3dof,0.031,-14.633099674567687,0.0,-0.00965090874222231,11.634900258861228,0.0,-1.1392850692547154,0.0,0.0,0.0,-194.88687093384348,-3.4014175667048048,-0.14547727104175875,0.0,0.0,0.0,0.0,0.0,-0.05628206500004237,-3.224724786783395,0.0,0.0,11.690546373145944,0.00965090874222231,0.03435465741910119,-0.09760845373700547,-5.592552443928362,0.0,0.0,0.0413263887369631,2.3678276571449666,-12.98494260592499,0.0,-40.988167270486365,11.680564824775958,0.0,-0.4829905556865027,0.0,-88.80672803415365,0.0,0.0,-3.4014175667048048,0.0,0.4363323129985824,0.6108652381980153,1.0,0.14,0.14,0.75,0.08726646259971647,5.0,0.184,0.175,0.174,0.0,0.0,0.0,-0.37937973657747504,0.0,0.05747618519715543,0.0,7.216421163033439,0.0,-0.5890340343332569,0.0,0.08931062649243306,0.0,-5.728776663538414,0.0,0.07964999189844194,0.0,-0.024144161000025848,0.43072777936243023,-0.5243074356302806,0.2000085844829949,0.0,0.0,0.0,0.28375224331437626,0.2000085844829949,0.0,0.0,-0.40763048427158133,0.0,0.0,-0.02036681794584623,0.0,2.3439722328786905,0.0,3.3253941627814716,0.0,-0.6688034688252111,0.0,83.7097010088577,-2.6568865189633653,0.0,-3.0811371588616643,0.0,-0.6688034688252111,0.0
sim_raptor_glider_3dof,raptor_glider_3dof,0.032,-14.62142359312663,0.0,-0.010134678861253374,11.621876114587778,0.0,-1.180315930494984,0.0,0.0,0.0,-199.94240034704632,-3.489653200396611,-0.14936462741658296,0.0,0.0,0.0,0.0,0.0,-0.059727648242855945,-3.422142164557613,0.0,0.0,11.681658705792005,0.010134678861253374,0.034328539498051674,-0.10121281323578414,-5.799067031056269,0.0,0.0,0.041485164992928196,2.3769248664986553,-13.063312267069525,0.0,-41.07264623250517,11.671607969582332,0.0,-0.4844765453438262,0.0,-87.66641571705685,0.0,0.0,-3.489653200396611,0.0,0.4363323129985824,0.6108652381980153,1.0,0.14,0.14,0.75,0.08726646259971647,5.0,0.184,0.175,0.174,0.0,0.0,0.0,-0.38231814620050836,0.0,0.05623839901864377,0.0,7.210930656301321,0.0,-0.5899175801004539,0.0,0.08514200176978069,0.0,-5.718226761027278,0.0,0.0808658994704433,0.0,-0.0234806555326724,0.4143688593980227,-0.5225830036939473,0.19834424350806518,0.0,0.0,0.0,0.26358074348528593,0.19834424350806518,0.0,0.0,-0.403008890343735,0.0,0.0,-0.020911047838321616,0.0,2.3209342440291407,0.0,3.0843021345199038,0.0,-0.6602157767651552,0.0,83.58246980024497,-2.620694712033109,0.0,-2.834010347269899,0.0,-0.6602157767651552,0.0
sim_raptor_glider_3dof,raptor_glider_3dof,0.033,-14.609756412791494,0.0,-0.010619524965067332,11.608773779586286,0.0,-1.2214263537400245,0.0,0.0,0.0,-204.9332006296735,-3.576759097637919,-0.1532084279626357,0.0,0.0,0.0,0.0,0.0,-0.06326093539781139,-3.624584606344346,0.0,0.0,11.672853592983197,0.010619524965067332,0.03430266417756383,-0.10483009392967381,-6.0063219481303,0.0,0.0,0.041569158531862424,2.3817373417859544,-13.141304164383087,0.0,-41.14671414067753,11.662769729202667,0.0,-0.4850909675665506,0.0,-86.54861455882424,0.0,0.0,-3.576759097637919,0.0,0.4363323129985824,0.6108652381980153,1.0,0.14,0.14,0.75,0.08726646259971647,5.0,0.184,0.175,0.174,0.0,0.0,0.0,-0.38530941809632024,0.0,0.0549407853420386,0.0,7.2053769943286365,0.0,-0.5908271255913885,0.0,0.08092356103431192,0.0,-5.707519974662552,0.0,0.08213580087133732,0.0,-0.02272763071729514,0.3979914221368763,-0.5208923724415429,0.19667468753084189,0.0,0.0,0.0,0.24344199463178393,0.19667468753084189,0.0,0.0,-0.398470749637868,0.0,0.0,-0.021449179914769,0.0,2.2979297839542783,0.0,2.844354894637311,0.0,-0.6517976162425054,0.0,83.45651581893593,-2.582943134755177,0.0,-2.5882891687855287,0.0,-0.6517976162425054,0.0
sim_raptor_glider_3dof,raptor_glider_3dof,0.034,-14.59809801390813,0.0,-0.011104572325144384,11.595593615512719,0.0,-1.262606206256941,0.0,0.0,0.0,-209.8605694365433,-3.6627579067778617,-0.15700945581734765,0.0,0.0,0.0,0.0,0.0,-0.06688079942201519,-3.831987537342466,0.0,0.0,11.66413158911532,0.011104572325144384,0.03427703308682394,-0.10845942809775196,-6.2142674784038014,0.0,0.0,0.041578628675736765,2.3822799410613356,-13.218957976786374,0.0,-41.2111309878961,11.654050669067706,0.0,-0.4848388711731307,0.0,-85.45325710857333,0.0,0.0,-3.6627579067778617,0.0,0.4363323129985824,0.6108652381980153,1.0,0.14,0.14,0.75,0.08726646259971647,5.0,0.184,0.175,0.174,0.0,0.0,0.0,-0.38835565995560256,0.0,0.05357968827696783,0.0,7.199766997103489,0.0,-0.5917663002989916,0.0,0.07665059993322386,0.0,-5.696650378726618,0.0,0.08346975010171447,0.0,-0.02188075627135413,0.38160773148839167,-0.5192362300335773,0.19500229273334024,0.0,0.0,0.0,0.2233473217366231,0.19500229273334024,0.0,0.0,-0.3940163134011998,0.0,0.0,-0.021981323814428674,0.0,2.274986097879495,0.0,2.6056721940406318,0.0,-0.6435484792846657,0.0,83.33184431508451,-2.543674334341837,0.0,-2.3441011516468526,0.0,-0.6435484792846657,0.0
sim_raptor_glider_3dof,raptor_glider_3dof,0.034999999999999996,-14.586448273007667,0.0,-0.011588926383076978,11.58233597196302,0.0,-1.3038457640525467,0.0,0.0,0.0,-214.72580961791724,-3.747672366843163,-0.1607685029594019,0.0,0.0,0.0,0.0,0.0,-0.07058610491594511,-4.0442859039512875,0.0,0.0,11.655493140312268,0.011588926383076978,0.03425164753684289,-0.11209998006456988,-6.42285574120052,0.0,0.0,0.04151387514862477,2.3785698372492323,-13.296272419693961,0.0,-41.26647246656203,11.645451033549042,0.0,-0.4837257167836918,0.0,-84.37921252613955,0.0,0.0,-3.747672366843163,0.0,0.4363323129985824,0.6108652381980153,1.0,0.14,0.14,0.75,0.08726646259971647,5.0,0.184,0.175,0.174,0.0,0.0,0.0,-0.39145191740822793,0.0,0.05215894001317258,0.0,7.194101974507289,0.0,-0.5927344567167085,0.0,0.07232409881039759,0.0,-5.685619324212194,0.0,0.08486517264100166,0.0,-0.020949558695380652,0.3652256163546857,-0.5176105155703831,0.19332870279564504,0.0,0.0,0.0,0.2033037157136517,0.19332870279564504,0.0,0.0,-0.38964092456929333,0.0,0.0,-0.02250759041431627,0.0,2.252121681464865,0.0,2.3683224449349485,0.0,-0.635459849534357,0.0,83.20845899451778,-2.5029191644675253,0.0,-2.1015230018841025,0.0,-0.635459849534357,0.0
sim_raptor_glider_3dof,raptor_glider_3dof,0.036,-14.57480707202328,0.0,-0.012071739059296762,11.569001186547286,0.0,-1.3451363317970593,0.0,0.0,0.0,-219.5300889752296,-3.831522859813861,-0.1644862641969099,0.0,0.0,0.0,0.0,0.0,-0.07437579121505083,-4.2614189345685975,0.0,0.0,11.646938662389056,0.012071739059296762,0.03422650874956377,-0.1157509993051252,-6.632043734605398,0.0,0.0,0.04137520809007436,2.3706248000368007,-13.37324074245623,0.0,-41.313231783988925,11.636970841679727,0.0,-0.481757029371447,0.0,-83.32509839396405,0.0,0.0,-3.831522859813861,0.0,0.4363323129985824,0.6108652381980153,1.0,0.14,0.14,0.75,0.08726646259971647,5.0,0.184,0.175,0.174,0.0,0.0,0.0,-0.3945915612896194,0.0,0.050684184156969604,0.0,7.188381857186214,0.0,-0.593729942240344,0.0,0.06794630547057483,0.0,-5.6744297104366375,0.0,0.0863164964763529,0.0,-0.01994697566249946,0.34885156201082956,-0.51600993449811,0.19165540624126962,0.0,0.0,0.0,0.1833169511875128,0.19165540624126962,0.0,0.0,-0.38533873026563537,0.0,0.0,-0.023028076987567387,0.0,2.229353095226786,0.0,2.132359428582702,0.0,-0.6275213160049433,0.0,83.08636313731277,-2.4607069354883504,0.0,-1.8606163853686577,0.0,-0.6275213160049433,0.0
sim_raptor_glider_3dof,raptor_glider_3dof,0.037,-14.56317429160389,0.0,-0.012552157442510835,11.555589605735175,0.0,-1.3864695477369555,0.0,0.0,0.0,-224.27451262987827,-3.9143286736969825,-0.16816339172500416,0.0,0.0,0.0,0.0,0.0,-0.07824880332934098,-4.483326182720463,0.0,0.0,11.638468496455053,0.012552157442510835,0.03420161772739443,-0.11941176123965894,-6.8417899432563285,0.0,0.0,0.04116295791031796,2.358463760535866,-13.449863353529693,0.0,-41.35188369271046,11.628609841502726,0.0,-0.4789385107533668,0.0,-82.28951586590247,0.0,0.0,-3.9143286736969825,0.0,0.4363323129985824,0.6108652381980153,1.0,0.14,0.14,0.75,0.08726646259971647,5.0,0.184,0.175,0.174,0.0,0.0,0.0,-0.39776784808821797,0.0,0.049161193895955725,0.0,7.182606550158395,0.0,-0.5947510629591868,0.0,0.06351949677071736,0.0,-5.66308448750192,0.0,0.08781801914987591,0.0,-0.01888622407986599,0.3324919662549363,-0.5144290549144065,0.18998394204306765,0.0,0.0,0.0,0.16339275920881494,0.18998394204306765,0.0,0.0,-0.3811037656083053,0.0,0.0,-0.023542874841500583,0.0,2.2066973524861972,0.0,1.8978360238454852,0.0,-0.6197223439861116,0.0,82.9655589668565,-2.4170689512646075,0.0,-1.6214414771146832,0.0,-0.6197223439861116,0.0
sim_raptor_glider_3dof,raptor_glider_3dof,0.038,-14.5515498127881,0.0,-0.013029334723577264,11.542101572495271,0.0,-1.4278375413910318,0.0,0.0,0.0,-228.9601005184738,-3.996107609744544,-0.17180047798515977,0.0,0.0,0.0,0.0,0.0,-0.08220410603225813,-4.709948334294302,0.0,0.0,11.630082921217863,0.013029334723577264,0.034176975289364545,-0.12308158098767666,-7.052055126391507,0.0,0.0,0.04087747495541853,2.342106792097205,-13.526147116961626,0.0,-41.38287808940623,11.620367526214341,0.0,-0.4752760356956647,0.0,-81.27105435772069,0.0,0.0,-3.996107609744544,0.0,0.4363323129985824,0.6108652381980153,1.0,0.14,0.14,0.75,0.08726646259971647,5.0,0.184,0.175,0.174,0.0,0.0,0.0,-0.4009739448632986,0.0,0.04759585367901409,0.0,7.176775911391999,0.0,-0.5957960914888625,0.0,0.0590459574236597,0.0,-5.651586605861088,0.0,0.0893639259770838,0.0,-0.017780768723229454,0.3161530778820118,-0.5128623136941384,0.1883158922845236,0.0,0.0,0.0,0.14353678340627815,0.1883158922845236,0.0,0.0,-0.37692997445753373,0.0,0.0,-0.024052066917922367,0.0,2.184171838693657,0.0,1.6648037312697317,0.0,-0.6120523103679946,0.0,82.84604782940332,-2.372038330888523,0.0,-1.3840564444370183,0.0,-0.6120523103679946,0.0
sim_raptor_glider_3dof,raptor_glider_3dof,0.039,-14.539933517252944,0.0,-0.013502430117652935,11.528537419792869,0.0,-1.4692328845973865,0.0,0.0,0.0,-233.58779061529702,-4.076876038696044,-0.17539805799916808,0.0,0.0,0.0,0.0,0.0,-0.08624068132615685,-4.941227062321479,0.0,0.0,11.621782148566835,0.013502430117652935,0.034152582058146974,-0.12675980945735002,-7.262802093788654,0.0,0.0,0.04051912813119317,2.3215750314671753,-13.602105040649574,0.0,-41.40664143644023,11.612243134288766,0.0,-0.47077563542540674,0.0,-80.26829390325473,0.0,0.0,-4.076876038696044,0.0,0.4363323129985824,0.6108652381980153,1.0,0.14,0.14,0.75,0.08726646259971647,5.0,0.184,0.175,0.174,0.0,0.0,0.0,-0.4042029384395512,0.0,0.04599414840472917,0.0,7.170889757702195,0.0,-0.5968632699454751,0.0,0.05452797993652143,0.0,-5.639939019417031,0.0,0.09094830088882518,0.0,-0.016644296880803055,0.2998410147086381,-0.5113040298445359,0.1866528827505675,0.0,0.0,0.0,0.1237545954408455,0.1866528827505675,0.0,0.0,-0.3728112206710088,0.0,0.0,-0.024555728119883536,0.0,2.161794316968374,0.0,1.4333128810030484,0.0,-0.6045005213854114,0.0,82.72783013472414,-2.3256499519813496,0.0,-1.1485176466102576,0.0,-0.6045005213854114,0.0
sim_raptor_glider_3dof,raptor_glider_3dof,0.04,-14.528325287560955,0.0,-0.013970608731821698,11.514897464488707,0.0,-1.5106485464279689,0.0,0.0,0.0,-238.15844228302092,-4.156648959259596,-0.17895661182119424,0.0,0.0,0.0,0.0,0.0,-0.09035752615946624,-5.177104896180346,0.0,0.0,11.613566319116337,0.013970608731821698,0.03412843844696094,-0.13044582975635288,-7.473995500121068,0.0,0.0,0.04008830359688664,2.296890603940722,-13.677755971868804,0.0,-41.42357811883903,11.604235649683972,0.0,-0.4654434821940911,0.0,-79.2798072582604,0.0,0.0,-4.156648959259596,0.0,0.4363323129985824,0.6108652381980153,1.0,0.14,0.14,0.75,0.08726646259971647,5.0,0.184,0.175,0.174,0.0,0.0,0.0,-0.4074478439878357,0.0,0.04436215339663992,0.0,7.164947870252457,0.0,-0.5979508126885769,0.0,0.04996786456254689,0.0,-5.6281446885122755,0.0,0.0925651364792482,0.0,-0.015490694773270154,0.2835617797817616,-0.5097484168993627,0.18499658313260894,0.0,0.0,0.0,0.10405170851874099,0.18499658313260894,0.0,0.0,-0.36874129829797764,0.0,0.0,-0.025053925654967196,0.0,2.139582929304391,0.0,1.2034128173711793,0.0,-0.5970562284619592,0.0,82.61090529635422,-2.277940396954477,0.0,-0.9148798108532501,0.0,-0.5970562284619592,0.0
sim_raptor_glider_3dof,raptor_glider_3dof,0.04,-14.528325287560955,0.0,-0.013970608731821698,11.514897464488707,0.0,-1.5106485464279689,0.0,0.0,0.0,-238.15844228302092,-4.156648959259596,-0.17895661182119424,0.0,0.0,0.0,0.0,0.0,-0.09035752615946624,-5.177104896180346,0.0,0.0,11.613566319116337,0.013970608731821698,0.03412843844696094,-0.13044582975635288,-7.473995500121068,0.0,0.0,0.04008830359688664,2.296890603940722,-13.677755971868804,0.0,-41.42357811883903,11.604235649683972,0.0,-0.4654434821940911,0.0,-79.2798072582604,0.0,0.0,-4.156648959259596,0.0,0.4363323129985824,0.6108652381980153,1.0,0.14,0.14,0.75,0.08726646259971647,5.0,0.184,0.175,0.174,0.0,0.0,0.0,-0.4074478439878357,0.0,0.04436215339663992,0.0,7.164947870252457,0.0,-0.5979508126885769,0.0,0.04996786456254689,0.0,-5.6281446885122755,0.0,0.0925651364792482,0.0,-0.015490694773270154,0.2835617797817616,-0.5097484168993627,0.18499658313260894,0.0,0.0,0.0,0.10405170851874099,0.18499658313260894,0.0,0.0,-0.36874129829797764,0.0,0.0,-0.025053925654967196,0.0,2.139582929304391,0.0,1.2034128173711793,0.0,-0.5970562284619592,0.0,82.61090529635422,-2.277940396954477,0.0,-0.9148798108532501,0.0,-0.5970562284619592,0.0
sim_raptor_glider_3dof,raptor_glider_3dof,0.041,-14.516725029774637,0.0,-0.01443296637299439,11.501181746914702,0.0,-1.552077523346266,0.0,0.0,0.0,-242.672668793632,-4.235437075050574,-0.1824764432159054,0.0,0.0,0.0,0.0,0.0,-0.09455388086350776,-5.417538310061794,0.0,0.0,11.605435201406303,0.01443296637299439,0.034104543775621686,-0.1341390287986735,-7.685600218147798,0.0,0.0,0.03958514793516575,2.2680619080860027,-13.753117326024519,0.0,-41.43404628087488,11.59634362342418,0.0,-0.4592828992134566,0.0,-78.30418052766956,0.0,0.0,-4.235437075050574,0.0,0.4363323129985824,0.6108652381980153,1.0,0.14,0.14,0.75,0.08726646259971647,5.0,0.184,0.175,0.174,0.0,0.0,0.0,-0.41070159097656045,0.0,0.042706036375620156,0.0,7.158950040611763,0.0,-0.5990569012942799,0.0,0.045367950615690655,0.0,-5.616206664341498,0.0,0.09420833212983735,0.0,-0.014334033350681782,0.26732138597005134,-0.5081896050768735,0.18334871799740515,0.0,0.0,0.0,0.08443382229008389,0.18334871799740515,0.0,0.0,-0.3647140467704434,0.0,0.0,-0.025546702050226758,0.0,2.1175562141244737,0.0,0.9751547053368489,0.0,-0.5897087835538795,0.0,82.49526745899901,-2.228948258205629,0.0,-0.6831988594544525,0.0,-0.5897087835538795,0.0
sim_raptor_glider_3dof,raptor_glider_3dof,0.042,-14.505132588579375,0.0,-0.014888858976871682,11.487391044662877,0.0,-1.5935144766880684,0.0,0.0,0.0,-247.1314743826928,-4.3132579132860105,-0.18595813921647159,0.0,0.0,0.0,0.0,0.0,-0.09882834440884067,-5.662447030891897,0.0,0.0,11.597389421780028,0.014888858976871682,0.03408089988474544,-0.13783892571919687,-7.897588696327236,0.0,0.0,0.0390105813103562,2.235141665435339,-13.828231378443268,0.0,-41.4384467503923,11.588565939636483,0.0,-0.45230616081640596,0.0,-77.3399447396003,0.0,0.0,-4.3132579132860105,0.0,0.4363323129985824,0.6108652381980153,1.0,0.14,0.14,0.75,0.08726646259971647,5.0,0.184,0.175,0.174,0.0,0.0,0.0,-0.4139571465411225,0.0,0.04103198945151917,0.0,7.152895861238774,0.0,-0.600179726582569,0.0,0.04073045212957758,0.0,-5.604127664522956,0.0,0.09587176161266978,0.0,-0.013188506612275544,0.2511252921905398,-0.506621596522639,0.18171100780186952,0.0,0.0,0.0,0.06490580357941694,0.18171100780186952,0.0,0.0,-0.3607229551829655,0.0,0.0,-0.026034139490306023,0.0,2.0957328756136633,0.0,0.7485800008760262,0.0,-0.5824471238339298,0.0,82.3809229896505,-2.178712399553702,0.0,-0.4535202130781105,0.0,-0.5824471238339298,0.0
sim_raptor_glider_3dof,raptor_glider_3dof,0.043000000000000003,-14.49354784684548,0.0,-0.015337209604693387,11.47352538079466,0.0,-1.6349518355858201,0.0,0.0,0.0,-251.53543394637137,-4.390121507796894,-0.1894019847776777,0.0,0.0,0.0,0.0,0.0,-0.10317996166575895,-5.911776333769611,0.0,0.0,11.58942846599541,0.015337209604693387,0.034057505263144404,-0.14154485617842108,-8.109922870809763,0.0,0.0,0.03836489451266213,2.1981465370401514,-13.903129262010575,0.0,-41.43713524179866,11.580900474253394,0.0,-0.44451813670783363,0.0,-76.38567274592002,0.0,0.0,-4.390121507796894,0.0,0.4363323129985824,0.6108652381980153,1.0,0.14,0.14,0.75,0.08726646259971647,5.0,0.184,0.175,0.174,0.0,0.0,0.0,-0.4172072473737155,0.0,0.03934636216895406,0.0,7.1467852412810124,0.0,-0.6013173961347461,0.0,0.03605784949005381,0.0,-5.591911095291937,0.0,0.09754914098524897,0.0,-0.01206850905399583,0.23497978561111146,-0.5050384080321194,0.18008530662221744,0.0,0.0,0.0,0.045473642284130145,0.18008530662221744,0.0,0.0,-0.35676173961131397,0.0,0.0,-0.02651627786887488,0.0,2.074132643100249,0.0,0.5237427063388295,0.0,-0.5752605014495237,0.0,82.267862064289,-2.127275533490362,0.0,-0.22590141263489472,0.0,-0.5752605014495237,0.0
sim_raptor_glider_3dof,raptor_glider_3dof,0.044,-14.481970737017422,0.0,-0.015777526291208568,11.45958487206198,0.0,-1.6763862390795763,0.0,0.0,0.0,-255.88485636197595,-4.466033249509239,-0.19280805762435044,0.0,0.0,0.0,0.0,0.0,-0.10760815218565177,-6.165492961439312,0.0,0.0,11.58155241159695,0.015777526291208568,0.034034360138696255,-0.1452565133223272,-8.322585160155164,0.0,0.0,0.037648361136675426,2.1570921987158527,-13.977842090020456,0.0,-41.4303557092735,11.573345540072498,0.0,-0.43592347109455754,0.0,-75.43994819163436,0.0,0.0,-4.466033249509239,0.0,0.4363323129985824,0.6108652381980153,1.0,0.14,0.14,0.75,0.08726646259971647,5.0,0.184,0.175,0.174,0.0,0.0,0.0,-0.42044488349280346,0.0,0.037655407434454564,0.0,7.140617517320659,0.0,-0.6024681023491019,0.0,0.031352205788012316,0.0,-5.579559269378176,0.0,0.09923428131538527,0.0,-0.010988452213171592,0.21888961911611743,-0.5034338487793534,0.17847336157519764,0.0,0.0,0.0,0.02614201599069632,0.17847336157519764,0.0,0.0,-0.35282409086132893,0.0,0.0,-0.026993128067409063,0.0,2.0527741304918816,0.0,0.30068159007581624,0.0,-0.5681382498311984,0.0,82.15608330141949,-2.0746785057444175,0.0,-0.0003837047476280553,0.0,-0.5681382498311984,0.0
