name,vehicle,t,north,east,down,u,v,w,p_rad,p_deg,p_hat_div_b,q_deg,q_rad,q_hat_div_c,r_rad,r_deg,r_hat_div_b,phi_rad,phi_deg,theta_rad,theta_deg,psi_rad,psi_deg,speed,altitude,mach,alpha_rad,alpha_deg,beta_rad,beta_deg,gamma_rad,gamma_deg,u_dot,v_dot,w_dot,north_dot,east_dot,down_dot,p_rad_dot,q_rad_dot,r_rad_dot,phi_rad_dot,theta_rad_dot,psi_rad_dot,del_tail_alt_rad,del_tail_splay_rad,DIM_b,DIM_c_bar,DIM_S,DIM_wing_position,DIM_wing_incidence_rad,DIM_wing_incidence_deg,DIM_empennage_length,DIM_nose_length,DIM_tail_length,CDp,CDq,CDr,CYp,CYq,CYr,CLp,CLq,CLr,Clp,Clq,Clr,Cmp,Cmq,Cmr,Cnp,Cnq,Cnr,CL_0,Cm_0,CD_0,Cl_0,CY_0,Cn_0,CL,CD,CY,Cl,Cm,Cn,p_hat,q_hat,r_hat,drag_force_wind,side_force_wind,lift_force_wind,roll_moment_wind,pitch_moment_wind,yaw_moment_wind,qbar,X_total,Y_total,Z_total,L_total,M_total,N_total
sim_raptor_glider_3dof,raptor_glider_3dof,0.0,-15.0,0.0,0.0,12.0,0.0,0.0,0.0,0.0,0.0,0.0,0.0,0.0,0.0,0.0,0.0,0.0,0.0,0.0,0.0,0.0,0.0,12.0,-0.0,0.035264039495724236,0.0,0.0,0.0,0.0,0.0,0.0,-9.380105659150484,0.0,-26.74304372226026,12.0,0.0,0.0,0.0,-108.18768585206242,0.0,0.0,0.0,0.0,0.4363323129985824,0.46609719648876863,1.0,0.14,0.14,0.75,0.08726646259971647,5.0,0.184,0.175,0.174,0.0,0.0,0.0,-0.012964087085040757,0.0,0.04332184979382172,0.0,6.586458484270714,0.0,-0.5282311936679285,0.0,0.19988648277360907,0.0,-4.556387341483479,0.0,-0.04769746118745644,0.0,-0.02710137301572442,0.8139912477650566,-0.4713090104209085,0.20890254150090856,0.0,0.0,0.0,0.8139912477650566,0.20890254150090856,0.0,0.0,-0.4713090104209085,0.0,0.0,0.0,0.0,2.579529056266383,0.0,10.051165773621571,0.0,-0.814761462151882,0.0,88.20001620075907,-2.579529056266383,0.0,-10.051165773621571,0.0,-0.814761462151882,0.0
sim_raptor_glider_3dof,raptor_glider_3dof,0.001,-14.988004692385166,0.0,-0.000013259728219871655,11.990611685814576,0.0,-0.027053678464836195,0.0,0.0,0.0,-6.16902733565894,-0.10766983865278189,-0.004489744452676093,0.0,0.0,0.0,0.0,0.0,-0.000053921260671453594,-0.003089460662499042,0.0,0.0,11.990642205549776,0.000013259728219871655,0.03523654002630044,-0.002256234566447631,-0.12927271824897837,0.0,0.0,0.0022023133057761774,0.1261832575864793,-9.396948261616334,0.0,-27.36028966448439,11.990613127151658,0.0,-0.0264071295274992,0.0,-107.15287077462771,0.0,0.0,-0.10766983865278189,0.0,0.4363323129985824,0.46609719648876863,1.0,0.14,0.14,0.75,0.08726646259971647,5.0,0.184,0.175,0.174,0.0,0.0,0.0,-0.013341328713271684,0.0,0.043256037569352604,0.0,6.586250145799717,0.0,-0.5286276961959553,0.0,0.19713229111227956,0.0,-4.555269469992527,0.0,-0.04703522477305023,0.0,-0.026927329651395375,0.80484381687181,-0.47039311011768004,0.20774519441465478,0.0,0.0,0.0,0.8007039356639641,0.20774519441465478,0.0,0.0,-0.4675298307010119,0.0,0.0,-0.0006285642233746532,0.0,2.5612388632502174,0.0,9.871679793885423,0.0,-0.8069682698037214,0.0,88.06251023267754,-2.5835051504217366,0.0,-9.86587591678374,0.0,-0.8069682698037214,0.0
sim_raptor_glider_3dof,raptor_glider_3dof,0.002,-14.976018776895842,0.0,-0.00005258844295649475,11.981205250668989,0.0,-0.05471261279536358,0.0,0.0,0.0,-12.278915054265553,-0.2143074962696321,-0.008943393311285389,0.0,0.0,0.0,0.0,0.0,-0.00021499573684676787,-0.012318348334625081,0.0,0.0,11.98133017359329,0.00005258844295649475,0.035209175037742194,-0.004566504900248676,-0.2616414579100581,0.0,0.0,0.004351509163401908,0.24932310957543305,-9.416349824617257,0.0,-27.95362467058285,11.981216736742777,0.0,-0.05213670349953297,0.0,-106.12332168921003,0.0,0.0,-0.2143074962696321,0.0,0.4363323129985824,0.46609719648876863,1.0,0.14,0.14,0.75,0.08726646259971647,5.0,0.184,0.175,0.174,0.0,0.0,0.0,-0.013668938363087337,0.0,0.043133065969545276,0.0,6.5860025591283,0.0,-0.5290044811721443,0.0,0.1942856505360401,0.0,-4.554113104367074,0.0,-0.046332224382603863,0.0,-0.026770110600792766,0.7954100678886267,-0.46945982598981484,0.2065565285327123,0.0,0.0,0.0,0.7871638983156684,0.2065565285327123,0.0,0.0,-0.46375773453511415,0.0,0.0,-0.0012520750635799547,0.0,2.54263023638794,0.0,9.68968031689905,0.0,-0.7992147356414407,0.0,87.92578319668982,-2.586851544607335,0.0,-9.677968394702356,0.0,-0.7992147356414407,0.0
sim_raptor_glider_3dof,raptor_glider_3dof,0.003,-14.964042260127894,0.0,-0.00011730451582141828,11.971778126327763,0.0,-0.08295309052194252,0.0,0.0,0.0,-18.329964067223486,-0.31991822474530107,-0.013361028818113414,0.0,0.0,0.0,0.0,0.0,-0.0004821939361187819,-0.02762767744640703,0.0,0.0,11.972065516077292,0.00011730451582141828,0.03518194926702898,-0.006928942560548844,-0.39699916520801865,0.0,0.0,0.006446748624430062,0.3693714877616116,-9.438330540332235,0.0,-28.523448612161015,11.971816734018468,0.0,-0.07718036228481873,0.0,-105.09900410756393,0.0,0.0,-0.31991822474530107,0.0,0.4363323129985824,0.46609719648876863,1.0,0.14,0.14,0.75,0.08726646259971647,5.0,0.184,0.175,0.174,0.0,0.0,0.0,-0.01394703657166559,0.0,0.04295509591755878,0.0,6.585716329532524,0.0,-0.5293620972900952,0.0,0.191350463390244,0.0,-4.552915420053033,0.0,-0.04558927077674849,0.0,-0.026627859743116565,0.7856952676060659,-0.4685090175945609,0.20533962615745502,0.0,0.0,0.0,0.7733763952127133,0.20533962615745502,0.0,0.0,-0.45999258881583427,0.0,0.0,-0.0018705440345358779,0.0,2.5237431031576323,0.0,9.505244458107407,0.0,-0.791500599934064,0.0,87.78985716718402,-2.5895432865103207,0.0,-9.487529553387786,0.0,-0.791500599934064,0.0
sim_raptor_glider_3dof,raptor_glider_3dof,0.004,-14.95207514275908,0.0,-0.0002067179004191541,11.962327721095308,0.0,-0.1117518075543441,0.0,0.0,0.0,-24.322472144894665,-0.4245072211530192,-0.017742729857695216,0.0,0.0,0.0,0.0,0.0,-0.0008544915816304819,-0.04895876125688508,0.0,0.0,11.962849701194818,0.0002067179004191541,0.03515486702869557,-0.00934170667904526,-0.5352403661584657,0.0,0.0,0.008487215097414777,0.48628160490158057,-9.46291628509325,0.0,-29.070169788822888,11.96241884488088,0.0,-0.1015300596657536,0.0,-104.07984146833306,0.0,0.0,-0.4245072211530192,0.0,0.4363323129985824,0.46609719648876863,1.0,0.14,0.14,0.75,0.08726646259971647,5.0,0.184,0.175,0.174,0.0,0.0,0.0,-0.01417644167330792,0.0,0.042725168680482706,0.0,6.585392488333662,0.0,-0.5297015307718548,0.0,0.18833109998211173,0.0,-4.551673209765251,0.0,-0.0448074712709665,0.0,-0.02649822667036225,0.7757049925947898,-0.4675403650417742,0.20409787857334116,0.0,0.0,0.0,0.7593469950049538,0.20409787857334116,0.0,0.0,-0.45623408989918196,0.0,0.0,-0.0024839821800773302,0.0,2.5046208515472967,0.0,9.318452159049572,0.0,-0.7838252860980163,0.0,87.65475204679721,-2.591560547031164,0.0,-9.294648470037622,0.0,-0.7838252860980163,0.0
sim_raptor_glider_3dof,raptor_glider_3dof,0.005,-14.940117419905716,0.0,-0.0003201307580952599,11.952851414448643,0.0,-0.1410858678075356,0.0,0.0,0.0,-30.256731467190654,-0.5280795849942516,-0.022088570484715943,0.0,0.0,0.0,0.0,0.0,-0.0013308694915464912,-0.07625320494833573,0.0,0.0,11.953684041247783,0.0003201307580952599,0.03512793217916419,-0.011802984181519306,-0.6762611792607286,0.0,0.0,0.010472114689972814,0.6000079743123928,-9.490139219732905,0.0,-29.594204277992286,11.953028595745417,0.0,-0.1251780622724562,0.0,-103.06571590065975,0.0,0.0,-0.5280795849942516,0.0,0.4363323129985824,0.46609719648876863,1.0,0.14,0.14,0.75,0.08726646259971647,5.0,0.184,0.175,0.174,0.0,0.0,0.0,-0.014358672556174717,0.0,0.04244720687631666,0.0,6.585032494300112,0.0,-0.5300242061515369,0.0,0.1852323982239077,0.0,-4.550382887457278,0.0,-0.04398823075265671,0.0,-0.026378367397765844,0.7654451333630776,-0.4665533694904995,0.202834983474144,0.0,0.0,0.0,0.7450815797478486,0.202834983474144,0.0,0.0,-0.4524817660506132,0.0,0.0,-0.0030923998678602325,0.0,2.4853102693009688,0.0,9.129386212858918,0.0,-0.7761879064478686,0.0,87.52048539770539,-2.592888655681233,0.0,-9.099416914147351,0.0,-0.7761879064478686,0.0
sim_raptor_glider_3dof,raptor_glider_3dof,0.006,-14.928169081261332,0.0,-0.00045683767034443803,11.94334655032736,0.0,-0.17093279513544773,0.0,0.0,0.0,-36.13302629232632,-0.6306402775107733,-0.026398618552322495,0.0,0.0,0.0,0.0,0.0,-0.0019103135220201078,-0.10945290235852383,0.0,0.0,11.944569680054165,0.00045683767034443803,0.035101148079738353,-0.014310991060112212,-0.8199593883938816,0.0,0.0,0.012400677538092104,0.7105064860353577,-9.520038290971518,0.0,-30.095974996826527,11.943651292951428,0.0,-0.1481169607067259,0.0,-102.05646905509165,0.0,0.0,-0.6306402775107733,0.0,0.4363323129985824,0.46609719648876863,1.0,0.14,0.14,0.75,0.08726646259971647,5.0,0.184,0.175,0.174,0.0,0.0,0.0,-0.014495947803594717,0.0,0.04212601072305663,0.0,6.584638232617856,0.0,-0.5303319849130114,0.0,0.18205965932728005,0.0,-4.549040493581319,0.0,-0.04313325072789533,0.0,-0.02626494758495376,0.7549218917165889,-0.4655473540923649,0.2015549398137466,0.0,0.0,0.0,0.7305863422954804,0.2015549398137466,0.0,0.0,-0.44873498022468783,0.0,0.0,-0.0036958065973251497,0.0,2.465861452777282,0.0,8.938132208799901,0.0,-0.7685872684538952,0.0,87.38707226695828,-2.5935181113374886,0.0,-8.901929223064153,0.0,-0.7685872684538952,0.0
sim_raptor_glider_3dof,raptor_glider_3dof,0.007,-14.916230111319567,0.0,-0.0006161259574742746,11.933810430328387,0.0,-0.20127053958381452,0.0,0.0,0.0,-41.95163072638627,-0.7321940827562607,-0.030672934426317796,0.0,0.0,0.0,0.0,0.0,-0.0025918144144213675,-0.14850002722751524,0.0,0.0,11.935507581042332,0.0006161259574742746,0.035074517561616066,-0.016863973194459873,-0.9662344898643034,0.0,0.0,0.014272158780038506,0.8177344626367883,-9.552659618021966,0.0,-30.57591077874575,11.934292002955008,0.0,-0.1703396763032332,0.0,-101.05190314633793,0.0,0.0,-0.7321940827562607,0.0,0.4363323129985824,0.46609719648876863,1.0,0.14,0.14,0.75,0.08726646259971647,5.0,0.184,0.175,0.174,0.0,0.0,0.0,-0.014591181232423684,0.0,0.04176724989633542,0.0,6.584212011730165,0.0,-0.5306271618774066,0.0,0.17881864156240884,0.0,-4.547641702270014,0.0,-0.042244526953984965,0.0,-0.026154148210018522,0.744141777594154,-0.46452146593381444,0.2002620409297118,0.0,0.0,0.0,0.7158677831342858,0.2002620409297118,0.0,0.0,-0.44499293373187815,0.0,0.0,-0.004294210819684492,0.0,2.4463276965922787,0.0,8.744778475488387,0.0,-0.761021882595071,0.0,87.2545250225747,-2.5934445647759707,0.0,-8.702282176183065,0.0,-0.761021882595071,0.0
sim_raptor_glider_3dof,raptor_glider_3dof,0.008,-14.904300489644537,0.0,-0.0007972760417979235,11.924240305954752,0.0,-0.232077482810359,0.0,0.0,0.0,-47.71280635540291,-0.8327455662682566,-0.03491156961154749,0.0,0.0,0.0,0.0,0.0,-0.0033743675828340793,-0.19333702102215394,0.0,0.0,11.926498515162926,0.0007972760417979235,0.03504804289036682,-0.0194602071267194,-1.114987736811428,0.0,0.0,0.01608583954388532,0.921650715789274,-9.588056769646697,0.0,-31.034445348607434,11.924955532441674,0.0,-0.19183946797311316,0.0,-100.05178216414056,0.0,0.0,-0.8327455662682566,0.0,0.4363323129985824,0.46609719648876863,1.0,0.14,0.14,0.75,0.08726646259971647,5.0,0.184,0.175,0.174,0.0,0.0,0.0,-0.014647974112779363,0.0,0.04137745126537166,0.0,6.58375655814361,0.0,-0.5309124595492899,0.0,0.1755155517495292,0.0,-4.5461818301103305,0.0,-0.04132434563439831,0.0,-0.026041673504710844,0.7331116038633445,-0.46347467875700943,0.19896086581746458,0.0,0.0,0.0,0.7009327053094287,0.19896086581746458,0.0,0.0,-0.44125467067699853,0.0,0.0,-0.004887619745616649,0.0,2.426765362377429,0.0,8.549416005070055,0.0,-0.7534899714781426,0.0,87.12285318761593,-2.5926687748125437,0.0,-8.500574849731924,0.0,-0.7534899714781426,0.0
sim_raptor_glider_3dof,raptor_glider_3dof,0.009000000000000001,-14.892380191132984,0.0,-0.0009995617780436568,11.914633371294284,0.0,-0.2633324422454329,0.0,0.0,0.0,-53.416800165790576,-0.9322990387728984,-0.03911456559733279,0.0,0.0,0.0,0.0,0.0,-0.004256972880601934,-0.2439065795601393,0.0,0.0,11.917543049953641,0.0009995617780436568,0.03502172573379659,-0.022098000752685892,-1.2661221788058181,0.0,0.0,0.01784102787208396,1.0222155992456787,-9.6262909365426,0.0,-31.47201629786433,11.915646409727406,0.0,-0.21260993826426086,0.0,-99.05583321763571,0.0,0.0,-0.9322990387728984,0.0,0.4363323129985824,0.46609719648876863,1.0,0.14,0.14,0.75,0.08726646259971647,5.0,0.184,0.175,0.174,0.0,0.0,0.0,-0.014670604300678618,0.0,0.040963982812346755,0.0,6.583275009350673,0.0,-0.5311910205639366,0.0,0.1721570347025027,0.0,-4.544655846397621,0.0,-0.040375278291814795,0.0,-0.025922760982969417,0.72183847937571,-0.46240579641615503,0.19765626866979344,0.0,0.0,0.0,0.685788207467916,0.19765626866979344,0.0,0.0,-0.437519082925184,0.0,0.0,-0.005476039183626592,0.0,2.4072337287779737,0.0,8.352138360827226,0.0,-0.7459894799620146,0.0,86.99206329172253,-2.591196539462196,0.0,-8.296908455397539,0.0,-0.7459894799620146,0.0
sim_raptor_glider_3dof,raptor_glider_3dof,0.01,-14.880469186294803,0.0,-0.0012222507902012389,11.90498675555828,0.0,-0.29501467424966776,0.0,0.0,0.0,-59.0638425397197,-1.0308585211975985,-0.04328195276549221,0.0,0.0,0.0,0.0,0.0,-0.005238634333244712,-0.30015163770725206,0.0,0.0,11.908641539153015,0.0012222507902012389,0.03499556713142618,-0.02477569394996246,-1.419542697840657,0.0,0.0,0.01953705961671775,1.1193910601334047,-9.66743100148539,0.0,-31.889064023357697,11.906368866864327,0.0,-0.23264503907157746,0.0,-98.06374800710627,0.0,0.0,-1.0308585211975985,0.0,0.4363323129985824,0.46609719648876863,1.0,0.14,0.14,0.75,0.08726646259971647,5.0,0.184,0.175,0.174,0.0,0.0,0.0,-0.01466401252520125,0.0,0.040535034041007625,0.0,6.582770905015551,0.0,-0.5314663983895186,0.0,0.16875016077427793,0.0,-4.543058384724248,0.0,-0.03940017541792404,0.0,-0.025792193388058184,0.7103298003403011,-0.461313457001054,0.1963533667744732,0.0,0.0,0.0,0.6704416752275296,0.1963533667744732,0.0,0.0,-0.4337849156224628,0.0,0.0,-0.00605947338716891,0.0,2.3877948237035995,0.0,8.153041569906943,0.0,-0.7385180862415174,0.0,86.86215873119359,-2.5890386029929107,0.0,-8.09138616511095,0.0,-0.7385180862415174,0.0
sim_raptor_glider_3dof,raptor_glider_3dof,0.01,-14.880469186294803,0.0,-0.0012222507902012389,11.90498675555828,0.0,-0.29501467424966776,0.0,0.0,0.0,-59.0638425397197,-1.0308585211975985,-0.04328195276549221,0.0,0.0,0.0,0.0,0.0,-0.005238634333244712,-0.30015163770725206,0.0,0.0,11.908641539153015,0.0012222507902012389,0.03499556713142618,-0.02477569394996246,-1.419542697840657,0.0,0.0,0.01953705961671775,1.1193910601334047,-6.104765477520087,0.0,-11.927546385570443,11.906368866864327,0.0,-0.23264503907157746,0.0,130.40178426535252,0.0,0.0,-1.0308585211975985,0.0,-0.4363323129985824,0.5622885357865499,1.0,0.14,0.14,0.75,0.08726646259971647,5.0,0.184,0.175,0.174,0.0,0.0,0.0,-2.635677048455321,0.0,0.3910970207304096,0.0,5.846643293180032,0.0,-0.9112389231198368,0.0,0.20924226966910453,0.0,-3.147476885580388,0.0,0.7592668641174739,0.0,-0.13069139061098778,0.25260565033833643,0.5577601422864938,0.1269953551081919,0.0,0.0,0.0,0.21717807089904242,0.1269953551081919,0.0,0.0,0.5768321947113975,0.0,0.0,-0.00605947338716891,0.0,1.5443526970944887,0.0,2.6410378494313855,0.0,0.9820558373023699,0.0,86.86215873119359,-1.6093055839024522,0.0,-2.601968814719455,0.0,0.9820558373023699,0.0
sim_raptor_glider_3dof,raptor_glider_3dof,0.011,-14.868565719162401,0.0,-0.001454745636242043,11.898897630665036,0.0,-0.30617974247853136,0.0,0.0,0.0,-51.616663619305776,-0.9008807290512587,-0.0378431119239843,0.0,0.0,0.0,0.0,0.0,-0.0062044336751649835,-0.35548786385579595,0.0,0.0,11.902836252748765,0.001454745636242043,0.034978507310672556,-0.025726096860095544,-1.4739967734282338,0.0,0.0,0.01952166318493056,1.1185089095724376,-6.073144089632635,0.0,-10.406325479609462,11.900568267100995,0.0,-0.2323484018000881,0.0,129.55715913714798,0.0,0.0,-0.9008807290512587,0.0,-0.4363323129985824,0.5622885357865499,1.0,0.14,0.14,0.75,0.08726646259971647,5.0,0.184,0.175,0.174,0.0,0.0,0.0,-2.6438673148089977,0.0,0.3897947932770256,0.0,5.844405096104085,0.0,-0.9125722761020264,0.0,0.20794030873339162,0.0,-3.140547084295912,0.0,0.7619241811311271,0.0,-0.13009000231017634,0.24919305430036404,0.5570164260810921,0.12703306366868444,0.0,0.0,0.0,0.21822918763502808,0.12703306366868444,0.0,0.0,0.5736551565549896,0.0,0.0,-0.005298035669357802,0.0,1.54330548155533,0.0,2.6512334016512455,0.0,0.9756949654618614,0.0,86.77749134106381,-1.6109931692634094,0.0,-2.6106572674360375,0.0,0.9756949654618614,0.0
sim_raptor_glider_3dof,raptor_glider_3dof,0.012,-14.856668049807912,0.0,-0.0016869662093153726,11.892841777237463,0.0,-0.3158393039883672,0.0,0.0,0.0,-44.21701344565715,-0.7717324700253201,-0.03243381543791039,0.0,0.0,0.0,0.0,0.0,-0.007040700213444011,-0.4034024070471997,0.0,0.0,11.897034924902446,0.0016869662093153726,0.034961459122814204,-0.026550852157889434,-1.521251771122879,0.0,0.0,0.01951015194444542,1.1178493640756793,-6.038275494162986,0.0,-8.915779765676493,11.894770717175726,0.0,-0.23209823387412343,0.0,128.74222718985084,0.0,0.0,-0.7717324700253201,0.0,-0.4363323129985824,0.5622885357865499,1.0,0.14,0.14,0.75,0.08726646259971647,5.0,0.184,0.175,0.174,0.0,0.0,0.0,-2.6509711115870127,0.0,0.3886538151388016,0.0,5.842454682387129,0.0,-0.9137311975632073,0.0,0.20680877415235133,0.0,-3.134533045994718,0.0,0.7642264277721411,0.0,-0.1295654480114718,0.24622967660495934,0.5563697843673342,0.12706899185597476,0.0,0.0,0.0,0.2197006430427534,0.12706899185597476,0.0,0.0,0.5706028656490295,0.0,0.0,-0.004540734161307455,0.0,1.5422375244262485,0.0,2.6665087279920776,0.0,0.9695577129667666,0.0,86.69292292659657,-1.6124837190729684,0.0,-2.624625998867446,0.0,0.9695577129667666,0.0
sim_raptor_glider_3dof,raptor_glider_3dof,0.013000000000000001,-14.84477617689079,0.0,-0.0019189644353093437,11.886821957134874,0.0,-0.32402149613559356,0.0,0.0,0.0,-36.86333328080256,-0.643386539010008,-0.027052968460483582,0.0,0.0,0.0,0.0,0.0,-0.007748170689547392,-0.4439374794580344,0.0,0.0,11.89123736919677,0.0019189644353093437,0.034944422020032236,-0.02725213506964353,-1.561432322211034,0.0,0.0,0.01950396438009614,1.1174948427529998,-6.000756863012162,0.0,-7.455252778740894,11.888975700038653,0.0,-0.23191156605939928,0.0,127.95600760768937,0.0,0.0,-0.643386539010008,0.0,-0.4363323129985824,0.5622885357865499,1.0,0.14,0.14,0.75,0.08726646259971647,5.0,0.184,0.175,0.174,0.0,0.0,0.0,-2.6570087469687214,0.0,0.38767560084318414,0.0,5.840790276880471,0.0,-0.914717813814309,0.0,0.20584540742741803,0.0,-3.129419219342687,0.0,0.7661811190710405,0.0,-0.12911756147400624,0.2437085152160026,0.5558189537674811,0.12710196590808887,0.0,0.0,0.0,0.22158701509573808,0.12710196590808887,0.0,0.0,0.5676713648891524,0.0,0.0,-0.003787415584467702,0.0,1.5411346085359914,0.0,2.686783129799695,0.0,0.9636366932935088,0.0,86.60845068789835,-1.6137738737656602,0.0,-2.6437914729711576,0.0,0.9636366932935088,0.0
sim_raptor_glider_3dof,raptor_glider_3dof,0.014,-14.832890097615428,0.0,-0.0021508173807717125,11.880840825943682,0.0,-0.33075867751592514,0.0,0.0,0.0,-29.553856784957013,-0.5158121075603657,-0.021699320017540685,0.0,0.0,0.0,0.0,0.0,-0.008327705717543463,-0.4771423906422053,0.0,0.0,11.885444040260433,0.0021508173807717125,0.03492739733833034,-0.027832480115043516,-1.5946836439737815,0.0,0.0,0.019504774397500053,1.117541253331576,-5.961158903476912,0.0,-6.023986988070311,11.883183285207169,0.0,-0.2318082059272333,0.0,127.19746892460559,0.0,0.0,-0.5158121075603657,0.0,-0.4363323129985824,0.5622885357865499,1.0,0.14,0.14,0.75,0.08726646259971647,5.0,0.184,0.175,0.174,0.0,0.0,0.0,-2.662003337773069,0.0,0.3868604436157958,0.0,5.839408712658131,0.0,-0.915535025363739,0.0,0.2050473253092727,0.0,-3.1251872750874052,0.0,0.7677966263846935,0.0,-0.12874567369460707,0.24162114086689496,0.5553623731910715,0.1271309869971454,0.0,0.0,0.0,0.22388157309520917,0.1271309869971454,0.0,0.0,0.5648563946226329,0.0,0.0,-0.0030379048024556958,0.0,1.5399848572332895,0.0,2.7119606362210615,0.0,0.9579241384712047,0.0,86.52408116384426,-1.614859269174051,0.0,-2.668054233647253,0.0,0.9579241384712047,0.0
sim_raptor_glider_3dof,raptor_glider_3dof,0.015,-14.821009809599463,0.0,-0.002382616363556863,11.874900088514867,0.0,-0.3360789242156517,0.0,0.0,0.0,-22.287072970027403,-0.38898280395920964,-0.01637180567910321,0.0,0.0,0.0,0.0,0.0,-0.008780040100585954,-0.5030592417191939,0.0,0.0,11.879654925775931,0.002382616363556863,0.03491038504151145,-0.02829406847893821,-1.6211307090972962,0.0,0.0,0.019514028378352255,1.1180714673781023,-5.920020452435873,0.0,-4.621322482586951,11.87739312726977,0.0,-0.23180521089312964,0.0,126.46566367952938,0.0,0.0,-0.38898280395920964,0.0,-0.4363323129985824,0.5622885357865499,1.0,0.14,0.14,0.75,0.08726646259971647,5.0,0.184,0.175,0.174,0.0,0.0,0.0,-2.6659746967048097,0.0,0.3862084237730314,0.0,5.838307134445376,0.0,-0.9161854396827612,0.0,0.20441200905209922,0.0,-3.121821359116006,0.0,0.7690801523973977,0.0,-0.12844911258083694,0.23996026466831746,0.5549987169110361,0.12715521622250148,0.0,0.0,0.0,0.22657855648230885,0.12715521622250148,0.0,0.0,0.562154096282921,0.0,0.0,-0.00229205279507445,0.0,1.5387782550329738,0.0,2.7419571617231004,0.0,0.9524129131705359,0.0,86.43981408519285,-1.6157331311371754,0.0,-2.6973272037023213,0.0,0.9524129131705359,0.0
sim_raptor_glider_3dof,raptor_glider_3dof,0.016,-14.809135310652495,0.0,-0.0026144684854702603,11.869001084444097,0.0,-0.34001057751879066,0.0,0.0,0.0,-15.061471136862936,-0.2628722615323517,-0.011069358883135916,0.0,0.0,0.0,0.0,0.0,-0.009105908698073421,-0.5217301370310733,0.0,0.0,11.873870217218975,0.0026144684854702603,0.03489338569225947,-0.02863910882550022,-1.6409000647170306,0.0,0.0,0.0195332001274268,1.1191699276859575,-5.877855280762621,0.0,-3.2465903683097874,11.871605075949523,0.0,-0.2319199345665432,0.0,125.7596487951687,0.0,0.0,-0.2628722615323517,0.0,-0.4363323129985824,0.5622885357865499,1.0,0.14,0.14,0.75,0.08726646259971647,5.0,0.184,0.175,0.174,0.0,0.0,0.0,-2.668942632379176,0.0,0.38571890053169183,0.0,5.837482113013895,0.0,-0.9166718550242383,0.0,0.20393679109232965,0.0,-3.1193053595695637,0.0,0.7700387668067032,0.0,-0.12822699704866677,0.23871837554883255,0.5547265762231798,0.12717400323953798,0.0,0.0,0.0,0.22967196972123533,0.12717400323953798,0.0,0.0,0.5595605956919428,0.0,0.0,-0.0015497102436390284,0.0,1.5375071580322497,0.0,2.7766861815354167,0.0,0.9470959150764156,0.0,86.35565214739039,-1.616387618113351,0.0,-2.731520726580706,0.0,0.9470959150764156,0.0
sim_raptor_glider_3dof,raptor_glider_3dof,0.017,-14.79726659880881,0.0,-0.002846500833967568,11.86314456665217,0.0,-0.34258120963087474,0.0,0.0,0.0,-7.875602978050132,-0.1374552025468455,-0.005790957189886834,0.0,0.0,0.0,0.0,0.0,-0.009306016246513331,-0.5331954550053898,0.0,0.0,11.868090027231892,0.002846500833967568,0.03487639962159303,-0.02886975086739975,-1.6541148802961532,0.0,0.0,0.019563734620886418,1.1209194252907635,-5.835153024251887,0.0,-1.8991380487381129,11.86581890498928,0.0,-0.232169353016316,0.0,125.07849621172207,0.0,0.0,-0.1374552025468455,0.0,-0.4363323129985824,0.5622885357865499,1.0,0.14,0.14,0.75,0.08726646259971647,5.0,0.184,0.175,0.174,0.0,0.0,0.0,-2.6709262235739426,0.0,0.38539065702050224,0.0,5.836929869313467,0.0,-0.9169970991252919,0.0,0.20361898219823726,0.0,-3.1176235699766486,0.0,0.7706791489037603,0.0,-0.12807832165920027,0.23788805711118058,0.5545445139519707,0.12718688791333066,0.0,0.0,0.0,0.23315585957208132,0.12718688791333066,0.0,0.0,0.5570720773998791,0.0,0.0,-0.0008107340065841569,0.0,1.5361662294039204,0.0,2.816061966280206,0.0,0.941966154970479,0.0,86.27159689441272,-1.6168138199661903,0.0,-2.770545930652898,0.0,0.941966154970479,0.0
sim_raptor_glider_3dof,raptor_glider_3dof,0.018000000000000002,-14.785403672285131,0.0,-0.003078857147608242,11.85733081686226,0.0,-0.3438177529787646,0.0,0.0,0.0,-0.728072393069921,-0.012707260451944466,-0.0005356147182212787,0.0,0.0,0.0,0.0,0.0,-0.009381042913513741,-0.5374941663754467,0.0,0.0,11.862314476853781,0.003078857147608242,0.03485942718520609,-0.028988095923713066,-1.6608955525491442,0.0,0.0,0.019607053010199327,1.1234013861736978,-5.792381004415855,0.0,-0.5783263197540176,11.860034396406455,0.0,-0.2325701266942973,0.0,124.4212895501501,0.0,0.0,-0.012707260451944466,0.0,-0.4363323129985824,0.5622885357865499,1.0,0.14,0.14,0.75,0.08726646259971647,5.0,0.184,0.175,0.174,0.0,0.0,0.0,-2.6719439262852926,0.0,0.3852219128555271,0.0,5.836646270281199,0.0,-0.9171640150274825,0.0,0.2034558643829727,0.0,-3.116760635206274,0.0,0.7710076092910688,0.0,-0.12800197266085414,0.23746195575996756,0.5544510481730686,0.1271936016280207,0.0,0.0,0.0,0.23702428864932962,0.1271936016280207,0.0,0.0,0.5546847617747831,0.0,0.0,-0.00007498606055097903,0.0,1.5347524665162753,0.0,2.859999300064517,0.0,0.9370167316021805,0.0,86.18764998913558,-1.6170020014032926,0.0,-2.814314420477048,0.0,0.9370167316021805,0.0
sim_raptor_glider_3dof,raptor_glider_3dof,0.019000000000000003,-14.773546529526403,0.0,-0.003311696861487334,11.851559683526455,0.0,-0.34374653879118566,0.0,0.0,0.0,6.382466980707074,0.11139506321315984,0.004697619558873401,0.0,0.0,0.0,0.0,0.0,-0.009331646189477688,-0.5346639425664085,0.0,0.0,11.856543704432612,0.003311696861487334,0.03484246878965768,-0.028996200011346136,-1.6613598825673233,0.0,0.0,0.01966455382186845,1.126695940000915,-5.749985647106302,0.0,0.7164711165665967,11.854251347135099,0.0,-0.2331386155623127,0.0,123.78712215302482,0.0,0.0,0.11139506321315984,0.0,-0.4363323129985824,0.5622885357865499,1.0,0.14,0.14,0.75,0.08726646259971647,5.0,0.184,0.175,0.174,0.0,0.0,0.0,-2.672013614512778,0.0,0.3852103495969849,0.0,5.836626843979972,0.0,-0.9171754458816327,0.0,0.2034446931743298,0.0,-3.1167015430424057,0.0,0.7710300985842072,0.0,-0.1279967428738886,0.23743277561605922,0.5544446465885968,0.1271940639259216,0.0,0.0,0.0,0.24127133095487682,0.1271940639259216,0.0,0.0,0.5523948956507094,0.0,0.0,0.0006576667382422761,0.0,1.5332651513969635,0.0,2.9084134303604503,0.0,0.93224081693443,0.0,86.10381334248561,-1.6169417479855674,0.0,-2.862738215417325,0.0,0.93224081693443,0.0
sim_raptor_glider_3dof,raptor_glider_3dof,0.02,-14.76169516917898,0.0,-0.003545195621905428,11.84583057847595,0.0,-0.34239327849622114,0.0,0.0,0.0,13.457309812448548,0.23487436468816775,0.009909660276931057,0.0,0.0,0.0,0.0,0.0,-0.009158460491930294,-0.5247411330249135,0.0,0.0,11.850777833168388,0.003545195621905428,0.03482552479699194,-0.02889607220045725,-1.6556229815915062,0.0,0.0,0.019737611708526955,1.1308818485665926,-5.708393623632465,0.0,1.985866645936622,11.848469534698905,0.0,-0.23389086435158202,0.0,123.17509640064209,0.0,0.0,0.23487436468816775,0.0,-0.4363323129985824,0.5622885357865499,1.0,0.14,0.14,0.75,0.08726646259971647,5.0,0.184,0.175,0.174,0.0,0.0,0.0,-2.6711525785209833,0.0,0.3853531450399855,0.0,5.836866807434097,0.0,-0.9170342214946656,0.0,0.20358270559888839,0.0,-3.1174316424732775,0.0,0.7707522098375977,0.0,-0.12806134435620772,0.23779329041362937,0.5545237288716726,0.1271883750953917,0.0,0.0,0.0,0.24589108181370076,0.1271883750953917,0.0,0.0,0.5501987524797874,0.0,0.0,0.0013873524387703479,0.0,1.5317057419850872,0.0,2.961220171532929,0.0,0.9276316509932356,0.0,86.0200886416536,-1.6166220368163258,0.0,-2.9157298527818782,0.0,0.9276316509932356,0.0
sim_raptor_glider_3dof,raptor_glider_3dof,0.02,-14.76169516917898,0.0,-0.003545195621905428,11.84583057847595,0.0,-0.34239327849622114,0.0,0.0,0.0,13.457309812448548,0.23487436468816775,0.009909660276931057,0.0,0.0,0.0,0.0,0.0,-0.009158460491930294,-0.5247411330249135,0.0,0.0,11.850777833168388,0.003545195621905428,0.03482552479699194,-0.02889607220045725,-1.6556229815915062,0.0,0.0,0.019737611708526955,1.1308818485665926,-7.461477464426054,0.0,-16.289484943475703,11.848469534698905,0.0,-0.23389086435158202,0.0,-86.80047458693947,0.0,0.0,0.23487436468816775,0.0,0.4363323129985824,0.3490658503988659,1.0,0.14,0.14,0.75,0.08726646259971647,5.0,0.184,0.175,0.174,0.0,0.0,0.0,-0.05692045680300648,0.0,0.05459573897894003,0.0,6.019037928989188,0.0,-0.5339269139424836,0.0,0.16527302209393085,0.0,-3.431668575240313,0.0,-0.027385680575042533,0.0,-0.025627129685253117,0.655844209131294,-0.38295958952012105,0.15514641174235014,0.0,0.0,0.0,0.6641947360811284,0.15514641174235014,0.0,0.0,-0.38772052328703227,0.0,0.0,0.0013873524387703479,0.0,1.8683991326716025,0.0,7.9987726102225745,0.0,-0.6536943741142413,0.0,86.0200886416536,-2.098720093034563,0.0,-7.941451539870267,0.0,-0.6536943741142413,0.0
sim_raptor_glider_3dof,raptor_glider_3dof,0.021,-14.749850385560542,0.0,-0.003788566636188953,11.838355087588821,0.0,-0.35897631188612217,0.0,0.0,0.0,8.49941263152097,0.14834273490563651,0.006262465548802601,0.0,0.0,0.0,0.0,0.0,-0.008966881471676364,-0.5137644637211121,0.0,0.0,11.843796484756712,0.003788566636188953,0.034805008918148375,-0.030313869146577684,-1.736856762810744,0.0,0.0,0.02134698767490132,1.223092299089632,-7.489618299875775,0.0,-16.875104732618144,11.841098014428512,0.0,-0.25281017588819193,0.0,-86.2631189293684,0.0,0.0,0.14834273490563651,0.0,0.4363323129985824,0.3490658503988659,1.0,0.14,0.14,0.75,0.08726646259971647,5.0,0.184,0.175,0.174,0.0,0.0,0.0,-0.05711444437811574,0.0,0.05461030608420949,0.0,6.018687340919229,0.0,-0.5342720390182134,0.0,0.16365715662042507,0.0,-3.430467175630856,0.0,-0.026950067858999147,0.0,-0.025446675128260987,0.6498536685888162,-0.3827670058803032,0.15467095666700797,0.0,0.0,0.0,0.6551305236858291,0.15467095666700797,0.0,0.0,-0.3857746514308193,0.0,0.0,0.0008767451768323642,0.0,1.8604793437694556,0.0,7.880321122047723,0.0,-0.6496475486570735,0.0,85.91876882479035,-2.0984710223217395,0.0,-7.82031097486924,0.0,-0.6496475486570735,0.0
sim_raptor_glider_3dof,raptor_glider_3dof,0.022,-14.738012976668113,0.0,-0.004050630140435298,11.830850757730182,0.0,-0.3761368554325705,0.0,0.0,0.0,3.57221711953929,0.062346950332068475,0.0026336003098526035,0.0,0.0,0.0,0.0,0.0,-0.008861556331083112,-0.5077297776884967,0.0,0.0,11.836828485101046,0.004050630140435298,0.03478453226689308,-0.03178217766999311,-1.8209846442255337,0.0,0.0,0.02292062133891,1.3132548665370372,-7.519145445050383,0.0,-17.44481990742714,11.833719353401735,0.0,-0.2712837087345095,0.0,-85.7286590270325,0.0,0.0,0.062346950332068475,0.0,0.4363323129985824,0.3490658503988659,1.0,0.14,0.14,0.75,0.08726646259971647,5.0,0.184,0.175,0.174,0.0,0.0,0.0,-0.05731742408702864,0.0,0.05462388881006084,0.0,6.018320253403928,0.0,-0.534627127866114,0.0,0.16198000828114642,0.0,-3.4292220758594745,0.0,-0.026494539031741333,0.0,-0.025262087399654257,0.6436415616740386,-0.3825716493003952,0.15418641930037738,0.0,0.0,0.0,0.6458605406858205,0.15418641930037738,0.0,0.0,-0.3838360173454104,0.0,0.0,0.0003687040433793645,0.0,1.8524693916248707,0.0,7.759677462565237,0.0,-0.6456225311325818,0.0,85.81770227191174,-2.098111805605447,0.0,-7.6968931408152566,0.0,-0.6456225311325818,0.0
sim_raptor_glider_3dof,raptor_glider_3dof,0.023,-14.726182948234305,0.0,-0.004330972402650848,11.823316285073068,0.0,-0.39386038572421084,0.0,0.0,0.0,-1.3244238255255119,-0.023115556447279098,-0.00097699921394725,0.0,0.0,0.0,0.0,0.0,-0.00884199751382541,-0.5066091400073628,0.0,0.0,11.82987463924774,0.004330972402650848,0.03476409720899156,-0.03329986139806594,-1.9079415164797875,0.0,0.0,0.02445786388424053,1.4013323764724246,-7.550104029814181,0.0,-17.998897869518395,11.82633657638555,0.0,-0.28930461863255885,0.0,-85.19694425729122,0.0,0.0,-0.023115556447279098,0.0,0.4363323129985824,0.3490658503988659,1.0,0.14,0.14,0.75,0.08726646259971647,5.0,0.184,0.175,0.174,0.0,0.0,0.0,-0.05752962925281507,0.0,0.054635114066583584,0.0,6.017937355311367,0.0,-0.5349912985146844,0.0,0.16024199148595183,0.0,-3.4279346259594976,0.0,-0.026018611492618953,0.0,-0.025073700078218113,0.6372122346124298,-0.38237281070030193,0.15369378561789504,0.0,0.0,0.0,0.6363891018032286,0.15369378561789504,0.0,0.0,-0.38190393817939844,0.0,0.0,-0.000136779889952615,0.0,1.8443816859589313,0.0,7.636902167455403,0.0,-0.6416181872016602,0.0,85.71690030759932,-2.0976199675501173,0.0,-7.571262047408001,0.0,-0.6416181872016602,0.0
sim_raptor_glider_3dof,raptor_glider_3dof,0.024,-14.714360303624153,0.0,-0.004629096385840104,11.815750092889513,0.0,-0.4121299681134691,0.0,0.0,0.0,-6.190676880093152,-0.1080476944847157,-0.004569410678038584,0.0,0.0,0.0,0.0,0.0,-0.00890762440886651,-0.5103692841157658,0.0,0.0,11.8229353955875,0.004629096385840104,0.03474370506211613,-0.03486557815656923,-1.9976504786549298,0.0,0.0,0.02595795374770272,1.4872811945391642,-7.582530704341653,0.0,-18.53764920414204,11.818952381495095,0.0,-0.3068647457547859,0.0,-84.66776641558738,0.0,0.0,-0.1080476944847157,0.0,0.4363323129985824,0.3490658503988659,1.0,0.14,0.14,0.75,0.08726646259971647,5.0,0.184,0.175,0.174,0.0,0.0,0.0,-0.057751299035073665,0.0,0.054642368104687304,0.0,6.017539550020963,0.0,-0.5353635472021159,0.0,0.15844365754680603,0.0,-3.4266064455754788,0.0,-0.02552179201118345,0.0,-0.02488186291124829,0.6305709798795166,-0.3821695534792218,0.1531940682404583,0.0,0.0,0.0,0.6267214545529627,0.1531940682404583,0.0,0.0,-0.37997749338776304,0.0,0.0,-0.0006397174949254018,0.0,1.8362287838897113,0.0,7.512066149487191,0.0,-0.6376329488757886,0.0,85.61636906423388,-2.0969722980740104,0.0,-7.443492537926441,0.0,-0.6376329488757886,0.0
sim_raptor_glider_3dof,raptor_glider_3dof,0.025,-14.702545042748715,0.0,-0.0049445463628827475,11.8081507246792,0.0,-0.4309307212341021,0.0,0.0,0.0,-11.026676902160936,-0.19245181749631698,-0.008143687890196968,0.0,0.0,0.0,0.0,0.0,-0.009057918165977265,-0.5189804820853764,0.0,0.0,11.816011375385742,0.0049445463628827475,0.0347233576519608,-0.0364781559920107,-2.090044382762068,0.0,0.0,0.027420237826033436,1.5710639006766915,-7.616455410906428,0.0,-19.061348925782546,11.811569604756523,0.0,-0.32395724291500894,0.0,-84.14085832682932,0.0,0.0,-0.19245181749631698,0.0,0.4363323129985824,0.3490658503988659,1.0,0.14,0.14,0.75,0.08726646259971647,5.0,0.184,0.175,0.174,0.0,0.0,0.0,-0.05798273154857152,0.0,0.05464379107998452,0.0,6.0171278678898785,0.0,-0.5357428367668015,0.0,0.156585261745267,0.0,-3.4252391087684724,0.0,-0.025003457590256684,0.0,-0.02468689399998195,0.6237224484412057,-0.38196065353224457,0.15268818030389586,0.0,0.0,0.0,0.6168622228519955,0.15268818030389586,0.0,0.0,-0.3780554825770896,0.0,0.0,-0.0011401163046275758,0.0,1.8280220442571475,0.0,7.385232697112319,0.0,-0.6336648040593517,0.0,85.51611716201272,-2.0961458729523526,0.0,-7.313651554735965,0.0,-0.6336648040593517,0.0
sim_raptor_glider_3dof,raptor_glider_3dof,0.026000000000000002,-14.690737162792635,0.0,-0.005276852186105337,11.80051667328087,0.0,-0.4502477630396952,0.0,0.0,0.0,-15.832544517353773,-0.27633003079639984,-0.011699873719686818,0.0,0.0,0.0,0.0,0.0,-0.009292352915922068,-0.5324126038284184,0.0,0.0,11.809103132943756,0.005276852186105337,0.03470305660743411,-0.03813642031404608,-2.185055929731818,0.0,0.0,0.02884406739812401,1.6526433259033995,-7.651900887959531,0.0,-19.570271875607425,11.804191003388853,0.0,-0.34057533676956286,0.0,-83.6158923678734,0.0,0.0,-0.27633003079639984,0.0,0.4363323129985824,0.3490658503988659,1.0,0.14,0.14,0.75,0.08726646259971647,5.0,0.184,0.175,0.174,0.0,0.0,0.0,-0.05822426067977158,0.0,0.054637267788422324,0.0,6.0167035157521545,0.0,-0.5361280529231365,0.0,0.1546669582688151,0.0,-3.4238342939608835,0.0,-0.024462907520023,0.0,-0.024489100728014798,0.61667138489606,-0.38174461287967404,0.15217698964123466,0.0,0.0,0.0,0.6068161309080266,0.15217698964123466,0.0,0.0,-0.37613643283696746,0.0,0.0,-0.0016379823207561548,0.0,1.819772207880084,0.0,7.256465862040759,0.0,-0.6297112854224546,0.0,85.41615223217075,-2.095117599032461,0.0,-7.181806871655638,0.0,-0.6297112854224546,0.0
sim_raptor_glider_3dof,raptor_glider_3dof,0.027,-14.678936658378577,0.0,-0.005625536543266561,11.792846410394727,0.0,-0.47006643659328523,0.0,0.0,0.0,-20.608381379237844,-0.35968410857439054,-0.015237996628794001,0.0,0.0,0.0,0.0,0.0,-0.009610403556925919,-0.5506355632293696,0.0,0.0,11.80221118748395,0.005625536543266561,0.03468280345435937,-0.03983921296499454,-2.2826187620170577,0.0,0.0,0.030228809408068623,1.7319831987876884,-7.688882962261249,0.0,-20.06468851633217,11.796819280399843,0.0,-0.35671246061477635,0.0,-83.09247924584895,0.0,0.0,-0.35968410857439054,0.0,0.4363323129985824,0.3490658503988659,1.0,0.14,0.14,0.75,0.08726646259971647,5.0,0.184,0.175,0.174,0.0,0.0,0.0,-0.05847625933271888,0.0,0.05462042120837736,0.0,6.016267877608371,0.0,-0.5365180072174597,0.0,0.1526887762706795,0.0,-3.4223937706835907,0.0,-0.023899356114730205,0.0,-0.024288776660867987,0.6094225500499698,-0.38151964899979773,0.15166131004448366,0.0,0.0,0.0,0.5965879283008013,0.15166131004448366,0.0,0.0,-0.37421858953618625,0.0,0.0,-0.0021333195280311603,0.0,1.8114893068461075,0.0,7.125829602773383,0.0,-0.6257694612004885,0.0,85.31648138091292,-2.0938642857926566,0.0,-7.048026205205345,0.0,-0.6257694612004885,0.0
sim_raptor_glider_3dof,raptor_glider_3dof,0.028,-14.667143521123842,0.0,-0.005990114856444538,11.785138392899619,0.0,-0.49037238570403785,0.0,0.0,0.0,-25.35426259556358,-0.4425153617078279,-0.01875806507981498,0.0,0.0,0.0,0.0,0.0,-0.010011546788899992,-0.5736193774017213,0.0,0.0,11.795336028128139,0.005990114856444538,0.03466259963010414,-0.0415853986913912,-2.3826678343855723,0.0,0.0,0.03157385190249121,1.809048456983851,-7.727410774622902,0.0,-20.544862500051728,11.789457083394154,0.0,-0.37236231719262763,0.0,-82.57016725020218,0.0,0.0,-0.4425153617078279,0.0,0.4363323129985824,0.3490658503988659,1.0,0.14,0.14,0.75,0.08726646259971647,5.0,0.184,0.175,0.174,0.0,0.0,0.0,-0.058739140875291425,0.0,0.05459060680911553,0.0,6.0158225176762805,0.0,-0.5369114371344651,0.0,0.15065061056841983,0.0,-3.4209193965990807,0.0,-0.02331192948852484,0.0,-0.024086200152007506,0.6019806961697178,-0.3812836869901267,0.15114189717835738,0.0,0.0,0.0,0.5861823695283915,0.15114189717835738,0.0,0.0,-0.3722999109757377,0.0,0.0,-0.0026261291111740973,0.0,1.8031826215674478,0.0,6.99338754862592,0.0,-0.6218359295612726,0.0,85.21711126293334,-2.0923626779569697,0.0,-6.912376971483229,0.0,-0.6218359295612726,0.0
sim_raptor_glider_3dof,raptor_glider_3dof,0.029,-14.655357740198863,0.0,-0.006370096798919433,11.777391073182502,0.0,-0.5111514973299245,0.0,0.0,0.0,-30.070236791835676,-0.5248246388718693,-0.022260067568027703,0.0,0.0,0.0,0.0,0.0,-0.010495260250672362,-0.6013341172549408,0.0,0.0,11.788478118226351,0.006370096798919433,0.034642446496301244,-0.043373860326654495,-2.485139137907225,0.0,0.0,0.03287860007598213,1.8838050206522838,-7.767486969671095,0.0,-21.011051754254165,11.782107005956803,0.0,-0.38751883062007164,0.0,-82.04844147087309,0.0,0.0,-0.5248246388718693,0.0,0.4363323129985824,0.3490658503988659,1.0,0.14,0.14,0.75,0.08726646259971647,5.0,0.184,0.175,0.174,0.0,0.0,0.0,-0.05901335881956837,0.0,0.05454490789822119,0.0,6.015369185593936,0.0,-0.5373070038598968,0.0,0.14855222577540952,0.0,-3.419413123675056,0.0,-0.02269966627678703,0.0,-0.023881634362570073,0.5943505898055201,-0.3810343543258729,0.15061944828471802,0.0,0.0,0.0,0.5756042363730067,0.15061944828471802,0.0,0.0,-0.3703780629212319,0.0,0.0,-0.0031164094595238787,0.0,1.794860683100328,0.0,6.859203274592792,0.0,-0.6179068127171452,0.0,85.11804814529653,-2.0905894691314444,0.0,-6.774926575652357,0.0,-0.6179068127171452,0.0
sim_raptor_glider_3dof,raptor_glider_3dof,0.03,-14.643579302230462,0.0,-0.006764986136035938,11.769602904327627,0.0,-0.5323899109857302,0.0,0.0,0.0,-34.75632142710431,-0.6066122447844245,-0.02574396913539162,0.0,0.0,0.0,0.0,0.0,-0.01106102215235547,-0.6337498864306783,0.0,0.0,11.781637897290711,0.006764986136035938,0.034622345344531756,-0.0452034996532477,-2.5899697493521736,0.0,0.0,0.03414247750089223,1.956219862921495,-7.809107888663046,0.0,-21.4635076025227,11.774771585029303,0.0,-0.4021761594913645,0.0,-81.52672344115689,0.0,0.0,-0.6066122447844245,0.0,0.4363323129985824,0.3490658503988659,1.0,0.14,0.14,0.75,0.08726646259971647,5.0,0.184,0.175,0.174,0.0,0.0,0.0,-0.059299407202676124,0.0,0.0544801319422133,0.0,6.014909819445665,0.0,-0.5377032916465299,0.0,0.14639325424462302,0.0,-3.4178769991368227,0.0,-0.022061516782506955,0.0,-0.023675326664603123,0.5865370100587518,-0.38076897599082843,0.1500946004286543,0.0,0.0,0.0,0.5648583386745956,0.1500946004286543,0.0,0.0,-0.36845041519442034,0.0,0.0,-0.0036041556789548268,0.0,1.7865312573511503,0.0,6.72334031427925,0.0,-0.6139777542353526,0.0,85.01929793653021,-2.0885213279468124,0.0,-6.635742428531759,0.0,-0.6139777542353526,0.0
sim_raptor_glider_3dof,raptor_glider_3dof,0.03,-14.643579302230462,0.0,-0.006764986136035938,11.769602904327627,0.0,-0.5323899109857302,0.0,0.0,0.0,-34.75632142710431,-0.6066122447844245,-0.02574396913539162,0.0,0.0,0.0,0.0,0.0,-0.01106102215235547,-0.6337498864306783,0.0,0.0,11.781637897290711,0.006764986136035938,0.034622345344531756,-0.0452034996532477,-2.5899697493521736,0.0,0.0,0.03414247750089223,1.956219862921495,-7.46712805738355,0.0,-8.878416646431145,11.774771585029303,0.0,-0.4021761594913645,0.0,63.79358642729459,0.0,0.0,-0.6066122447844245,0.0,-0.4363323129985824,0.3490658503988659,1.0,0.14,0.14,0.75,0.08726646259971647,5.0,0.184,0.175,0.174,0.0,0.0,0.0,-0.7615839290257121,0.0,0.12875262912810223,0.0,5.909811587648322,0.0,-0.6254191695078621,0.0,0.15072456032567103,0.0,-3.1831043112457453,0.0,0.18993529302430193,0.0,-0.04608576022895052,0.2953322825218797,0.2768351895859235,0.15534073142933522,0.0,0.0,0.0,0.27403240152670394,0.15534073142933522,0.0,0.0,0.28830759306600545,0.0,0.0,-0.0036041556789548268,0.0,1.8489743897896844,0.0,3.261725934552641,0.0,0.48042949938395557,0.0,85.01929793653021,-1.994476874344951,0.0,-3.174842415606581,0.0,0.48042949938395557,0.0
sim_raptor_glider_3dof,raptor_glider_3dof,0.031,-14.631808095551518,0.0,-0.007168060659029746,11.762156578804715,0.0,-0.5408650925201215,0.0,0.0,0.0,-31.110840054440963,-0.5429865920113267,-0.023057567270071383,0.0,0.0,0.0,0.0,0.0,-0.011635768710853808,-0.6666804385223019,0.0,0.0,11.774585446317245,0.007168060659029746,0.03460162051872592,-0.045951127696155766,-2.632805680856431,0.0,0.0,0.034315358985301955,1.966125242334129,-7.425588171834148,0.0,-8.073305406895944,11.76765358116024,0.0,-0.4039698335673493,0.0,63.45827717729883,0.0,0.0,-0.5429865920113267,0.0,-0.4363323129985824,0.3490658503988659,1.0,0.14,0.14,0.75,0.08726646259971647,5.0,0.184,0.175,0.174,0.0,0.0,0.0,-0.7634321789856976,0.0,0.12834114078354836,0.0,5.907344701273316,0.0,-0.6259514841298692,0.0,0.14986745641275906,0.0,-3.1770704200972735,0.0,0.19060155734999054,0.0,-0.04584812635139688,0.29233105477929167,0.27688008468574504,0.1552240107921947,0.0,0.0,0.0,0.27326179508209636,0.1552240107921947,0.0,0.0,0.2871358567763856,0.0,0.0,-0.0032280594178099938,0.0,1.8453738437577896,0.0,3.2486608648316047,0.0,0.4779042854222375,0.0,84.91754383781117,-1.9926530290942794,0.0,-3.160464513889568,0.0,0.4779042854222375,0.0
sim_raptor_glider_3dof,raptor_glider_3dof,0.032,-14.620043994840888,0.0,-0.007572906075244165,11.75475199800851,0.0,-0.5485441376799524,0.0,0.0,0.0,-27.48450289622548,-0.47969506881305196,-0.02038212318986248,0.0,0.0,0.0,0.0,0.0,-0.012147109544211191,-0.6959781101663823,0.0,0.0,11.767544145048623,0.007572906075244165,0.034580928458222755,-0.04663190433413405,-2.6718113090036923,0.0,0.0,0.034484794789922855,1.97583319883731,-7.383571981223276,0.0,-7.28478664670352,11.760547850368974,0.0,-0.4057209199065239,0.0,63.12476929707287,0.0,0.0,-0.47969506881305196,0.0,-0.4363323129985824,0.3490658503988659,1.0,0.14,0.14,0.75,0.08726646259971647,5.0,0.184,0.175,0.174,0.0,0.0,0.0,-0.7651133852550787,0.0,0.1279657417584485,0.0,5.9050996423907485,0.0,-0.626435624658507,0.0,0.1490847347690961,0.0,-3.1715756347902144,0.0,0.19120782361387975,0.0,-0.04563383755353456,0.2895990450401504,0.2769186399400983,0.1551180550395949,0.0,0.0,0.0,0.27274885946980343,0.1551180550395949,0.0,0.0,0.2859687222812948,0.0,0.0,-0.0028534972465807476,0.0,1.841909261282156,0.0,3.2386858520972353,0.0,0.4753926375762558,0.0,84.81601139264987,-1.99087833607315,0.0,-3.1493045623321945,0.0,0.4753926375762558,0.0
sim_raptor_glider_3dof,raptor_glider_3dof,0.033,-14.608286994132381,0.0,-0.007979486830732267,11.747389581829351,0.0,-0.5554428133573458,0.0,0.0,0.0,-23.877223050353898,-0.4167361584617593,-0.01771760038675103,0.0,0.0,0.0,0.0,0.0,-0.012595325150964903,-0.7216589727452654,0.0,0.0,11.760513539220263,0.007979486830732267,0.034560267828088576,-0.04724704548735179,-2.7070563008878796,0.0,0.0,0.03465172033638689,1.9853973281426138,-7.341258985373146,0.0,-6.512568005538453,11.753453576054433,0.0,-0.40744047628626195,0.0,62.79305159309774,0.0,0.0,-0.4167361584617593,0.0,-0.4363323129985824,0.3490658503988659,1.0,0.14,0.14,0.75,0.08726646259971647,5.0,0.184,0.175,0.174,0.0,0.0,0.0,-0.7666310412074832,0.0,0.1276260177010111,0.0,5.903072137458479,0.0,-0.6268725889236066,0.0,0.14837559635826483,0.0,-3.166610242801868,0.0,0.1917553171280854,0.0,-0.045441998082870215,0.2871311699541365,0.2769515246096471,0.1550225547616232,0.0,0.0,0.0,0.272488811708145,0.1550225547616232,0.0,0.0,0.284806187490405,0.0,0.0,-0.0024804640541451445,0.0,1.8385763555292292,0.0,3.231732873472649,0.0,0.47289447154761916,0.0,84.71469376810508,-1.9891576541779088,0.0,-3.1412914871785405,0.0,0.47289447154761916,0.0
sim_raptor_glider_3dof,raptor_glider_3dof,0.034,-14.596537083744694,0.0,-0.008387779175990425,11.740069520745156,0.0,-0.5615752921883774,0.0,0.0,0.0,-20.288911108428803,-0.35410830048653485,-0.015063960076197268,0.0,0.0,0.0,0.0,0.0,-0.012980706343433176,-0.7437396885774163,0.0,0.0,11.75349306209545,0.008387779175990425,0.034539636962871226,-0.04779763570613232,-2.7386027966651882,0.0,0.0,0.034816929362699145,1.9948631080877721,-7.298818819628389,0.0,-5.75638148632177,11.746369880432585,0.0,-0.40913786526310836,0.0,62.46310391498124,0.0,0.0,-0.35410830048653485,0.0,-0.4363323129985824,0.3490658503988659,1.0,0.14,0.14,0.75,0.08726646259971647,5.0,0.184,0.175,0.174,0.0,0.0,0.0,-0.7679882601148089,0.0,0.12732156944157236,0.0,5.90125833955622,0.0,-0.6272632780622944,0.0,0.14773933647530782,0.0,-3.1621655886071287,0.0,0.1922451181406061,0.0,-0.045271781572865766,0.28492288173421504,0.27697935149274316,0.1549372482582234,0.0,0.0,0.0,0.27247739693051887,0.1549372482582234,0.0,0.0,0.2836482145580975,0.0,0.0,-0.0021089544106676177,0.0,1.8353713899008801,0.0,3.227740419705029,0.0,0.47040963558372373,0.0,84.6135825279402,-1.9874948544839137,0.0,-3.136361037773593,0.0,0.47040963558372373,0.0
sim_raptor_glider_3dof,raptor_glider_3dof,0.034999999999999996,-14.58479425160235,0.0,-0.00879776178145641,11.732791908291516,0.0,-0.5669601132531414,0.0,0.0,0.0,-16.719449539850732,-0.29180944359144617,-0.01242114160816944,0.0,0.0,0.0,0.0,0.0,-0.013303637666555668,-0.7622422904649105,0.0,0.0,11.74648244085398,0.00879776178145641,0.03451903506084216,-0.048285134121521835,-2.766534398386323,0.0,0.0,0.03498149645496616,2.004292107921412,-7.256411338975674,0.0,-5.015889303972319,11.739296058532139,0.0,-0.4108257336422487,0.0,62.1349023406685,0.0,0.0,-0.29180944359144617,0.0,-0.4363323129985824,0.3490658503988659,1.0,0.14,0.14,0.75,0.08726646259971647,5.0,0.184,0.175,0.174,0.0,0.0,0.0,-0.7691890243263457,0.0,0.12705174375509065,0.0,5.8996531728608375,0.0,-0.6276088520915492,0.0,0.1471747587216795,0.0,-3.158229987035646,0.0,0.19267861651026116,0.0,-0.04512228269358017,0.2829681430678851,0.2770026985100895,0.15486183804973996,0.0,0.0,0.0,0.2727088832179984,0.15486183804973996,0.0,0.0,0.28249473357610866,0.0,0.0,-0.0017389598251437216,0.0,1.8322903136160384,0.0,3.226629952544496,0.0,0.4679379495275745,0.0,84.51267348510106,-1.9858925057789363,0.0,-3.134431304003888,0.0,0.4679379495275745,0.0
sim_raptor_glider_3dof,raptor_glider_3dof,0.036,-14.573058488685088,0.0,-0.009209431569145497,11.725556624259273,0.0,-0.5716121803733752,0.0,0.0,0.0,-13.168743302384,-0.22983792897655203,-0.009789100780410705,0.0,0.0,0.0,0.0,0.0,-0.01356443407302826,-0.7771848238679684,0.0,0.0,11.73948119098377,0.009209431569145497,0.034498460698180286,-0.04871069519418444,-2.79091725177495,0.0,0.0,0.03514626112115618,2.013732427906982,-7.214187338251046,0.0,-4.290813823090275,11.732231283487414,0.0,-0.412513932153817,0.0,61.808412203830414,0.0,0.0,-0.22983792897655203,0.0,-0.4363323129985824,0.3490658503988659,1.0,0.14,0.14,0.75,0.08726646259971647,5.0,0.184,0.175,0.174,0.0,0.0,0.0,-0.770236512921803,0.0,0.12681601799452025,0.0,5.898252579550344,0.0,-0.6279102451190361,0.0,0.14668095922548746,0.0,-3.1547942046420814,0.0,0.19305691140966766,0.0,-0.04499273357837964,0.28126215478220745,0.2770220714376035,0.15479609175313838,0.0,0.0,0.0,0.27317875233207245,0.15479609175313838,0.0,0.0,0.2813456352151011,0.0,0.0,-0.0013704741092574987,0.0,1.8293297981173833,0.0,3.2283375257983993,0.0,0.4654791523070469,0.0,84.41195941795635,-1.984352358114799,0.0,-3.1354356012526483,0.0,0.4654791523070469,0.0
sim_raptor_glider_3dof,raptor_glider_3dof,0.037,-14.561329786351363,0.0,-0.00962279394800503,11.718363413361086,0.0,-0.5755467625500421,0.0,0.0,0.0,-9.6366955541033,-0.16819206643140194,-0.0071677914314209595,0.0,0.0,0.0,0.0,0.0,-0.013763421932862188,-0.7885859884107933,0.0,0.0,11.732488873358523,0.00962279394800503,0.03447791258443834,-0.04907550807782453,-2.811819490319525,0.0,0.0,0.03531208614496234,2.0232335019087313,-7.1722887200069145,0.0,-3.580873004159585,11.725174758483037,0.0,-0.414212561994099,0.0,61.48359108182176,0.0,0.0,-0.16819206643140194,0.0,-0.4363323129985824,0.3490658503988659,1.0,0.14,0.14,0.75,0.08726646259971647,5.0,0.184,0.175,0.174,0.0,0.0,0.0,-0.7711339412328864,0.0,0.12661382034665797,0.0,5.897052408471966,0.0,-0.6281684042918043,0.0,0.1462569355778408,0.0,-3.15184871895734,0.0,0.1933811167676324,0.0,-0.04488240258987091,0.27979999682016815,0.27703792040156994,0.15473978570472532,0.0,0.0,0.0,0.27388235897879615,0.15473978570472532,0.0,0.0,0.2802007715952928,0.0,0.0,-0.0010034908003989345,0.0,1.8264866472533559,0.0,3.2327980119320108,0.0,0.4630329244371997,0.0,84.31143377412876,-1.9828751582913229,0.0,-3.1393060642724095,0.0,0.4630329244371997,0.0
sim_raptor_glider_3dof,raptor_glider_3dof,0.038,-14.549608136695849,0.0,-0.010037863674970575,11.711211891200849,0.0,-0.5787788733179265,0.0,0.0,0.0,-6.123211912122157,-0.10687020866386933,-0.004557168672236002,0.0,0.0,0.0,0.0,0.0,-0.013900926172299705,-0.7964644009957194,0.0,0.0,11.725505061395152,0.010037863674970575,0.03445738946602942,-0.04938074381753427,-2.8293082099614466,0.0,0.0,0.035479817645234564,2.032843808965727,-7.130848825478216,0.0,-2.8857906491510477,11.718125700299476,0.0,-0.41593150491905534,0.0,61.160388222901645,0.0,0.0,-0.10687020866386933,0.0,-0.4363323129985824,0.3490658503988659,1.0,0.14,0.14,0.75,0.08726646259971647,5.0,0.184,0.175,0.174,0.0,0.0,0.0,-0.7718844330715061,0.0,0.12644456548091262,0.0,5.8960485945514565,0.0,-0.628384250789719,0.0,0.14590164868211777,0.0,-3.1493841437116394,0.0,0.19365231718854414,0.0,-0.04479061372460447,0.27857684174183944,0.2770506365988098,0.15469271004931198,0.0,0.0,0.0,0.2748151414295295,0.15469271004931198,0.0,0.0,0.27905995506472814,0.0,0.0,-0.0006380036141130403,0.0,1.823757846224075,0.0,3.239947572729931,0.0,0.4605988837066723,0.0,84.21109019675703,-1.9814607268063877,0.0,-3.145976214758521,0.0,0.4605988837066723,0.0
sim_raptor_glider_3dof,raptor_glider_3dof,0.039,-14.537893532707281,0.0,-0.010454666647407379,11.704101525299693,0.0,-0.5813232148268083,0.0,0.0,0.0,-2.6282014981936355,-0.04587076954932674,-0.001957189692280729,0.0,0.0,0.0,0.0,0.0,-0.013977269871357795,-0.8008385727441648,0.0,0.0,11.718529310225714,0.010454666647407379,0.034436890035633466,-0.04962755059977167,-2.843449196938854,0.0,0.0,0.03565028072841388,2.0426106241946895,-7.089992721155893,0.0,-2.205297424267325,11.711083310332887,0.0,-0.417680371889426,0.0,60.83874426052548,0.0,0.0,-0.04587076954932674,0.0,-0.4363323129985824,0.3490658503988659,1.0,0.14,0.14,0.75,0.08726646259971647,5.0,0.184,0.175,0.174,0.0,0.0,0.0,-0.7724910114618063,0.0,0.12630766250088934,0.0,5.8952371783786655,0.0,-0.6285586754159921,0.0,0.14561402960445735,0.0,-3.1473912665070207,0.0,0.19387156614609113,0.0,-0.044716749866755154,0.27758797487046394,0.2770605522969776,0.15465466693315658,0.0,0.0,0.0,0.27597264122899373,0.15465466693315658,0.0,0.0,0.2779229581411911,0.0,0.0,-0.00027400655691930216,0.0,1.8211405295908978,0.0,3.2497238652202536,0.0,0.45817658302601744,0.0,84.11092208137013,-1.9801079948275708,0.0,-3.1553811746793157,0.0,0.45817658302601744,0.0
sim_raptor_glider_3dof,raptor_glider_3dof,0.04,-14.526185968107146,0.0,-0.010873237446436078,11.697031673474417,0.0,-0.5831942456967258,0.0,0.0,0.0,0.8484231247189375,0.01480777697640395,0.0006321862959446382,0.0,0.0,0.0,0.0,0.0,-0.013992774690512006,-0.8017269334438146,0.0,0.0,11.711561189631272,0.010873237446436078,0.03441641302897902,-0.049817059297230126,-2.8543072454842453,0.0,0.0,0.03582428460671812,2.0525803120404302,-7.049837533143161,0.0,-1.53912995472316,11.704046805336844,0.0,-0.41946856492693924,0.0,60.51859173004845,0.0,0.0,0.01480777697640395,0.0,-0.4363323129985824,0.3490658503988659,1.0,0.14,0.14,0.75,0.08726646259971647,5.0,0.184,0.175,0.174,0.0,0.0,0.0,-0.7729566146418696,0.0,0.12620251615033667,0.0,5.894614290644582,0.0,-0.6286925418823516,0.0,0.14539297479465899,0.0,-3.145861003651677,0.0,0.19403989288303905,0.0,-0.04466025190391888,0.2768287726701731,0.277067941899674,0.1546254676109823,0.0,0.0,0.0,0.2773504818825926,0.1546254676109823,0.0,0.0,0.27678951406951025,0.0,0.0,0.00008850608143224937,0.0,1.8186319565259597,0.0,3.262065798750296,0.0,0.45576551431899487,0.0,84.01092304911533,-1.9788150551021293,0.0,-3.167457410349033,0.0,0.45576551431899487,0.0
sim_raptor_glider_3dof,raptor_glider_3dof,0.04,-14.526185968107146,0.0,-0.010873237446436078,11.697031673474417,0.0,-0.5831942456967258,0.0,0.0,0.0,0.8484231247189375,0.01480777697640395,0.0006321862959446382,0.0,0.0,0.0,0.0,0.0,-0.013992774690512006,-0.8017269334438146,0.0,0.0,11.711561189631272,0.010873237446436078,0.03441641302897902,-0.049817059297230126,-2.8543072454842453,0.0,0.0,0.03582428460671812,2.0525803120404302,-7.049837533143161,0.0,-1.53912995472316,11.704046805336844,0.0,-0.41946856492693924,0.0,60.51859173004845,0.0,0.0,0.01480777697640395,0.0,-0.4363323129985824,0.3490658503988659,1.0,0.14,0.14,0.75,0.08726646259971647,5.0,0.184,0.175,0.174,0.0,0.0,0.0,-0.7729566146418696,0.0,0.12620251615033667,0.0,5.894614290644582,0.0,-0.6286925418823516,0.0,0.14539297479465899,0.0,-3.145861003651677,0.0,0.19403989288303905,0.0,-0.04466025190391888,0.2768287726701731,0.277067941899674,0.1546254676109823,0.0,0.0,0.0,0.2773504818825926,0.1546254676109823,0.0,0.0,0.27678951406951025,0.0,0.0,0.00008850608143224937,0.0,1.8186319565259597,0.0,3.262065798750296,0.0,0.45576551431899487,0.0,84.01092304911533,-1.9788150551021293,0.0,-3.167457410349033,0.0,0.45576551431899487,0.0
sim_raptor_glider_3dof,raptor_glider_3dof,0.041,-14.514485437194246,0.0,-0.011293622655672257,11.690001540532103,0.0,-0.5844068035344723,0.0,0.0,0.0,4.306748955893131,0.07516694933716317,0.0032110002753019964,0.0,0.0,0.0,0.0,0.0,-0.013947775478202624,-0.7991486684970739,0.0,0.0,11.704600263557074,0.011293622655672257,0.03439595716464508,-0.049950436704434574,-2.8619492079994577,0.0,0.0,0.03600266122623195,2.062800539502384,-7.010492319547512,0.0,-0.8870207900767575,11.69701538053721,0.0,-0.4213057288196514,0.0,60.19985538328089,0.0,0.0,0.07516694933716317,0.0,-0.4363323129985824,0.3490658503988659,1.0,0.14,0.14,0.75,0.08726646259971647,5.0,0.184,0.175,0.174,0.0,0.0,0.0,-0.7732842291200075,0.0,0.1261285006176339,0.0,5.894175978748171,0.0,-0.6287867241202636,0.0,0.14523728588700607,0.0,-3.144783970128368,0.0,0.1941583512657386,0.0,-0.04462060280445199,0.2762944896558335,0.2770730253252963,0.15460492265771805,0.0,0.0,0.0,0.2789441577524949,0.15460492265771805,0.0,0.0,0.27565931901815766,0.0,0.0,0.00044954003854227957,0.0,1.8162293886822083,0.0,3.2769110349281365,0.0,0.4533651108914884,0.0,83.91108665237667,-1.9775791512600955,0.0,-3.1821401326227194,0.0,0.4533651108914884,0.0
sim_raptor_glider_3dof,raptor_glider_3dof,0.042,-14.502791935502042,0.0,-0.011715873641907654,11.683010297427478,0.0,-0.5849742111161595,0.0,0.0,0.0,7.746851149514112,0.13520805922092877,0.005779284908591512,0.0,0.0,0.0,0.0,0.0,-0.013842577158069223,-0.7931212487415639,0.0,0.0,11.697646106694604,0.011715873641907654,0.034375521192790276,-0.0500287234224202,-2.866434706531965,0.0,0.0,0.036186146264350974,2.073313457790401,-6.972059571920046,0.0,-0.24872928430142416,11.689988275996141,0.0,-0.4232003598063185,0.0,59.88245213626435,0.0,0.0,0.13520805922092877,0.0,-0.4363323129985824,0.3490658503988659,1.0,0.14,0.14,0.75,0.08726646259971647,5.0,0.184,0.175,0.174,0.0,0.0,0.0,-0.773476493742184,0.0,0.1260850520205047,0.0,5.89391874005919,0.0,-0.6288419918609011,0.0,0.14514586117275766,0.0,-3.1441517887706683,0.0,0.1942278770259133,0.0,-0.04459737486571844,0.2759809075416006,0.27707596370123183,0.15459286574819972,0.0,0.0,0.0,0.280749676529365,0.15459286574819972,0.0,0.0,0.27453203084358896,0.0,0.0,0.0008090998872028118,0.0,1.8139303742881037,0.0,3.2942035414341593,0.0,0.45097474703820684,0.0,83.8114066125991,-1.9763968877721223,0.0,-3.1993711440167436,0.0,0.45097474703820684,0.0
sim_raptor_glider_3dof,raptor_glider_3dof,0.043000000000000003,-14.491105459311218,0.0,-0.01214004845343456,11.676057039658309,0.0,-0.5849093830361026,0.0,0.0,0.0,11.168799309252295,0.19493232144092093,0.008337069192484699,0.0,0.0,0.0,0.0,0.0,-0.013677478922319087,-0.7836618166280253,0.0,0.0,11.690698310183102,0.01214004845343456,0.03435510391190779,-0.05005292818268508,-2.8678215371392684,0.0,0.0,0.03637544926036599,2.084159720511243,-6.9346350457976484,0.0,0.37597639263777083,11.682964752992712,0.0,-0.42516062852523356,0.0,59.56629180153067,0.0,0.0,0.19493232144092093,0.0,-0.4363323129985824,0.3490658503988659,1.0,0.14,0.14,0.75,0.08726646259971647,5.0,0.184,0.175,0.174,0.0,0.0,0.0,-0.7735359336871676,0.0,0.12607161785931273,0.0,5.893839211472941,0.0,-0.6288590776178998,0.0,0.14511758807821334,0.0,-3.1439563288951557,0.0,0.1942493724540469,0.0,-0.044590199895450544,0.2758839567438366,0.2770768653812957,0.15458913828308934,0.0,0.0,0.0,0.2827631850879967,0.15458913828308934,0.0,0.0,0.27340727197799486,0.0,0.0,0.0011671896869478579,0.0,1.8117325679956373,0.0,3.3138891719285946,0.0,0.44859374355732745,0.0,83.71187690144576,-1.9752641854945607,0.0,-3.2190942420600495,0.0,0.44859374355732745,0.0
sim_raptor_glider_3dof,raptor_glider_3dof,0.044,-14.479426005191332,0.0,-0.012566219852058932,11.669140667460152,0.0,-0.5842265061497187,0.0,0.0,0.0,14.57266591190061,0.2543410009558076,0.01088438475597402,0.0,0.0,0.0,0.0,0.0,-0.01345281354070192,-0.7707894384586655,0.0,0.0,11.683756439067885,0.012566219852058932,0.03433470404380935,-0.05002417189076356,-2.8661739229777194,0.0,0.0,0.03657135835006164,2.095384484519054,-6.898306682199006,0.0,0.987346410438283,11.675944006582904,0.0,-0.42719560227258424,0.0,59.251278058344404,0.0,0.0,0.2543410009558076,0.0,-0.4363323129985824,0.3490658503988659,1.0,0.14,0.14,0.75,0.08726646259971647,5.0,0.184,0.175,0.174,0.0,0.0,0.0,-0.7734653162433934,0.0,0.1260875781825061,0.0,5.893933695088745,0.0,-0.6288387789024454,0.0,0.14515117739208566,0.0,-3.1441885435222194,0.0,0.19422383493265147,0.0,-0.04459872441952802,0.27599913859268554,0.27707579378720126,0.15459356668702554,0.0,0.0,0.0,0.2849803964815819,0.15459356668702554,0.0,0.0,0.2722846356877783,0.0,0.0,0.001523813865836363,0.0,1.809633451297951,0.0,3.3359089222728,0.0,0.44622137505739173,0.0,83.6124911311825,-1.9741761850754964,0.0,-3.2412482095693576,0.0,0.44622137505739173,0.0
