name,vehicle,t,north,east,down,u,v,w,p_rad,p_deg,p_hat_div_b,q_deg,q_rad,q_hat_div_c,r_rad,r_deg,r_hat_div_b,phi_rad,phi_deg,theta_rad,theta_deg,psi_rad,psi_deg,speed,altitude,mach,alpha_rad,alpha_deg,beta_rad,beta_deg,gamma_rad,gamma_deg,u_dot,v_dot,w_dot,north_dot,east_dot,down_dot,p_rad_dot,q_rad_dot,r_rad_dot,phi_rad_dot,theta_rad_dot,psi_rad_dot,del_tail_alt_rad,del_tail_splay_rad,DIM_b,DIM_c_bar,DIM_S,DIM_wing_position,DIM_wing_incidence_rad,DIM_wing_incidence_deg,DIM_empennage_length,DIM_nose_length,DIM_tail_length,CDp,CDq,CDr,CYp,CYq,CYr,CLp,CLq,CLr,Clp,Clq,Clr,Cmp,Cmq,Cmr,Cnp,Cnq,Cnr,CL_0,Cm_0,CD_0,Cl_0,CY_0,Cn_0,CL,CD,CY,Cl,Cm,Cn,p_hat,q_hat,r_hat,drag_force_wind,side_force_wind,lift_force_wind,roll_moment_wind,pitch_moment_wind,yaw_moment_wind,qbar,X_total,Y_total,Z_total,L_total,M_total,N_total
sim_raptor_glider_3dof,raptor_glider_3dof,0.0,-15.0,0.0,0.0,12.0,0.0,0.0,0.0,0.0,0.0,0.0,0.0,0.0,0.0,0.0,0.0,0.0,0.0,0.0,0.0,0.0,0.0,12.0,-0.0,0.035264039495724236,0.0,0.0,0.0,0.0,0.0,0.0,-7.487178041450953,0.0,-25.024054441263395,12.0,0.0,0.0,0.0,-89.41363838472799,0.0,0.0,0.0,0.0,0.4363323129985824,0.3490658503988659,1.0,0.14,0.14,0.75,0.08726646259971647,5.0,0.184,0.175,0.174,0.0,0.0,0.0,-0.053153656886407115,0.0,0.055671173493162154,0.0,6.024209384397437,0.0,-0.5269202128147928,0.0,0.19813275846416445,0.0,-3.4552995296441478,0.0,-0.03588346466142729,0.0,-0.029845922084054996,0.7757079658211316,-0.38952171953159265,0.1667455120831285,0.0,0.0,0.0,0.7757079658211316,0.1667455120831285,0.0,0.0,-0.38952171953159265,0.0,0.0,0.0,0.0,2.0589739613990123,0.0,9.578443721347433,0.0,-0.6733741106753866,0.0,88.20001620075907,-2.0589739613990123,0.0,-9.578443721347433,0.0,-0.6733741106753866,0.0
sim_raptor_glider_3dof,raptor_glider_3dof,0.001,-14.988003746590733,0.0,-0.000012415174634177188,11.992502827180262,0.0,-0.02526770405029525,0.0,0.0,0.0,-5.103039651887635,-0.0890648437852645,-0.0037133468875430262,0.0,0.0,0.0,0.0,0.0,-0.000044590487564095195,-0.0025548467438532376,0.0,0.0,11.992529446150822,0.000012415174634177188,0.03524208600355821,-0.002106955238988487,-0.12071964281701804,0.0,0.0,0.002062364751424392,0.1181647960731648,-7.507675599275719,0.0,-25.508550485583747,11.99250394195709,0.0,-0.024732952477174667,0.0,-88.71856693472195,0.0,0.0,-0.0890648437852645,0.0,0.4363323129985824,0.3490658503988659,1.0,0.14,0.14,0.75,0.08726646259971647,5.0,0.184,0.175,0.174,0.0,0.0,0.0,-0.053430186057496054,0.0,0.0554080780660455,0.0,6.0240249874908525,0.0,-0.5274002219771142,0.0,0.1957017793236076,0.0,-3.453669819760639,0.0,-0.03525814560644711,0.0,-0.029499655008724115,0.7671435812705255,-0.38877083359862435,0.165760584735996,0.0,0.0,0.0,0.7640118800492363,0.165760584735996,0.0,0.0,-0.386975379228011,0.0,0.0,-0.0005198685642560238,0.0,2.0442643995802876,0.0,9.422277857722193,0.0,-0.6681395275853911,0.0,88.09023322213056,-2.064112165078258,0.0,-9.417949773357746,0.0,-0.6681395275853911,0.0
sim_raptor_glider_3dof,raptor_glider_3dof,0.002,-14.976014997218163,0.0,-0.000049270492086499364,11.984983638081903,0.0,-0.051011581957007696,0.0,0.0,0.0,-10.166686259086081,-0.1774421492383174,-0.0074026192836820276,0.0,0.0,0.0,0.0,0.0,-0.00017790069037163533,-0.010192958730758345,0.0,0.0,11.985092197667264,0.000049270492086499364,0.03522023038486956,-0.004256265628603735,-0.24386605700559036,0.0,0.0,0.0040783649382321,0.233673098274832,-7.5312069778045,0.0,-25.97647568606275,11.984992523423195,0.0,-0.04887944429772272,0.0,-88.03854836579413,0.0,0.0,-0.1774421492383174,0.0,0.4363323129985824,0.3490658503988659,1.0,0.14,0.14,0.75,0.08726646259971647,5.0,0.184,0.175,0.174,0.0,0.0,0.0,-0.05371000072613438,0.0,0.05518325282971427,0.0,6.023796383437123,0.0,-0.5278990096560925,0.0,0.1932332307470952,0.0,-3.4519868033346692,0.0,-0.03462545852853912,0.0,-0.029153229463314653,0.758374006898808,-0.388063512765844,0.16478068235403653,0.0,0.0,0.0,0.7521311449211472,0.16478068235403653,0.0,0.0,-0.38448598859501065,0.0,0.0,-0.001036366699715484,0.0,2.0296598650783366,0.0,9.264255835778041,0.0,-0.6630183077427956,0.0,87.98100758981425,-2.069072495287059,0.0,-9.25553317577674,0.0,-0.6630183077427956,0.0
sim_raptor_glider_3dof,raptor_glider_3dof,0.003,-14.964033765483153,0.0,-0.00010997650410396534,11.977439408842296,0.0,-0.07721526894416839,0.0,0.0,0.0,-15.191799193026208,-0.2651469152201249,-0.011068367643203196,0.0,0.0,0.0,0.0,0.0,-0.0003992506169425001,-0.022875375318799577,0.0,0.0,11.97768829909372,0.00010997650410396534,0.035198472770559576,-0.006446636600632963,-0.3693650692708328,0.0,0.0,0.006047385983690463,0.3464896939520332,-7.557751963901034,0.0,-26.428240508352538,11.977469282477013,0.0,-0.07243326284374174,0.0,-87.37346069275941,0.0,0.0,-0.2651469152201249,0.0,0.4363323129985824,0.3490658503988659,1.0,0.14,0.14,0.75,0.08726646259971647,5.0,0.184,0.175,0.174,0.0,0.0,0.0,-0.0539933342342998,0.0,0.0549956890768542,0.0,6.023523849844041,0.0,-0.5284156910211553,0.0,0.1907277346999606,0.0,-3.450251759098094,0.0,-0.033984927296559594,0.0,-0.028807107836358457,0.7494038488665931,-0.387399686775176,0.16380724554970857,0.0,0.0,0.0,0.7400699681597184,0.16380724554970857,0.0,0.0,-0.38205327508479314,0.0,0.0,-0.0015495714700484477,0.0,2.015177614704102,0.0,9.104435082498677,0.0,-0.6580095324771711,0.0,87.87233904709669,-2.0738283182350847,0.0,-9.09125486919839,0.0,-0.6580095324771711,0.0
sim_raptor_glider_3dof,raptor_glider_3dof,0.004,-14.95206006146447,0.0,-0.00019393750269191865,11.969867139046595,0.0,-0.10386280993339823,0.0,0.0,0.0,-20.179227607931264,-0.35219396226773997,-0.01471113674262299,0.0,0.0,0.0,0.0,0.0,-0.0007079751977142588,-0.040563990828967035,0.0,0.0,11.970317740549529,0.00019393750269191865,0.03517681313159225,-0.008676805031272569,-0.49714430794979647,0.0,0.0,0.00796882983355831,0.4565803171208294,-7.587282867422961,0.0,-26.864252771312174,11.96993767151242,0.0,-0.09538841555743248,0.0,-86.72306067972036,0.0,0.0,-0.35219396226773997,0.0,0.4363323129985824,0.3490658503988659,1.0,0.14,0.14,0.75,0.08726646259971647,5.0,0.184,0.175,0.174,0.0,0.0,0.0,-0.054280487125545326,0.0,0.054843901706905056,0.0,6.023207997132767,0.0,-0.5289492506950555,0.0,0.18818569052618506,0.0,-3.4484661334741316,0.0,-0.033335929119057396,0.0,-0.028461722112779208,0.7402377623774763,-0.38677875516894367,0.16284159593212236,0.0,0.0,0.0,0.727832609270965,0.16284159593212236,0.0,0.0,-0.37967643521108574,0.0,0.0,-0.0020595591439672187,0.0,2.000833340210975,0.0,8.942873240625298,0.0,-0.6531113699789741,0.0,87.76422654166264,-2.078352616244555,0.0,-8.925175978978858,0.0,-0.6531113699789741,0.0
sim_raptor_glider_3dof,raptor_glider_3dof,0.005,-14.94009389182307,0.0,-0.0003005518855746,11.962263859629724,0.0,-0.13093865674169305,0.0,0.0,0.0,-25.12980322664479,-0.4385978066832464,-0.01833146045868009,0.0,0.0,0.0,0.0,0.0,-0.0011034240774344013,-0.06322154265010774,0.0,0.0,11.962980463882431,0.0003005518855746,0.035155251297077285,-0.010945539172903748,-0.6271331991024985,0.0,0.0,0.009842115095469346,0.5639116564523908,-7.619764933048298,0.0,-27.284916404279006,11.96240105817221,0.0,-0.11773912974501546,0.0,-86.08698535636344,0.0,0.0,-0.4385978066832464,0.0,0.4363323129985824,0.3490658503988659,1.0,0.14,0.14,0.75,0.08726646259971647,5.0,0.184,0.175,0.174,0.0,0.0,0.0,-0.05457182683161292,0.0,0.05472593032343835,0.0,6.022849768199583,0.0,-0.529498543215881,0.0,0.18560727572066893,0.0,-3.446631540314975,0.0,-0.03267769521599154,0.0,-0.028117473742245224,0.7308804509402165,-0.3861995880247053,0.16188493539638366,0.0,0.0,0.0,0.7154233824078116,0.16188493539638366,0.0,0.0,-0.37735413745313595,0.0,0.0,-0.002566404464215213,0.0,1.9866411722863777,0.0,8.779628219436473,0.0,-0.6483210867187731,0.0,87.65666831823584,-2.0826180146542357,0.0,-8.757357879177162,0.0,-0.6483210867187731,0.0
sim_raptor_glider_3dof,raptor_glider_3dof,0.006,-14.92813525992473,0.0,-0.0004292124397594923,11.954626639550906,0.0,-0.15842765930436845,0.0,0.0,0.0,-30.04433358782197,-0.5243725426750143,-0.02192985685369944,0.0,0.0,0.0,0.0,0.0,-0.0015849610904613313,-0.09081158117588696,0.0,0.0,11.955676367913814,0.0004292124397594923,0.03513378696968413,-0.01325163807797221,-0.7592629335026617,0.0,0.0,0.01166667698751088,0.6684513523267749,-7.65515672930522,0.0,-27.690630360815796,11.954862725505864,0.0,-0.13947985016959272,0.0,-85.46475387002384,0.0,0.0,-0.5243725426750143,0.0,0.4363323129985824,0.3490658503988659,1.0,0.14,0.14,0.75,0.08726646259971647,5.0,0.184,0.175,0.174,0.0,0.0,0.0,-0.05486778710977721,0.0,0.05463934182373924,0.0,6.022450437086101,0.0,-0.5300622937916623,0.0,0.18299244783751023,0.0,-3.444749760445701,0.0,-0.03200931203935526,0.0,-0.02777473367758559,0.7213366671206888,-0.3856605284654083,0.16093834608201854,0.0,0.0,0.0,0.7028466604815571,0.16093834608201854,0.0,0.0,-0.37508452678533377,0.0,0.0,-0.003070179959517922,0.0,1.9726136922696764,0.0,8.61475825857789,0.0,-0.6436350613951496,0.0,87.54966199755503,-2.0865968109073574,0.0,-8.58786227075033,0.0,-0.6436350613951496,0.0
sim_raptor_glider_3dof,raptor_glider_3dof,0.007,-14.916184165882276,0.0,-0.0005793064854676666,11.946952592434664,0.0,-0.18631506489291877,0.0,0.0,0.0,-34.923595341205655,-0.6095317253381911,-0.025506823267053384,0.0,0.0,0.0,0.0,0.0,-0.00215196395569408,-0.12329845232554847,0.0,0.0,11.94840531406963,0.0005793064854676666,0.03511241974218939,-0.015593931681301612,-0.8934664713539263,0.0,0.0,0.013441967725607532,0.7701680190283778,-7.693410528399182,0.0,-28.081787400130356,11.947325872576652,0.0,-0.1606052419691676,0.0,-84.85576962259707,0.0,0.0,-0.6095317253381911,0.0,0.4363323129985824,0.3490658503988659,1.0,0.14,0.14,0.75,0.08726646259971647,5.0,0.184,0.175,0.174,0.0,0.0,0.0,-0.05516886739682447,0.0,0.05458123429015566,0.0,6.022011606567932,0.0,-0.5306390995932566,0.0,0.18034094615955698,0.0,-3.442822740123928,0.0,-0.031329722669104235,0.0,-0.027433842397851762,0.7116112100401488,-0.3851593965008954,0.16000279048359145,0.0,0.0,0.0,0.6901068760336266,0.16000279048359145,0.0,0.0,-0.3728652305367967,0.0,0.0,-0.0035709552573874744,0.0,1.9587619456352325,0.0,8.448321951825605,0.0,-0.6390488010277785,0.0,87.4432046606849,-2.090261009781001,0.0,-8.416751218395161,0.0,-0.6390488010277785,0.0
sim_raptor_glider_3dof,raptor_glider_3dof,0.008,-14.904240606651282,0.0,-0.0007502161182813057,11.939238882633015,0.0,-0.21458650998107728,0.0,0.0,0.0,-39.768327695755914,-0.6940882563029905,-0.02906283149078703,0.0,0.0,0.0,0.0,0.0,-0.0028038236298313884,-0.16064726048838937,0.0,0.0,11.941167131685324,0.0007502161182813057,0.035091149113066274,-0.017971280258754233,-1.0296785112733915,0.0,0.0,0.015167456628922844,0.8690312507850021,-7.734472659743328,0.0,-28.458772998507442,11.939793614875626,0.0,-0.18111019026309105,0.0,-84.25932271685393,0.0,0.0,-0.6940882563029905,0.0,0.4363323129985824,0.3490658503988659,1.0,0.14,0.14,0.75,0.08726646259971647,5.0,0.184,0.175,0.174,0.0,0.0,0.0,-0.05547563193059443,0.0,0.054548242134604644,0.0,6.021535204946049,0.0,-0.5312274312413525,0.0,0.17765229454057654,0.0,-3.440852589499303,0.0,-0.030637728722487007,0.0,-0.027095110104628704,0.7017089249620452,-0.38469349440195466,0.1590791122370665,0.0,0.0,0.0,0.6772085241452388,0.1590791122370665,0.0,0.0,-0.37069336574289874,0.0,0.0,-0.004068796408710184,0.0,1.9450954633896698,0.0,8.280378294547667,0.0,-0.634556959380627,0.0,87.33729292823296,-2.0935823601488033,0.0,-8.244087212286694,0.0,-0.634556959380627,0.0
sim_raptor_glider_3dof,raptor_glider_3dof,0.009000000000000001,-14.892304576113405,0.0,-0.0009413184291606596,11.931482731000013,0.0,-0.24322801242629782,0.0,0.0,0.0,-44.57922600410458,-0.7780542717623,-0.03259832301805841,0.0,0.0,0.0,0.0,0.0,-0.0035399435977275817,-0.2028238278641469,0.0,0.0,11.933961623290918,0.0009413184291606596,0.03506997450201568,-0.020382573901800104,-1.1678354601866447,0.0,0.0,0.01684263030407252,0.9650116323224979,-7.778283843616755,0.0,-28.821964269395146,11.932268984822977,0.0,-0.20098980076623565,0.0,-83.67459264387269,0.0,0.0,-0.7780542717623,0.0,0.4363323129985824,0.3490658503988659,1.0,0.14,0.14,0.75,0.08726646259971647,5.0,0.184,0.175,0.174,0.0,0.0,0.0,-0.055788708736007504,0.0,0.0545365423304085,0.0,6.021023482042527,0.0,-0.531825634606743,0.0,0.17492580464570248,0.0,-3.4388415806117196,0.0,-0.029931992558805562,0.0,-0.02675881698380161,0.6916347024036031,-0.3842596132891834,0.15816803727685969,0.0,0.0,0.0,0.6641561648322319,0.15816803727685969,0.0,0.0,-0.3685655476778038,0.0,0.0,-0.004563765222528177,0.0,1.9316222876944662,0.0,8.110986723910683,0.0,-0.6301533572010052,0.0,87.23192303897322,-2.096532395351765,0.0,-8.0699332223392,0.0,-0.6301533572010052,0.0
sim_raptor_glider_3dof,raptor_glider_3dof,0.01,-14.88037606515921,0.0,-0.0011519857253842968,11.923681420343334,0.0,-0.27222596258209436,0.0,0.0,0.0,-49.356935507178044,-0.8614410332947542,-0.03611370438294382,0.0,0.0,0.0,0.0,0.0,-0.004359739052099519,-0.24979464746366856,0.0,0.0,11.926788569792983,0.0011519857253842968,0.03504889526519434,-0.022826731891997996,-1.3078753974881616,0.0,0.0,0.01846699283989848,1.058080750024493,-7.824779502619,0.0,-29.171728920063018,11.924754932281528,0.0,-0.22023940058925584,0.0,-83.10065118556057,0.0,0.0,-0.8614410332947542,0.0,0.4363323129985824,0.3490658503988659,1.0,0.14,0.14,0.75,0.08726646259971647,5.0,0.184,0.175,0.174,0.0,0.0,0.0,-0.05610878847395166,0.0,0.05454186162840115,0.0,6.020479004498773,0.0,-0.5324319328652451,0.0,0.17216057968112747,0.0,-3.4367921450673697,0.0,-0.02921103978427371,0.0,-0.02642521354291394,0.6813934773072167,-0.3838540408424605,0.15727017538811427,0.0,0.0,0.0,0.6509544254455103,0.15727017538811427,0.0,0.0,-0.3664778994650984,0.0,0.0,-0.0050559186136121355,0.0,1.9183490019530007,0.0,7.940207158086878,0.0,-0.6258310040784566,0.0,87.12709092666549,-2.099082476605616,0.0,-7.894352751368246,0.0,-0.6258310040784566,0.0
sim_raptor_glider_3dof,raptor_glider_3dof,0.01,-14.88037606515921,0.0,-0.0011519857253842968,11.923681420343334,0.0,-0.27222596258209436,0.0,0.0,0.0,-49.356935507178044,-0.8614410332947542,-0.03611370438294382,0.0,0.0,0.0,0.0,0.0,-0.004359739052099519,-0.24979464746366856,0.0,0.0,11.926788569792983,0.0011519857253842968,0.03504889526519434,-0.022826731891997996,-1.3078753974881616,0.0,0.0,0.01846699283989848,1.058080750024493,-5.170529948762901,0.0,-21.299592945886737,11.924754932281528,0.0,-0.22023940058925584,0.0,8.097338857764361,0.0,0.0,-0.8614410332947542,0.0,-0.1256960304370781,0.3490658503988659,1.0,0.14,0.14,0.75,0.08726646259971647,5.0,0.184,0.175,0.174,0.0,0.0,0.0,-0.004234723850794369,0.0,0.004277748273419532,0.0,6.0618649245481855,0.0,-0.5182161063089217,0.0,0.16589367431478877,0.0,-3.7080541188724374,0.0,-0.03697288640480982,0.0,-0.009381768616208375,0.5028053214198823,0.016962036986076862,0.10149642896960899,0.0,0.0,0.0,0.4721570257146566,0.10149642896960899,0.0,0.0,0.035709656825965164,0.0,0.0,-0.0050559186136121355,0.0,1.2380324033793757,0.0,5.759273535554676,0.0,0.060981058937823414,0.0,87.12709092666549,-1.3691638492951888,0.0,-5.729515358469768,0.0,0.060981058937823414,0.0
sim_raptor_glider_3dof,raptor_glider_3dof,0.011,-14.868453754154961,0.0,-0.0013776872388380592,11.918501900008245,0.0,-0.29330352247321334,0.0,0.0,0.0,-48.890630174368894,-0.8533024699176266,-0.03578655317601386,0.0,0.0,0.0,0.0,0.0,-0.005217113784709435,-0.29891860110337426,0.0,0.0,11.922110320609995,0.0013776872388380592,0.03503514743486436,-0.024604127054275757,-1.4097126388136474,0.0,0.0,0.019387013269566322,1.1107940377102732,-5.188289981869385,0.0,-20.85641357574002,11.91986989074624,0.0,-0.2311196323910043,0.0,8.179365005905595,0.0,0.0,-0.8533024699176266,0.0,-0.1256960304370781,0.3490658503988659,1.0,0.14,0.14,0.75,0.08726646259971647,5.0,0.184,0.175,0.174,0.0,0.0,0.0,-0.004272117277622596,0.0,0.004277602627876188,0.0,6.0619781523282255,0.0,-0.5184352749893082,0.0,0.16383575853848462,0.0,-3.7068043583094528,0.0,-0.03644361352797839,0.0,-0.009203672680132145,0.4953757604748854,0.017528185400608607,0.10116030880773745,0.0,0.0,0.0,0.46500453798486746,0.10116030880773745,0.0,0.0,0.03609971058004957,0.0,0.0,-0.005010117444641941,0.0,1.2329646560921332,0.0,5.6675801706720454,0.0,0.06159879785947504,0.0,87.0587536204168,-1.3720232730909356,0.0,-5.635531826923188,0.0,0.06159879785947504,0.0
sim_raptor_glider_3dof,raptor_glider_3dof,0.012,-14.856536324281143,0.0,-0.0016141045816169164,11.913305495273686,0.0,-0.3139408828090117,0.0,0.0,0.0,-48.419717595088024,-0.8450834949201166,-0.03545574402037201,0.0,0.0,0.0,0.0,0.0,-0.006066312663841485,-0.3475741128448808,0.0,0.0,11.917441281651742,0.0016141045816169164,0.03502142667034512,-0.026346024850402935,-1.5095160308748743,0.0,0.0,0.02027971218656145,1.1619419180299935,-5.204256976814856,0.0,-20.419193230548984,11.914990742107612,0.0,-0.24166571355282765,0.0,8.25809948113182,0.0,0.0,-0.8450834949201166,0.0,-0.1256960304370781,0.3490658503988659,1.0,0.14,0.14,0.75,0.08726646259971647,5.0,0.184,0.175,0.174,0.0,0.0,0.0,-0.0043087205230027785,0.0,0.004277337641767138,0.0,6.062074826581681,0.0,-0.5186462282678217,0.0,0.16181783248268033,0.0,-3.705568133452415,0.0,-0.035925354023388464,0.0,-0.009031294960829491,0.488081103032371,0.01808205577284531,0.10083716853980618,0.0,0.0,0.0,0.45799015077266403,0.10083716853980618,0.0,0.0,0.036475770299408426,0.0,0.0,-0.004963804162852081,0.0,1.2280636946405923,0.0,5.577715884047777,0.0,0.062191747192403744,0.0,86.9905775833474,-1.3745711536103533,0.0,-5.543429359603627,0.0,0.062191747192403744,0.0
sim_raptor_glider_3dof,raptor_glider_3dof,0.013000000000000001,-14.844623770601164,0.0,-0.0018609124087117807,11.908093942645786,0.0,-0.33414384919744017,0.0,0.0,0.0,-47.944381507550204,-0.8367873151390336,-0.03512140902883127,0.0,0.0,0.0,0.0,0.0,-0.006907255828136478,-0.3957566069693605,0.0,0.0,11.91278109673949,0.0018609124087117807,0.03500773192494487,-0.0280528683441442,-1.607310959355613,0.0,0.0,0.021145612516007724,1.2115543523862524,-5.218501787269464,0.0,-19.987930713649217,11.910117873801354,0.0,-0.25188428095311993,0.0,8.333614328172922,0.0,0.0,-0.8367873151390336,0.0,-0.1256960304370781,0.3490658503988659,1.0,0.14,0.14,0.75,0.08726646259971647,5.0,0.184,0.175,0.174,0.0,0.0,0.0,-0.004344554601872537,0.0,0.004276949581047522,0.0,6.062155822856037,0.0,-0.5188492580518496,0.0,0.15983946571827626,0.0,-3.704345829731927,0.0,-0.03541794178885,0.0,-0.008864462813709144,0.4809209423702142,0.01862386339137523,0.10052659797968062,0.0,0.0,0.0,0.4511133387750689,0.10052659797968062,0.0,0.0,0.03683812170121168,0.0,0.0,-0.004916997264036378,0.0,1.2233240584756482,0.0,5.489669515468573,0.0,0.06276044950547029,0.0,86.92255745964849,-1.3768235125076198,0.0,-5.4531963247728825,0.0,0.06276044950547029,0.0
sim_raptor_glider_3dof,raptor_glider_3dof,0.014,-14.832716086355946,0.0,-0.0021177724327524584,11.902869006937223,0.0,-0.35391862660531337,0.0,0.0,0.0,-47.464812335962186,-0.8284172541037611,-0.03478368503473683,0.0,0.0,0.0,0.0,0.0,-0.007739864268401732,-0.44346155658352987,0.0,0.0,11.908129533665852,0.0021177724327524584,0.03499406251628273,-0.029725134449361697,-1.7031247494073556,0.0,0.0,0.021985270180959963,1.2596631928238256,-5.2310942219715235,0.0,-19.56261522614651,11.905251739846358,0.0,-0.2617823551161662,0.0,8.405983468973647,0.0,0.0,-0.8284172541037611,0.0,-0.1256960304370781,0.3490658503988659,1.0,0.14,0.14,0.75,0.08726646259971647,5.0,0.184,0.175,0.174,0.0,0.0,0.0,-0.004379640054738373,0.0,0.004276435750321218,0.0,6.062221987503742,0.0,-0.5190446508402166,0.0,0.1579001841844359,0.0,-3.703137781361716,0.0,-0.03492120255981772,0.0,-0.008703004956903682,0.47389462203176064,0.019153830212324488,0.10022818914649322,0.0,0.0,0.0,0.4443733232004025,0.10022818914649322,0.0,0.0,0.0371870591641213,0.0,0.0,-0.004869715904863157,0.0,1.2187403575971005,0.0,5.40342699429903,0.0,0.06330546150484054,0.0,86.85468971036775,-1.3787959094929363,0.0,-5.364818094019675,0.0,0.06330546150484054,0.0
sim_raptor_glider_3dof,raptor_glider_3dof,0.015,-14.82081326474445,0.0,-0.002384373070000365,11.897632276407766,0.0,-0.37327105651730697,0.0,0.0,0.0,-46.98118515188701,-0.8199763673895006,-0.03444269811795031,0.0,0.0,0.0,0.0,0.0,-0.008564067004934874,-0.4906848948500118,0.0,0.0,11.903486256817931,0.002384373070000365,0.03498041745810318,-0.031363270428478814,-1.796983027279297,0.0,0.0,0.02279920342354394,1.3062981324292853,-5.242101583014564,0.0,-19.143233837566417,11.900392652865767,0.0,-0.27136649364257565,0.0,8.475276110913875,0.0,0.0,-0.8199763673895006,0.0,-0.1256960304370781,0.3490658503988659,1.0,0.14,0.14,0.75,0.08726646259971647,5.0,0.184,0.175,0.174,0.0,0.0,0.0,-0.004413995694565708,0.0,0.004275794418349483,0.0,6.062274135254165,0.0,-0.5192326804102697,0.0,0.1559995439811122,0.0,-3.70194431745018,0.0,-0.03443497270120817,0.0,-0.008546757588626776,0.46700150861136114,0.01967216488401023,0.0999415478992678,0.0,0.0,0.0,0.4377693576985267,0.0999415478992678,0.0,0.0,0.03752285796456597,0.0,0.0,-0.004821977736513043,0.0,1.2143073668260302,0.0,5.318974612638705,0.0,0.06382730439129239,0.0,86.7869692942879,-1.380503277757414,0.0,-5.278280402851299,0.0,0.06382730439129239,0.0
sim_raptor_glider_3dof,raptor_glider_3dof,0.016,-14.80891529857404,0.0,-0.0026604034475651217,11.892385305567856,0.0,-0.39220706488250817,0.0,0.0,0.0,-46.493674401326274,-0.8114676996533469,-0.03409857393103245,0.0,0.0,0.0,0.0,0.0,-0.009379794624109197,-0.5374226446609555,0.0,0.0,11.898850979730355,0.0026604034475651217,0.03496679590857902,-0.0329677311695252,-1.8889118561356875,0.0,0.0,0.023587936545416,1.3514892114747319,-5.251589570942655,0.0,-18.729767995175287,11.895540927894968,0.0,-0.28064331562632955,0.0,8.541560874364741,0.0,0.0,-0.8114676996533469,0.0,-0.1256960304370781,0.3490658503988659,1.0,0.14,0.14,0.75,0.08726646259971647,5.0,0.184,0.175,0.174,0.0,0.0,0.0,-0.004447639465830057,0.0,0.00427502472760666,0.0,6.062313051782392,0.0,-0.5194136125456708,0.0,0.1541370883600347,0.0,-3.700765736104665,0.0,-0.03395908803670731,0.0,-0.008395560621735389,0.4602408416355191,0.0201790747688021,0.09966628712449341,0.0,0.0,0.0,0.431300569465022,0.09966628712449341,0.0,0.0,0.037845791536361625,0.0,0.0,-0.004773800350344543,0.0,1.2100199736541422,0.0,5.236297235084096,0.0,0.06432649494484087,0.0,86.71939189446586,-1.38196003560047,0.0,-5.193567514800829,0.0,0.06432649494484087,0.0
sim_raptor_glider_3dof,raptor_glider_3dof,0.017,-14.797022180340395,0.0,-0.0029455594618573605,11.887129582344896,0.0,-0.4107325564594307,0.0,0.0,0.0,-46.00245053289195,-0.8028942257847845,-0.033751435336949805,0.0,0.0,0.0,0.0,0.0,-0.01018698080676811,-0.5836710062085871,0.0,0.0,11.894223427378302,0.0029455594618573605,0.034953197059503074,-0.03453897041563055,-1.9789372335428415,0.0,0.0,0.024351989608862444,1.3952662273342544,-5.25962207604205,0.0,-18.322194708272235,11.890696849053159,0.0,-0.28961937834354945,0.0,8.604904889892493,0.0,0.0,-0.8028942257847845,0.0,-0.1256960304370781,0.3490658503988659,1.0,0.14,0.14,0.75,0.08726646259971647,5.0,0.184,0.175,0.174,0.0,0.0,0.0,-0.004480588332685074,0.0,0.004274126617586586,0.0,6.062339493954189,0.0,-0.5195877042455977,0.0,0.15231235807084623,0.0,-3.6996023113923884,0.0,-0.033493386374668345,0.0,-0.008249258440142607,0.45361177618116827,0.02067476333179938,0.09940202834978382,0.0,0.0,0.0,0.4249660038622518,0.09940202834978382,0.0,0.0,0.03815612767775402,0.0,0.0,-0.0047252009471729734,0.0,1.2058731895266552,0.0,5.155378808916278,0.0,0.06480353872578037,0.0,86.65195336739954,-1.3831800690419798,0.0,-5.1106627465767325,0.0,0.06480353872578037,0.0
sim_raptor_glider_3dof,raptor_glider_3dof,0.018000000000000002,-14.785133902251888,0.0,-0.003239543953028729,11.881866527548354,0.0,-0.42885340968588515,0.0,0.0,0.0,-45.507679943326444,-0.794258849954833,-0.03340140237159828,0.0,0.0,0.0,0.0,0.0,-0.010985562365590689,-0.6294263591260991,0.0,0.0,11.88960333339482,0.003239543953028729,0.034939620128110783,-0.03607744035512048,-2.0670850679833612,0.0,0.0,0.02509187798952979,1.437658708857262,-5.266261178843509,0.0,-17.920486874895996,11.885860668720492,0.0,-0.298301172033355,0.0,8.665373809735678,0.0,0.0,-0.794258849954833,0.0,-0.1256960304370781,0.3490658503988659,1.0,0.14,0.14,0.75,0.08726646259971647,5.0,0.184,0.175,0.174,0.0,0.0,0.0,-0.004512858338994069,0.0,0.004273100751128195,0.0,6.062354190510857,0.0,-0.5197552039359867,0.0,0.1505248920130255,0.0,-3.6984542943404786,0.0,-0.03303770755051063,0.0,-0.008107699831560048,0.44711339016089696,0.021159430179471642,0.0991484018032865,0.0,0.0,0.0,0.41876463173180123,0.0991484018032865,0.0,0.0,0.03845412858482411,0.0,0.0,-0.004676196332023759,0.0,1.201862149413148,0.0,5.07620245246056,0.0,0.0652589301611194,0.0,86.5846497021476,-1.3841767393205318,0.0,-5.029548560147578,0.0,0.0652589301611194,0.0
sim_raptor_glider_3dof,raptor_glider_3dof,0.019000000000000003,-14.773250456295983,0.0,-0.003542065819953838,11.876597504790954,0.0,-0.4465754750349065,0.0,0.0,0.0,-45.00952554621172,-0.7855644155418936,-0.03304859263405554,0.0,0.0,0.0,0.0,0.0,-0.011775478801444045,-0.6746852370685129,0.0,0.0,11.884990447859407,0.003542065819953838,0.03492606437996828,-0.037583591471388164,-2.1533811702544177,0.0,0.0,0.02580811266994412,1.4786959331859046,-5.271567176709105,0.0,-17.524613698908517,11.8810326170234,0.0,-0.3066951237555659,0.0,8.723031901069563,0.0,0.0,-0.7855644155418936,0.0,-0.1256960304370781,0.3490658503988659,1.0,0.14,0.14,0.75,0.08726646259971647,5.0,0.184,0.175,0.174,0.0,0.0,0.0,-0.004544464670190514,0.0,0.004271948444981449,0.0,6.062357842762282,0.0,-0.5199163517067271,0.0,0.148774227579757,0.0,-3.6973219137388833,0.0,-0.03259189339514994,0.0,-0.007970737895514626,0.4407446902296607,0.021633271173913865,0.09890504641410686,0.0,0.0,0.0,0.41269535496503557,0.09890504641410686,0.0,0.0,0.038740051180891084,0.0,0.0,-0.004626802968767775,0.0,1.197982112812195,0.0,4.99875053107781,0.0,0.06569315324695488,0.0,86.51747713345381,-1.3849628939139127,0.0,-4.950206641853476,0.0,0.06569315324695488,0.0
sim_raptor_glider_3dof,raptor_glider_3dof,0.02,-14.761371834240911,0.0,-0.0038528403697503334,11.871323818128706,0.0,-0.4639045704197883,0.0,0.0,0.0,-44.5081466035267,-0.7768137021918721,-0.0326931211718081,0.0,0.0,0.0,0.0,0.0,-0.01255667243446527,-0.7194443352231208,0.0,0.0,11.880384532721417,0.0038528403697503334,0.034912529115523276,-0.03905787217729304,-2.2378512325203346,0.0,0.0,0.02650119974282777,1.518406897297214,-5.275598590197529,0.0,-17.13454095127979,11.876212899136707,0.0,-0.31480759156223526,0.0,8.77794204551666,0.0,0.0,-0.7768137021918721,0.0,-0.1256960304370781,0.3490658503988659,1.0,0.14,0.14,0.75,0.08726646259971647,5.0,0.184,0.175,0.174,0.0,0.0,0.0,-0.004575421707123054,0.0,0.0042706716047141696,0.0,6.062351125278202,0.0,-0.5200713795217252,0.0,0.1470599012457444,0.0,-3.6962053770967294,0.0,-0.03215578777027296,0.0,-0.007838229971201602,0.43450461832842885,0.02209647847287879,0.0986716098348773,0.0,0.0,0.0,0.4067570131389614,0.0986716098348773,0.0,0.0,0.03901414711058247,0.0,0.0,-0.004577036964053135,0.0,1.194228462521758,0.0,4.923004734936263,0.0,0.06610668154478597,0.0,86.45043207465422,-1.385550875295305,0.0,-4.872617983473603,0.0,0.06610668154478597,0.0
sim_raptor_glider_3dof,raptor_glider_3dof,0.02,-14.761371834240911,0.0,-0.0038528403697503334,11.871323818128706,0.0,-0.4639045704197883,0.0,0.0,0.0,-44.5081466035267,-0.7768137021918721,-0.0326931211718081,0.0,0.0,0.0,0.0,0.0,-0.01255667243446527,-0.7194443352231208,0.0,0.0,11.880384532721417,0.0038528403697503334,0.034912529115523276,-0.03905787217729304,-2.2378512325203346,0.0,0.0,0.02650119974282777,1.518406897297214,-5.290647829867317,0.0,-17.094201594522534,11.876212899136707,0.0,-0.31480759156223526,0.0,9.234224856548671,0.0,0.0,-0.7768137021918721,0.0,-0.12912731279548129,0.3490658503988659,1.0,0.14,0.14,0.75,0.08726646259971647,5.0,0.184,0.175,0.174,0.0,0.0,0.0,-0.003795690893761118,0.0,0.004410126295754793,0.0,6.061256759685423,0.0,-0.5199791993422211,0.0,0.14702571419296687,0.0,-3.6920079187726915,0.0,-0.032369520240298426,0.0,-0.007911615991956276,0.4335970887987411,0.02414366968894169,0.09904908097511668,0.0,0.0,0.0,0.405854492561044,0.09904908097511668,0.0,0.0,0.04104212640474118,0.0,0.0,-0.004577036964053135,0.0,1.198797018565475,0.0,4.912081473787851,0.0,0.06954294739466804,0.0,86.45043207465422,-1.3896894162044968,0.0,-4.861524660365357,0.0,0.06954294739466804,0.0
sim_raptor_glider_3dof,raptor_glider_3dof,0.021,-14.749498040563681,0.0,-0.004171563886586916,11.866031853317558,0.0,-0.48080398127589974,0.0,0.0,0.0,-43.97764808533354,-0.7675547563724505,-0.032316002853588405,0.0,0.0,0.0,0.0,0.0,-0.01332884735671869,-0.7636866993140842,0.0,0.0,11.875768792476455,0.004171563886586916,0.03489896497833158,-0.04049720371529672,-2.320318854968019,0.0,0.0,0.02716835635857803,1.5566321556539349,-5.293204456619364,0.0,-16.70586577620046,11.87138619328038,0.0,-0.3226054282706266,0.0,9.283396298864929,0.0,0.0,-0.7675547563724505,0.0,-0.12912731279548129,0.3490658503988659,1.0,0.14,0.14,0.75,0.08726646259971647,5.0,0.184,0.175,0.174,0.0,0.0,0.0,-0.0038224643614528297,0.0,0.0044096712247775425,0.0,6.061238542009897,0.0,-0.5201271672054355,0.0,0.14535153221768393,0.0,-3.690901761529914,0.0,-0.031944864997973416,0.0,-0.007784205441837501,0.42750034102807755,0.024594224990607514,0.09882704617987173,0.0,0.0,0.0,0.40007784074529545,0.09882704617987173,0.0,0.0,0.04129275185071564,0.0,0.0,-0.004524240399502378,0.0,1.1951804788474758,0.0,4.838404503236231,0.0,0.06991325752675179,0.0,86.3832700696245,-1.3900888497513608,0.0,-4.786049258391691,0.0,0.06991325752675179,0.0
sim_raptor_glider_3dof,raptor_glider_3dof,0.022,-14.73762906397575,0.0,-0.004497952633723553,11.860737878215465,0.0,-0.4973181919486133,0.0,0.0,0.0,-43.444405024693616,-0.758247909250872,-0.03193655631691135,0.0,0.0,0.0,0.0,0.0,-0.014091751904204664,-0.8073979100563684,0.0,0.0,11.871159522126646,0.004497952633723553,0.034885419854026406,-0.041905238773734685,-2.4009933212229706,0.0,0.0,0.027813486869530023,1.5935954111666024,-5.294590791227015,0.0,-16.323350131900852,11.86656811267208,0.0,-0.330135770694878,0.0,9.329942393175655,0.0,0.0,-0.758247909250872,0.0,-0.12912731279548129,0.3490658503988659,1.0,0.14,0.14,0.75,0.08726646259971647,5.0,0.184,0.175,0.174,0.0,0.0,0.0,-0.0038486892745446845,0.0,0.00440908383746316,0.0,6.061211316836272,0.0,-0.5202694502761722,0.0,0.14371313503616703,0.0,-3.6898122722088313,0.0,-0.03152968413388775,0.0,-0.007660982258734177,0.42153129771525016,0.025034437155880374,0.09861425129124085,0.0,0.0,0.0,0.39443090739561226,0.09861425129124085,0.0,0.0,0.04153202279611229,0.0,0.0,-0.004471117884367589,0.0,1.1916814312366133,0.0,4.766410352404197,0.0,0.07026379616300586,0.0,86.31622824960516,-1.3903143697137532,0.0,-4.712302858945666,0.0,0.07026379616300586,0.0
sim_raptor_glider_3dof,raptor_glider_3dof,0.023,-14.725764900463398,0.0,-0.004831724203065513,11.855443148746303,0.0,-0.5134531481177931,0.0,0.0,0.0,-42.90857810483387,-0.7488959652784997,-0.03155489786417777,0.0,0.0,0.0,0.0,0.0,-0.014845324051101727,-0.8505744136321826,0.0,0.0,11.866556635708092,0.004831724203065513,0.03487189348998822,-0.043282437652352714,-2.4799010045179335,0.0,0.0,0.028437113601250986,1.629326590885751,-5.294861628343508,0.0,-15.946610325824974,11.86175889824131,0.0,-0.33740513994426313,0.0,9.373924715687554,0.0,0.0,-0.7488959652784997,0.0,-0.12912731279548129,0.3490658503988659,1.0,0.14,0.14,0.75,0.08726646259971647,5.0,0.184,0.175,0.174,0.0,0.0,0.0,-0.0038743766106699522,0.0,0.004408367014539291,0.0,6.061175685590374,0.0,-0.520406260471864,0.0,0.14211003616070694,0.0,-3.68873958528089,0.0,-0.031123822376916722,0.0,-0.007541813497087392,0.41568865574486386,0.025464494618326238,0.09841036521704045,0.0,0.0,0.0,0.388912286587474,0.09841036521704045,0.0,0.0,0.04176018673887855,0.0,0.0,-0.004417685700984888,0.0,1.1882955881857822,0.0,4.696078033283394,0.0,0.07059502703384297,0.0,86.24930525538498,-1.390376951473105,0.0,-4.640263702894586,0.0,0.07059502703384297,0.0
sim_raptor_glider_3dof,raptor_glider_3dof,0.024,-14.713905542749057,0.0,-0.005172664056014937,11.850148566384169,0.0,-0.5292136325677957,0.0,0.0,0.0,-42.370288032952544,-0.7395010311933735,-0.03117111545634766,0.0,0.0,0.0,0.0,0.0,-0.015589527284002124,-0.8932141179773668,0.0,0.0,11.861959708002399,0.005172664056014937,0.0348583846366405,-0.044629164521991865,-2.557062770305122,0.0,0.0,0.02903963723798974,1.663848652327755,-5.294068184374517,0.0,-15.57560958592211,11.856958461020353,0.0,-0.3444185940251202,0.0,9.415393542169863,0.0,0.0,-0.7395010311933735,0.0,-0.12912731279548129,0.3490658503988659,1.0,0.14,0.14,0.75,0.08726646259971647,5.0,0.184,0.175,0.174,0.0,0.0,0.0,-0.003899535041949625,0.0,0.004407524129290857,0.0,6.061132228387072,0.0,-0.5205377932306414,0.0,0.14054185826357535,0.0,-3.687683889920749,0.0,-0.03072715390508032,0.0,-0.0074265782060476725,0.409971463714368,0.025884553229559792,0.09821507913711695,0.0,0.0,0.0,0.3835209483661539,0.09821507913711695,0.0,0.0,0.0419774440714524,0.0,0.0,-0.004363956163888673,0.0,1.18501887658458,0.0,4.627390899365041,0.0,0.07090732876608125,0.0,86.18249480016843,-1.3902869757292666,0.0,-4.5699144848132285,0.0,0.07090732876608125,0.0
sim_raptor_glider_3dof,raptor_glider_3dof,0.025,-14.702050980746046,0.0,-0.005520485601545443,11.844855316706719,0.0,-0.5446061092937802,0.0,0.0,0.0,-41.82969622185765,-0.7300659241804485,-0.030785326010092845,0.0,0.0,0.0,0.0,0.0,-0.016324314107446183,-0.9353143018025358,0.0,0.0,11.857368733745085,0.005520485601545443,0.034844893278512694,-0.0459459245851562,-2.632507564555818,0.0,0.0,0.029621610477710017,1.6971932627532822,-5.29226244921697,0.0,-15.210290807895678,11.8521670504404,0.0,-0.3511829956737688,0.0,9.454412156789424,0.0,0.0,-0.7300659241804485,0.0,-0.12912731279548129,0.3490658503988659,1.0,0.14,0.14,0.75,0.08726646259971647,5.0,0.184,0.175,0.174,0.0,0.0,0.0,-0.003924175406140682,0.0,0.0044065588585282004,0.0,6.0610814977401235,0.0,-0.5206642510843044,0.0,0.13900805719761702,0.0,-3.6866452452800167,0.0,-0.030339512417811416,0.0,-0.007315146924109592,0.40437811924543365,0.026294810401448994,0.09802807169621712,0.0,0.0,0.0,0.37825518746199965,0.09802807169621712,0.0,0.0,0.042184051007779555,0.0,0.0,-0.004309945641412998,0.0,1.1818471691254575,0.0,4.560324555749011,0.0,0.07120117795278115,0.0,86.11579670682264,-1.390054548212396,0.0,-4.501229958348196,0.0,0.07120117795278115,0.0
sim_raptor_glider_3dof,raptor_glider_3dof,0.026000000000000002,-14.690201205621065,0.0,-0.005874949480514575,11.839564358137611,0.0,-0.5596360872040113,0.0,0.0,0.0,-41.28693767644685,-0.7205930005196948,-0.030397627713783754,0.0,0.0,0.0,0.0,0.0,-0.017049646737153912,-0.976872800227914,0.0,0.0,11.852783501801738,0.005874949480514575,0.03483141879515042,-0.04723314399831935,-2.706259804237373,0.0,0.0,0.030183497261165437,1.729387004009459,-5.289493434629171,0.0,-14.850604468281253,11.847384710974096,0.0,-0.35770413858484007,0.0,9.491035117578038,0.0,0.0,-0.7205930005196948,0.0,-0.12912731279548129,0.3490658503988659,1.0,0.14,0.14,0.75,0.08726646259971647,5.0,0.184,0.175,0.174,0.0,0.0,0.0,-0.003948306642013405,0.0,0.004405475253411607,0.0,6.061024025254485,0.0,-0.5207858221081482,0.0,0.1375081783245496,0.0,-3.6856237527963844,0.0,-0.029960755930062772,0.0,-0.007207400565303759,0.3989073064283597,0.02669543652711324,0.09784904133265063,0.0,0.0,0.0,0.3731136011646018,0.09784904133265063,0.0,0.0,0.04238022714939487,0.0,0.0,-0.004255667879929726,0.0,1.178776548820387,0.0,4.494858172432555,0.0,0.0714769854704802,0.0,86.04920780930156,-1.3896892363954496,0.0,-4.434188535524766,0.0,0.0714769854704802,0.0
sim_raptor_glider_3dof,raptor_glider_3dof,0.027,-14.678356208275972,0.0,-0.006235815158307189,11.834276631744782,0.0,-0.5743091744802118,0.0,0.0,0.0,-40.742148204597264,-0.7110846305057186,-0.03000811935826662,0.0,0.0,0.0,0.0,0.0,-0.017765488456692888,-1.017887509556885,0.0,0.0,11.848203848033371,0.006235815158307189,0.034817960704203385,-0.04849125787960991,-2.778344419782145,0.0,0.0,0.03072576942291702,1.7604569102252603,-5.285808731945355,0.0,-14.496497769371304,11.842611503896606,0.0,-0.3639879013490689,0.0,9.5253170327563,0.0,0.0,-0.7110846305057186,0.0,-0.12912731279548129,0.3490658503988659,1.0,0.14,0.14,0.75,0.08726646259971647,5.0,0.184,0.175,0.174,0.0,0.0,0.0,-0.003971937470375147,0.0,0.004404277646300848,0.0,6.060960319903308,0.0,-0.5209026888565499,0.0,0.1360417541893226,0.0,-3.684619488183261,0.0,-0.029590740786727493,0.0,-0.007103222714138942,0.39355762583110526,0.027086602577256865,0.09767769319557251,0.0,0.0,0.0,0.3680947029323526,0.09767769319557251,0.0,0.0,0.04256619277202467,0.0,0.0,-0.004201136710157327,0.0,1.1758032011686497,0.0,4.430970018656229,0.0,0.0717351625736877,0.0,85.9827256285212,-1.3892001936997336,0.0,-4.368767709083815,0.0,0.0717351625736877,0.0
sim_raptor_glider_3dof,raptor_glider_3dof,0.028,-14.666515979554632,0.0,-0.00660284809777726,11.82899303053798,0.0,-0.5886309243338872,0.0,0.0,0.0,-40.1954604338348,-0.7015431289255256,-0.02961689750818742,0.0,0.0,0.0,0.0,0.0,-0.018471804957451557,-1.0583564640508054,0.0,0.0,11.843629616025583,0.00660284809777726,0.03480451854602128,-0.049720697440718234,-2.8487861178000684,0.0,0.0,0.031248892483266677,1.790429653749263,-5.2812543242726955,0.0,-14.147916393668194,11.837847474193207,0.0,-0.37004007801284255,0.0,9.55731131324074,0.0,0.0,-0.7015431289255256,0.0,-0.12912731279548129,0.3490658503988659,1.0,0.14,0.14,0.75,0.08726646259971647,5.0,0.184,0.175,0.174,0.0,0.0,0.0,-0.003995076190340097,0.0,0.004402970616090974,0.0,6.060890869073739,0.0,-0.5210150273162713,0.0,0.13460831962199113,0.0,-3.6836325121088414,0.0,-0.029229325403448192,0.0,-0.0070025006257568795,0.3883276523416991,0.027468476200025963,0.09751374090985808,0.0,0.0,0.0,0.36319698262682587,0.09751374090985808,0.0,0.0,0.0427421635196796,0.0,0.0,-0.004146365651146239,0.0,1.17292342711799,0.0,4.368638159163304,0.0,0.07197611150001602,0.0,85.91634780126914,-1.3885961563834242,0.0,-4.304944766899702,0.0,0.07197611150001602,0.0
sim_raptor_glider_3dof,raptor_glider_3dof,0.029,-14.654680510261143,0.0,-0.006975819878597631,11.823714399397783,0.0,-0.6026068316631532,0.0,0.0,0.0,-39.64700377136547,-0.6919707543609366,-0.02922405647403974,0.0,0.0,0.0,0.0,0.0,-0.01916856436522766,-1.0982778374524107,0.0,0.0,11.839060654971474,0.006975819878597631,0.03479109187743241,-0.05092188971133403,-2.91760936529009,0.0,0.0,0.03175332534610637,1.8193315278376792,-5.275874618141414,0.0,-13.804804685155545,11.833092649874146,0.0,-0.3758663746439913,0.0,9.587070179530793,0.0,0.0,-0.6919707543609366,0.0,-0.12912731279548129,0.3490658503988659,1.0,0.14,0.14,0.75,0.08726646259971647,5.0,0.184,0.175,0.174,0.0,0.0,0.0,-0.004017730708260846,0.0,0.004401558949501818,0.0,6.060816139242184,0.0,-0.5211230070962074,0.0,0.13320741217392232,0.0,-3.682662871025834,0.0,-0.028876370299571644,0.0,-0.006905125143575278,0.3832159393821348,0.027841221745835587,0.0973569064872223,0.0,0.0,0.0,0.35841891074365684,0.0973569064872223,0.0,0.0,0.042908350426314745,0.0,0.0,-0.004091367906365564,0.0,1.1701336410991432,0.0,4.307840503563128,0.0,0.0722002255220464,0.0,85.85007204927385,-1.3878854562457401,0.0,-4.242696843107284,0.0,0.0722002255220464,0.0
sim_raptor_glider_3dof,raptor_glider_3dof,0.03,-14.642849791181174,0.0,-0.007354507395181887,11.81844154242598,0.0,-0.6162423382075021,0.0,0.0,0.0,-39.09690485142032,-0.682369716996229,-0.028829688623933952,0.0,0.0,0.0,0.0,0.0,-0.019855736897421115,-1.1376499233444135,0.0,0.0,11.834496825431135,0.007354507395181887,0.034777680288668886,-0.052095257947630945,-2.984838413044612,0.0,0.0,0.03223952105020983,1.8471884897001987,-5.269712496767758,0.0,-13.46710580503536,11.82834704872057,0.0,-0.3814724186137509,0.0,9.614644765987585,0.0,0.0,-0.682369716996229,0.0,-0.12912731279548129,0.3490658503988659,1.0,0.14,0.14,0.75,0.08726646259971647,5.0,0.184,0.175,0.174,0.0,0.0,0.0,-0.004039908577317282,0.0,0.004400047604468602,0.0,6.060736576596438,0.0,-0.5212267916732588,0.0,0.13183857175105784,0.0,-3.681710597435138,0.0,-0.02853173793232149,0.0,-0.006810990563401121,0.37822102003114794,0.02820500049934865,0.09720692014265811,0.0,0.0,0.0,0.35375893926425317,0.09720692014265811,0.0,0.0,0.043064960317197656,0.0,0.0,-0.004036156407350754,0.0,1.1674303694925527,0.0,4.248554820690438,0.0,0.0724078897326525,0.0,85.78389626253423,-1.3870760350478617,0.0,-4.182000933168401,0.0,0.0724078897326525,0.0
sim_raptor_glider_3dof,raptor_glider_3dof,0.03,-14.642849791181174,0.0,-0.007354507395181887,11.81844154242598,0.0,-0.6162423382075021,0.0,0.0,0.0,-39.09690485142032,-0.682369716996229,-0.028829688623933952,0.0,0.0,0.0,0.0,0.0,-0.019855736897421115,-1.1376499233444135,0.0,0.0,11.834496825431135,0.007354507395181887,0.034777680288668886,-0.052095257947630945,-2.984838413044612,0.0,0.0,0.03223952105020983,1.8471884897001987,-5.2800634504099735,0.0,-13.439681635434646,11.82834704872057,0.0,-0.3814724186137509,0.0,9.924481558052582,0.0,0.0,-0.682369716996229,0.0,-0.13147929113565726,0.3490658503988659,1.0,0.14,0.14,0.75,0.08726646259971647,5.0,0.184,0.175,0.174,0.0,0.0,0.0,-0.0034890605756544694,0.0,0.004505363188140165,0.0,6.059965736669415,0.0,-0.5211584804421615,0.0,0.13181642211814573,0.0,-3.678742846389878,0.0,-0.028681825141104393,0.0,-0.006865534331796504,0.3776031420225573,0.02960476894146666,0.09747631443382561,0.0,0.0,0.0,0.353144172486173,0.09747631443382561,0.0,0.0,0.04445275045191892,0.0,0.0,-0.004036156407350754,0.0,1.1706657263623652,0.0,4.24117162815813,0.0,0.074741270613694,0.0,85.78389626253423,-1.389922547299471,0.0,-4.1744592865282035,0.0,0.074741270613694,0.0
sim_raptor_glider_3dof,raptor_glider_3dof,0.031,-14.631023830757995,0.0,-0.0077386772160501485,11.81316504862273,0.0,-0.6295135640228801,0.0,0.0,0.0,-38.527599395818875,-0.6724334623464174,-0.028420864442575206,0.0,0.0,0.0,0.0,0.0,-0.02053311139398241,-1.1764606231471746,0.0,0.0,11.829926280129156,0.0077386772160501485,0.03476424896449838,-0.053238796800655366,-3.0503583630321423,0.0,0.0,0.03270568540667296,1.8738977398849679,-5.2729573922213575,0.0,-13.104628480419562,11.823599833627263,0.0,-0.386836874586437,0.0,9.947889158633705,0.0,0.0,-0.6724334623464174,0.0,-0.13147929113565726,0.3490658503988659,1.0,0.14,0.14,0.75,0.08726646259971647,5.0,0.184,0.175,0.174,0.0,0.0,0.0,-0.003508877965027094,0.0,0.004504289478400892,0.0,6.059880979434913,0.0,-0.5212575648460144,0.0,0.13048215903647614,0.0,-3.6778055741242865,0.0,-0.02834654685969733,0.0,-0.006774951767414036,0.3727344422424125,0.029958334240649462,0.09733392640565595,0.0,0.0,0.0,0.34862265442276014,0.09733392640565595,0.0,0.0,0.0445920321542162,0.0,0.0,-0.00397892102196053,0.0,1.1680529429988735,0.0,4.18363598934114,0.0,0.07491755325367044,0.0,85.71764866818313,-1.3890245310320173,0.0,-4.115552043304766,0.0,0.07491755325367044,0.0
sim_raptor_glider_3dof,raptor_glider_3dof,0.032,-14.619202599926597,0.0,-0.008128092489872285,11.807895995625664,0.0,-0.6424533405563405,0.0,0.0,0.0,-37.957016371062764,-0.6624749099084349,-0.02801076983522138,0.0,0.0,0.0,0.0,0.0,-0.021200565587535324,-1.2147029314560644,0.0,0.0,11.825360634598194,0.008128092489872285,0.03475083203913778,-0.0543551966726074,-3.1143233639439396,0.0,0.0,0.03315463108507208,1.8996204324878752,-5.265148160931082,0.0,-12.774924766181611,11.81886183693907,0.0,-0.3919936449100191,0.0,9.969215464202225,0.0,0.0,-0.6624749099084349,0.0,-0.13147929113565726,0.3490658503988659,1.0,0.14,0.14,0.75,0.08726646259971647,5.0,0.184,0.175,0.174,0.0,0.0,0.0,-0.0035282709031417363,0.0,0.004503120481208018,0.0,6.059792285928519,0.0,-0.5213527636705378,0.0,0.12917922853062822,0.0,-3.676885945239824,0.0,-0.028019354916960462,0.0,-0.006687407772425932,0.3679801911304304,0.030303205311109204,0.09719785873970793,0.0,0.0,0.0,0.3442166685545753,0.09719785873970793,0.0,0.0,0.04472214214025544,0.0,0.0,-0.003921507776930994,0.0,1.165519903616027,0.0,4.12757424452254,0.0,0.07507816166090696,0.0,85.65149764235355,-1.3880432209816695,0.0,-4.0581574398312545,0.0,0.07507816166090696,0.0
sim_raptor_glider_3dof,raptor_glider_3dof,0.033,-14.6073861025005,0.0,-0.008522563134291937,11.80263508406184,0.0,-0.6550660638305099,0.0,0.0,0.0,-37.38526987986357,-0.6524960511502842,-0.027599488424780234,0.0,0.0,0.0,0.0,0.0,-0.021858051082586368,-1.2523740754135588,0.0,0.0,11.82079973925241,0.008522563134291937,0.03473742907300364,-0.05544479430740405,-3.1767527097852244,0.0,0.0,0.03358674322481768,1.9243786343716653,-5.256674274314859,0.0,-12.450524081506755,11.814133025232872,0.0,-0.3969475250102889,0.0,9.98850093265914,0.0,0.0,-0.6524960511502842,0.0,-0.13147929113565726,0.3490658503988659,1.0,0.14,0.14,0.75,0.08726646259971647,5.0,0.184,0.175,0.174,0.0,0.0,0.0,-0.003547239178043152,0.0,0.004501867106372768,0.0,6.059700059468048,0.0,-0.5214442139715386,0.0,0.1279072667503873,0.0,-3.6759840134029536,0.0,-0.027700139448819824,0.0,-0.006602812507446598,0.363339195993,0.03063950256385098,0.09706787109428784,0.0,0.0,0.0,0.33992494896215003,0.09706787109428784,0.0,0.0,0.04484324151571386,0.0,0.0,-0.003863928379469233,0.0,1.1630635167755856,0.0,4.072967729926295,0.0,0.07522340052385598,0.0,85.5854409367583,-1.3869854467288585,0.0,-4.002256144181391,0.0,0.07522340052385598,0.0
sim_raptor_glider_3dof,raptor_glider_3dof,0.034,-14.595574330445325,0.0,-0.008921912670530777,11.797382883348192,0.0,-0.6673563748071045,0.0,0.0,0.0,-36.81246178569757,-0.6424986639250139,-0.027187095073094022,0.0,0.0,0.0,0.0,0.0,-0.022505550758367385,-1.2894730740719005,0.0,0.0,11.816243372041411,0.008921912670530777,0.03472403941356317,-0.056507948206578666,-3.237666941180807,0.0,0.0,0.03400239744821128,1.9481938671089063,-5.2475726999172565,0.0,-12.131372439342709,11.809413278254679,0.0,-0.40170318730956395,0.0,10.00578618927462,0.0,0.0,-0.6424986639250139,0.0,-0.13147929113565726,0.3490658503988659,1.0,0.14,0.14,0.75,0.08726646259971647,5.0,0.184,0.175,0.174,0.0,0.0,0.0,-0.003565783476744554,0.0,0.004500539525227483,0.0,6.059604683621909,0.0,-0.5215320503706803,0.0,0.12666588271797133,0.0,-3.6750998006303846,0.0,-0.0273887848660922,0.0,-0.006521077003390471,0.35881014488054686,0.030967352983202287,0.09694372752692552,0.0,0.0,0.0,0.3357461180710876,0.09694372752692552,0.0,0.0,0.04495549325880089,0.0,0.0,-0.0038061933102331636,0.0,1.1606807390668614,0.0,4.019796457211165,0.0,0.07535357579142717,0.0,85.51947525762078,-1.3858577011026052,0.0,-3.947827474414609,0.0,0.07535357579142717,0.0
sim_raptor_glider_3dof,raptor_glider_3dof,0.034999999999999996,-14.583767273241342,0.0,-0.009325913903384307,11.79214010669699,0.0,-0.6793303220820367,0.0,0.0,0.0,-36.23872365696537,-0.6324850445344058,-0.02677368606551302,0.0,0.0,0.0,0.0,0.0,-0.023143043990655747,-1.3259987457501765,0.0,0.0,11.811691580060486,0.009325913903384307,0.03471066319921386,-0.05754513564845556,-3.297093404164323,0.0,0.0,0.03440209165779981,1.9710946584141467,-5.237880491502153,0.0,-11.817398499881158,11.804702677797135,0.0,-0.4062667489236499,0.0,10.021122628397427,0.0,0.0,-0.6324850445344058,0.0,-0.13147929113565726,0.3490658503988659,1.0,0.14,0.14,0.75,0.08726646259971647,5.0,0.184,0.175,0.174,0.0,0.0,0.0,-0.0035839070613110143,0.0,0.004499147051310895,0.0,6.0595065127134,0.0,-0.521616412847118,0.0,0.12545454506097092,0.0,-3.6742332159845414,0.0,-0.02708514143641758,0.0,-0.006442105828039524,0.354391195157087,0.03128691996009527,0.09682518570801586,0.0,0.0,0.0,0.3316782496454222,0.09682518570801586,0.0,0.0,0.045059107291970324,0.0,0.0,-0.0037483160491718227,0.0,1.1583685129283128,0.0,3.968034122558117,0.0,0.07546907451446103,0.0,85.45360121055592,-1.3846661663394932,0.0,-3.8948442866594815,0.0,0.07546907451446103,0.0
sim_raptor_glider_3dof,raptor_glider_3dof,0.036,-14.571964922084202,0.0,-0.009734384451628393,11.786907303953665,0.0,-0.6909928660346115,0.0,0.0,0.0,-35.66416177690245,-0.6224570479708592,-0.026359339553269977,0.0,0.0,0.0,0.0,0.0,-0.023770516231887726,-1.3619502569343835,0.0,0.0,11.807144232747687,0.009734384451628393,0.03469730004627725,-0.058556743310677006,-3.355054253732708,0.0,0.0,0.034786227078789284,1.9931039967983246,-5.227632360063663,0.0,-11.508542288156532,11.80000114914167,0.0,-0.4106431701152,0.0,10.03455288524284,0.0,0.0,-0.6224570479708592,0.0,-0.13147929113565726,0.3490658503988659,1.0,0.14,0.14,0.75,0.08726646259971647,5.0,0.184,0.175,0.174,0.0,0.0,0.0,-0.003601612083264113,0.0,0.004497698435436974,0.0,6.059405890810886,0.0,-0.5216974294623292,0.0,0.12427282656101483,0.0,-3.6733842298518353,0.0,-0.02678908657688009,0.0,-0.006365813161818293,0.35008086739506106,0.031598338671397184,0.09671202141235122,0.0,0.0,0.0,0.32771979616368546,0.09671202141235122,0.0,0.0,0.04515425618279802,0.0,0.0,-0.0036903075374577973,0.0,1.1561239717546778,0.0,3.9176589097227326,0.0,0.07557021777876384,0.0,85.38781683061404,-1.3834166944300366,0.0,-3.8432840410992255,0.0,0.07557021777876384,0.0
sim_raptor_glider_3dof,raptor_glider_3dof,0.037,-14.560167267942697,0.0,-0.010147139968406224,11.781685013290527,0.0,-0.7023490866253133,0.0,0.0,0.0,-35.08888397060234,-0.612416556137272,-0.025944134846584838,0.0,0.0,0.0,0.0,0.0,-0.024387954075365807,-1.3973268394773368,0.0,0.0,11.802601238365973,0.010147139968406224,0.034683949685168455,-0.05954316857258917,-3.411572258045362,0.0,0.0,0.035155214497223364,2.014245418568025,-5.21686191992998,0.0,-11.20474146870176,11.795308636334486,0.0,-0.4148375169763681,0.0,10.046120304351632,0.0,0.0,-0.612416556137272,0.0,-0.13147929113565726,0.3490658503988659,1.0,0.14,0.14,0.75,0.08726646259971647,5.0,0.184,0.175,0.174,0.0,0.0,0.0,-0.003618901313894005,0.0,0.004496201786561598,0.0,6.059303143665674,0.0,-0.521775224967052,0.0,0.12312028597936493,0.0,-3.672552790467281,0.0,-0.026500495145369927,0.0,-0.006292114865116177,0.3458776157322966,0.03190174731328791,0.0966040163141445,0.0,0.0,0.0,0.32386914283531293,0.0966040163141445,0.0,0.0,0.04524111598907975,0.0,0.0,-0.003632178878521877,0.0,1.1539443358406,0.0,3.868648294218379,0.0,0.07565733201207214,0.0,85.32212071716661,-1.382114836739325,0.0,-3.7931234797515363,0.0,0.07565733201207214,0.0
sim_raptor_glider_3dof,raptor_glider_3dof,0.038,-14.548374301827652,0.0,-0.010564000574742565,11.776473742686528,0.0,-0.7134040117509185,0.0,0.0,0.0,-34.512995894043286,-0.6023654130783394,-0.025528149742288987,0.0,0.0,0.0,0.0,0.0,-0.024995345836367235,-1.4321278238937374,0.0,0.0,11.79806251450498,0.010564000574742565,0.0346706118737106,-0.06050480510303017,-3.4666699726652346,0.0,0.0,0.035509459266662935,2.0345421487714974,-5.20560155613355,0.0,-10.905933411688526,11.790625079550205,0.0,-0.41885478348623767,0.0,10.055867602416985,0.0,0.0,-0.6023654130783394,0.0,-0.13147929113565726,0.3490658503988659,1.0,0.14,0.14,0.75,0.08726646259971647,5.0,0.184,0.175,0.174,0.0,0.0,0.0,-0.0036357778611811964,0.0,0.004494664626519176,0.0,6.059198580574001,0.0,-0.521849919731625,0.0,0.1219964849675714,0.0,-3.671738836325236,0.0,-0.026219243630948172,0.0,-0.00622092950957163,0.34177989100018613,0.032197282630786896,0.0965009595139093,0.0,0.0,0.0,0.320124672984544,0.0965009595139093,0.0,0.0,0.04531986046674729,0.0,0.0,-0.0035739409639204585,0.0,1.1518269244769417,0.0,3.820979805696407,0.0,0.07573073891380232,0.0,85.25651160649277,-1.3807658532404932,0.0,-3.7443394074275393,0.0,0.07573073891380232,0.0
sim_raptor_glider_3dof,raptor_glider_3dof,0.039,-14.536586014820841,0.0,-0.010984792006824475,11.77127396401479,0.0,-0.724162598419534,0.0,0.0,0.0,-33.93660045186453,-0.5923054148188314,-0.0251114601095198,0.0,0.0,0.0,0.0,0.0,-0.025592681899175202,-1.4663526592435954,0.0,0.0,11.79352797956753,0.010984792006824475,0.034657286372116514,-0.06144204129734821,-3.5203696510065616,0.0,0.0,0.035849359398173006,2.0540169917629663,-5.1938824342092795,0.0,-10.612055433464477,11.785950408248654,0.0,-0.422699868873449,0.0,10.063836700834333,0.0,0.0,-0.5923054148188314,0.0,-0.13147929113565726,0.3490658503988659,1.0,0.14,0.14,0.75,0.08726646259971647,5.0,0.184,0.175,0.174,0.0,0.0,0.0,-0.003652245112321979,0.0,0.004493093928135617,0.0,6.059092495145798,0.0,-0.5219216297550847,0.0,0.1209009899745631,0.0,-3.6709422979507247,0.0,-0.025945210581178223,0.0,-0.006152178412024073,0.33778614900735315,0.032485079416609344,0.09640264752723769,0.0,0.0,0.0,0.31648477667850894,0.09640264752723769,0.0,0.0,0.045390660367716745,0.0,0.0,-0.003515604415332772,0.0,1.1497691537666839,0.0,3.7746311247196287,0.0,0.07579075419398336,0.0,85.1909882485205,-1.3793747228053665,0.0,-3.696908790968631,0.0,0.07579075419398336,0.0
sim_raptor_glider_3dof,raptor_glider_3dof,0.04,-14.524802398073586,0.0,-0.011409344483353174,11.766086121048419,0.0,-0.7346297455505634,0.0,0.0,0.0,-33.35979835099244,-0.582238319026193,-0.02469414028038407,0.0,0.0,0.0,0.0,0.0,-0.02617995428388092,-1.5000008883118163,0.0,0.0,11.78899756005471,0.011409344483353174,0.03464397296439716,-0.06235526131805016,-3.5726933039596327,0.0,0.0,0.03617530703416924,2.072692415647817,-5.181734557623505,0.0,-10.323044787646426,11.781284548684543,0.0,-0.4263775954512476,0.0,10.07006885367075,0.0,0.0,-0.582238319026193,0.0,-0.13147929113565726,0.3490658503988659,1.0,0.14,0.14,0.75,0.08726646259971647,5.0,0.184,0.175,0.174,0.0,0.0,0.0,-0.00366830672374278,0.0,0.00449149614746187,0.0,6.058985165785739,0.0,-0.5219904668769642,0.0,0.11983337110753171,0.0,-3.670163097464417,0.0,-0.025678276269230423,0.0,-0.0060857854758883355,0.3338948476211576,0.032765270813500516,0.09630888398929531,0.0,0.0,0.0,0.31294784747146254,0.09630888398929531,0.0,0.0,0.04545368394679505,0.0,0.0,-0.0034571796392537696,0.0,1.147768534146772,0.0,3.7295800478451415,0.0,0.07583768853699442,0.0,85.12554951200748,-1.3779461551847136,0.0,-3.650808723375365,0.0,0.07583768853699442,0.0
sim_raptor_glider_3dof,raptor_glider_3dof,0.04,-14.524802398073586,0.0,-0.011409344483353174,11.766086121048419,0.0,-0.7346297455505634,0.0,0.0,0.0,-33.35979835099244,-0.582238319026193,-0.02469414028038407,0.0,0.0,0.0,0.0,0.0,-0.02617995428388092,-1.5000008883118163,0.0,0.0,11.78899756005471,0.011409344483353174,0.03464397296439716,-0.06235526131805016,-3.5726933039596327,0.0,0.0,0.03617530703416924,2.072692415647817,-5.187642362097767,0.0,-10.307542702366925,11.781284548684543,0.0,-0.4263775954512476,0.0,10.245257481851434,0.0,0.0,-0.582238319026193,0.0,-0.13282151128544883,0.3490658503988659,1.0,0.14,0.14,0.75,0.08726646259971647,5.0,0.184,0.175,0.174,0.0,0.0,0.0,-0.0033474683416226557,0.0,0.00455577332756475,0.0,6.0585369826325515,0.0,-0.5219492716866726,0.0,0.11982154081505925,0.0,-3.668433449333167,0.0,-0.0257653304161246,0.0,-0.006118524564927575,0.33354477524933607,0.033562006633983295,0.0964672334287136,0.0,0.0,0.0,0.31259932454931283,0.0964672334287136,0.0,0.0,0.046244440062975394,0.0,0.0,-0.0034571796392537696,0.0,1.1496556757731282,0.0,3.7254264991079675,0.0,0.07715703409582315,0.0,85.12554951200748,-1.3795708014151358,0.0,-3.646545649923502,0.0,0.07715703409582315,0.0
sim_raptor_glider_3dof,raptor_glider_3dof,0.041,-14.513023468991298,0.0,-0.011837490348404794,11.760904877601847,0.0,-0.7447929555703977,0.0,0.0,0.0,-32.77268934131709,-0.5719913337392349,-0.02426887283996799,0.0,0.0,0.0,0.0,0.0,-0.026757017041203493,-1.5330641488205816,0.0,0.0,11.78446435298042,0.011837490348404794,0.034630651364954655,-0.0632434075893821,-3.623580336897234,0.0,0.0,0.03648639054817861,2.0905161880766525,-5.174967696545609,0.0,-10.021825646385667,11.776621149613263,0.0,-0.4298771744903751,0.0,10.248663504190048,0.0,0.0,-0.5719913337392349,0.0,-0.13282151128544883,0.3490658503988659,1.0,0.14,0.14,0.75,0.08726646259971647,5.0,0.184,0.175,0.174,0.0,0.0,0.0,-0.0033622989567881497,0.0,0.004554395273203273,0.0,6.058428421196436,0.0,-0.5220150333878842,0.0,0.11878312765670611,0.0,-3.6676708473844095,0.0,-0.025505996596192054,0.0,-0.0060546045797012895,0.3297607980000888,0.03383397770461819,0.09637828974509713,0.0,0.0,0.0,0.3091764259451198,0.09637828974509713,0.0,0.0,0.046295410942582375,0.0,0.0,-0.003397642197595519,0.0,1.1477125165677857,0.0,3.681800692079188,0.0,0.07718268485005526,0.0,85.0600956770951,-1.3781124425357698,0.0,-3.601903170909685,0.0,0.07718268485005526,0.0
sim_raptor_glider_3dof,raptor_glider_3dof,0.042,-14.501249175225766,0.0,-0.0122690390445324,11.75573643313981,0.0,-0.7546743005131668,0.0,0.0,0.0,-32.18543381074175,-0.561741791180149,-0.023843161423516245,0.0,0.0,0.0,0.0,0.0,-0.02732388360983314,-1.5655432107501235,0.0,0.0,11.779935160488183,0.0122690390445324,0.03461734156304382,-0.06410828871951003,-3.6731343754340697,0.0,0.0,0.0367844051096769,2.1075911646839462,-5.161920862897402,0.0,-9.74086450757628,11.771966388371242,0.0,-0.4332201938546822,0.0,10.250421388211848,0.0,0.0,-0.561741791180149,0.0,-0.13282151128544883,0.3490658503988659,1.0,0.14,0.14,0.75,0.08726646259971647,5.0,0.184,0.175,0.174,0.0,0.0,0.0,-0.0033767531379234193,0.0,0.0045529962320085115,0.0,6.0583191523456925,0.0,-0.5220781416963707,0.0,0.11777174690494724,0.0,-3.666925468174264,0.0,-0.025253523016842163,0.0,-0.005992893563873273,0.32607620283611294,0.03409861086894021,0.09629350861276238,0.0,0.0,0.0,0.30585327542547475,0.09629350861276238,0.0,0.0,0.046338964290135676,0.0,0.0,-0.0033380425992922745,0.0,1.1458216390348046,0.0,3.6394281026928246,0.0,0.07719592347462342,0.0,84.9947249480044,-1.3766255776977512,0.0,-3.5585455121410257,0.0,0.07719592347462342,0.0
sim_raptor_glider_3dof,raptor_glider_3dof,0.043000000000000003,-14.48947953195104,0.0,-0.012703854421564721,11.750581207990171,0.0,-0.7642770401427188,0.0,0.0,0.0,-31.598123851075858,-0.5514912986542241,-0.023417074383064226,0.0,0.0,0.0,0.0,0.0,-0.027880500164431946,-1.5974349901357483,0.0,0.0,11.775409891789801,0.012703854421564721,0.034604043291868114,-0.06495015163203482,-3.7213695672503313,0.0,0.0,0.03706965146760288,2.1239345771145834,-5.148528743206264,0.0,-9.464619684576487,11.767320175139645,0.0,-0.43641037500561203,0.0,10.250561785470335,0.0,0.0,-0.5514912986542241,0.0,-0.13282151128544883,0.3490658503988659,1.0,0.14,0.14,0.75,0.08726646259971647,5.0,0.184,0.175,0.174,0.0,0.0,0.0,-0.003390832749075687,0.0,0.004551581559898024,0.0,6.05820942817396,0.0,-0.5221386876697295,0.0,0.11678712562779821,0.0,-3.666197317767975,0.0,-0.02500783139873381,0.0,-0.005933331688836557,0.32248999195401673,0.03435599613301654,0.09621272607830315,0.0,0.0,0.0,0.30262881624093446,0.09621272607830315,0.0,0.0,0.046375222274059394,0.0,0.0,-0.003278390413628992,0.0,1.1439809579630635,0.0,3.598293253106397,0.0,0.0771969808063771,0.0,84.92943594830462,-1.3751142603773823,0.0,-3.516456673761227,0.0,0.0771969808063771,0.0
sim_raptor_glider_3dof,raptor_glider_3dof,0.044,-14.477714531671001,0.0,-0.013141803123639023,11.745439496778701,0.0,-0.7736053172333329,0.0,0.0,0.0,-31.01084050555124,-0.541241270632692,-0.022990672045826343,0.0,0.0,0.0,0.0,0.0,-0.028426866452272083,-1.628739472497218,0.0,0.0,11.770888418438975,0.013141803123639023,0.03459075617396625,-0.0657693191530532,-3.7683044089188784,0.0,0.0,0.03734245270078112,2.1395649364216607,-5.1348169243841975,0.0,-9.193034845671228,11.762682362774598,0.0,-0.4394516945151029,0.0,10.249119272979547,0.0,0.0,-0.541241270632692,0.0,-0.13282151128544883,0.3490658503988659,1.0,0.14,0.14,0.75,0.08726646259971647,5.0,0.184,0.175,0.174,0.0,0.0,0.0,-0.003404541170837716,0.0,0.004550156099779363,0.0,6.058099478732005,0.0,-0.5221967648312135,0.0,0.11582890117180862,0.0,-3.66548632728611,0.0,-0.024768821675699156,0.0,-0.005875855516110584,0.3190008332046223,0.03460624638710106,0.09613577617100287,0.0,0.0,0.0,0.2995016642375096,0.09613577617100287,0.0,0.0,0.04640432555257443,0.0,0.0,-0.0032186940864156886,0.0,1.1421883632299312,0.0,3.5583768008653602,0.0,0.07718611724480898,0.0,84.86422676063067,-1.3735822610282824,0.0,-3.475616705884453,0.0,0.07718611724480898,0.0
