name,vehicle,t,north,east,down,u,v,w,p_rad,p_deg,p_hat_div_b,q_deg,q_rad,q_hat_div_c,r_rad,r_deg,r_hat_div_b,phi_rad,phi_deg,theta_rad,theta_deg,psi_rad,psi_deg,speed,altitude,mach,alpha_rad,alpha_deg,beta_rad,beta_deg,gamma_rad,gamma_deg,u_dot,v_dot,w_dot,north_dot,east_dot,down_dot,p_rad_dot,q_rad_dot,r_rad_dot,phi_rad_dot,theta_rad_dot,psi_rad_dot,del_tail_alt_rad,del_tail_splay_rad,DIM_b,DIM_c_bar,DIM_S,DIM_wing_position,DIM_wing_incidence_rad,DIM_wing_incidence_deg,DIM_empennage_length,DIM_nose_length,DIM_tail_length,CDp,CDq,CDr,CYp,CYq,CYr,CLp,CLq,CLr,Clp,Clq,Clr,Cmp,Cmq,Cmr,Cnp,Cnq,Cnr,CL_0,Cm_0,CD_0,Cl_0,CY_0,Cn_0,CL,CD,CY,Cl,Cm,Cn,p_hat,q_hat,r_hat,drag_force_wind,side_force_wind,lift_force_wind,roll_moment_wind,pitch_moment_wind,yaw_moment_wind,qbar,X_total,Y_total,Z_total,L_total,M_total,N_total
sim_raptor_glider_3dof,raptor_glider_3dof,0.0,-15.0,0.0,0.0,12.0,0.0,0.0,0.0,0.0,0.0,0.0,0.0,0.0,0.0,0.0,0.0,0.0,0.0,0.0,0.0,0.0,0.0,12.0,-0.0,0.035264039495724236,0.0,0.0,0.0,0.0,0.0,0.0,-7.487178041450953,0.0,-25.024054441263395,12.0,0.0,0.0,0.0,-89.41363838472799,0.0,0.0,0.0,0.0,0.4363323129985824,0.3490658503988659,1.0,0.14,0.14,0.75,0.08726646259971647,5.0,0.184,0.175,0.174,0.0,0.0,0.0,-0.053153656886407115,0.0,0.055671173493162154,0.0,6.024209384397437,0.0,-0.5269202128147928,0.0,0.19813275846416445,0.0,-3.4552995296441478,0.0,-0.03588346466142729,0.0,-0.029845922084054996,0.7757079658211316,-0.38952171953159265,0.1667455120831285,0.0,0.0,0.0,0.7757079658211316,0.1667455120831285,0.0,0.0,-0.38952171953159265,0.0,0.0,0.0,0.0,2.0589739613990123,0.0,9.578443721347433,0.0,-0.6733741106753866,0.0,88.20001620075907,-2.0589739613990123,0.0,-9.578443721347433,0.0,-0.6733741106753866,0.0
sim_raptor_glider_3dof,raptor_glider_3dof,0.001,-14.988003746590733,0.0,-0.000012415174634177188,11.992502827180262,0.0,-0.02526770405029525,0.0,0.0,0.0,-5.103039651887635,-0.0890648437852645,-0.0037133468875430262,0.0,0.0,0.0,0.0,0.0,-0.000044590487564095195,-0.0025548467438532376,0.0,0.0,11.992529446150822,0.000012415174634177188,0.03524208600355821,-0.002106955238988487,-0.12071964281701804,0.0,0.0,0.002062364751424392,0.1181647960731648,-7.507675599275719,0.0,-25.508550485583747,11.99250394195709,0.0,-0.024732952477174667,0.0,-88.71856693472195,0.0,0.0,-0.0890648437852645,0.0,0.4363323129985824,0.3490658503988659,1.0,0.14,0.14,0.75,0.08726646259971647,5.0,0.184,0.175,0.174,0.0,0.0,0.0,-0.053430186057496054,0.0,0.0554080780660455,0.0,6.0240249874908525,0.0,-0.5274002219771142,0.0,0.1957017793236076,0.0,-3.453669819760639,0.0,-0.03525814560644711,0.0,-0.029499655008724115,0.7671435812705255,-0.38877083359862435,0.165760584735996,0.0,0.0,0.0,0.7640118800492363,0.165760584735996,0.0,0.0,-0.386975379228011,0.0,0.0,-0.0005198685642560238,0.0,2.0442643995802876,0.0,9.422277857722193,0.0,-0.6681395275853911,0.0,88.09023322213056,-2.064112165078258,0.0,-9.417949773357746,0.0,-0.6681395275853911,0.0
sim_raptor_glider_3dof,raptor_glider_3dof,0.002,-14.976014997218163,0.0,-0.000049270492086499364,11.984983638081903,0.0,-0.051011581957007696,0.0,0.0,0.0,-10.166686259086081,-0.1774421492383174,-0.0074026192836820276,0.0,0.0,0.0,0.0,0.0,-0.00017790069037163533,-0.010192958730758345,0.0,0.0,11.985092197667264,0.000049270492086499364,0.03522023038486956,-0.004256265628603735,-0.24386605700559036,0.0,0.0,0.0040783649382321,0.233673098274832,-7.5312069778045,0.0,-25.97647568606275,11.984992523423195,0.0,-0.04887944429772272,0.0,-88.03854836579413,0.0,0.0,-0.1774421492383174,0.0,0.4363323129985824,0.3490658503988659,1.0,0.14,0.14,0.75,0.08726646259971647,5.0,0.184,0.175,0.174,0.0,0.0,0.0,-0.05371000072613438,0.0,0.05518325282971427,0.0,6.023796383437123,0.0,-0.5278990096560925,0.0,0.1932332307470952,0.0,-3.4519868033346692,0.0,-0.03462545852853912,0.0,-0.029153229463314653,0.758374006898808,-0.388063512765844,0.16478068235403653,0.0,0.0,0.0,0.7521311449211472,0.16478068235403653,0.0,0.0,-0.38448598859501065,0.0,0.0,-0.001036366699715484,0.0,2.0296598650783366,0.0,9.264255835778041,0.0,-0.6630183077427956,0.0,87.98100758981425,-2.069072495287059,0.0,-9.25553317577674,0.0,-0.6630183077427956,0.0
sim_raptor_glider_3dof,raptor_glider_3dof,0.003,-14.964033765483153,0.0,-0.00010997650410396534,11.977439408842296,0.0,-0.07721526894416839,0.0,0.0,0.0,-15.191799193026208,-0.2651469152201249,-0.011068367643203196,0.0,0.0,0.0,0.0,0.0,-0.0003992506169425001,-0.022875375318799577,0.0,0.0,11.97768829909372,0.00010997650410396534,0.035198472770559576,-0.006446636600632963,-0.3693650692708328,0.0,0.0,0.006047385983690463,0.3464896939520332,-7.557751963901034,0.0,-26.428240508352538,11.977469282477013,0.0,-0.07243326284374174,0.0,-87.37346069275941,0.0,0.0,-0.2651469152201249,0.0,0.4363323129985824,0.3490658503988659,1.0,0.14,0.14,0.75,0.08726646259971647,5.0,0.184,0.175,0.174,0.0,0.0,0.0,-0.0539933342342998,0.0,0.0549956890768542,0.0,6.023523849844041,0.0,-0.5284156910211553,0.0,0.1907277346999606,0.0,-3.450251759098094,0.0,-0.033984927296559594,0.0,-0.028807107836358457,0.7494038488665931,-0.387399686775176,0.16380724554970857,0.0,0.0,0.0,0.7400699681597184,0.16380724554970857,0.0,0.0,-0.38205327508479314,0.0,0.0,-0.0015495714700484477,0.0,2.015177614704102,0.0,9.104435082498677,0.0,-0.6580095324771711,0.0,87.87233904709669,-2.0738283182350847,0.0,-9.09125486919839,0.0,-0.6580095324771711,0.0
sim_raptor_glider_3dof,raptor_glider_3dof,0.004,-14.95206006146447,0.0,-0.00019393750269191865,11.969867139046595,0.0,-0.10386280993339823,0.0,0.0,0.0,-20.179227607931264,-0.35219396226773997,-0.01471113674262299,0.0,0.0,0.0,0.0,0.0,-0.0007079751977142588,-0.040563990828967035,0.0,0.0,11.970317740549529,0.00019393750269191865,0.03517681313159225,-0.008676805031272569,-0.49714430794979647,0.0,0.0,0.00796882983355831,0.4565803171208294,-7.587282867422961,0.0,-26.864252771312174,11.96993767151242,0.0,-0.09538841555743248,0.0,-86.72306067972036,0.0,0.0,-0.35219396226773997,0.0,0.4363323129985824,0.3490658503988659,1.0,0.14,0.14,0.75,0.08726646259971647,5.0,0.184,0.175,0.174,0.0,0.0,0.0,-0.054280487125545326,0.0,0.054843901706905056,0.0,6.023207997132767,0.0,-0.5289492506950555,0.0,0.18818569052618506,0.0,-3.4484661334741316,0.0,-0.033335929119057396,0.0,-0.028461722112779208,0.7402377623774763,-0.38677875516894367,0.16284159593212236,0.0,0.0,0.0,0.727832609270965,0.16284159593212236,0.0,0.0,-0.37967643521108574,0.0,0.0,-0.0020595591439672187,0.0,2.000833340210975,0.0,8.942873240625298,0.0,-0.6531113699789741,0.0,87.76422654166264,-2.078352616244555,0.0,-8.925175978978858,0.0,-0.6531113699789741,0.0
sim_raptor_glider_3dof,raptor_glider_3dof,0.005,-14.94009389182307,0.0,-0.0003005518855746,11.962263859629724,0.0,-0.13093865674169305,0.0,0.0,0.0,-25.12980322664479,-0.4385978066832464,-0.01833146045868009,0.0,0.0,0.0,0.0,0.0,-0.0011034240774344013,-0.06322154265010774,0.0,0.0,11.962980463882431,0.0003005518855746,0.035155251297077285,-0.010945539172903748,-0.6271331991024985,0.0,0.0,0.009842115095469346,0.5639116564523908,-7.619764933048298,0.0,-27.284916404279006,11.96240105817221,0.0,-0.11773912974501546,0.0,-86.08698535636344,0.0,0.0,-0.4385978066832464,0.0,0.4363323129985824,0.3490658503988659,1.0,0.14,0.14,0.75,0.08726646259971647,5.0,0.184,0.175,0.174,0.0,0.0,0.0,-0.05457182683161292,0.0,0.05472593032343835,0.0,6.022849768199583,0.0,-0.529498543215881,0.0,0.18560727572066893,0.0,-3.446631540314975,0.0,-0.03267769521599154,0.0,-0.028117473742245224,0.7308804509402165,-0.3861995880247053,0.16188493539638366,0.0,0.0,0.0,0.7154233824078116,0.16188493539638366,0.0,0.0,-0.37735413745313595,0.0,0.0,-0.002566404464215213,0.0,1.9866411722863777,0.0,8.779628219436473,0.0,-0.6483210867187731,0.0,87.65666831823584,-2.0826180146542357,0.0,-8.757357879177162,0.0,-0.6483210867187731,0.0
sim_raptor_glider_3dof,raptor_glider_3dof,0.006,-14.92813525992473,0.0,-0.0004292124397594923,11.954626639550906,0.0,-0.15842765930436845,0.0,0.0,0.0,-30.04433358782197,-0.5243725426750143,-0.02192985685369944,0.0,0.0,0.0,0.0,0.0,-0.0015849610904613313,-0.09081158117588696,0.0,0.0,11.955676367913814,0.0004292124397594923,0.03513378696968413,-0.01325163807797221,-0.7592629335026617,0.0,0.0,0.01166667698751088,0.6684513523267749,-7.65515672930522,0.0,-27.690630360815796,11.954862725505864,0.0,-0.13947985016959272,0.0,-85.46475387002384,0.0,0.0,-0.5243725426750143,0.0,0.4363323129985824,0.3490658503988659,1.0,0.14,0.14,0.75,0.08726646259971647,5.0,0.184,0.175,0.174,0.0,0.0,0.0,-0.05486778710977721,0.0,0.05463934182373924,0.0,6.022450437086101,0.0,-0.5300622937916623,0.0,0.18299244783751023,0.0,-3.444749760445701,0.0,-0.03200931203935526,0.0,-0.02777473367758559,0.7213366671206888,-0.3856605284654083,0.16093834608201854,0.0,0.0,0.0,0.7028466604815571,0.16093834608201854,0.0,0.0,-0.37508452678533377,0.0,0.0,-0.003070179959517922,0.0,1.9726136922696764,0.0,8.61475825857789,0.0,-0.6436350613951496,0.0,87.54966199755503,-2.0865968109073574,0.0,-8.58786227075033,0.0,-0.6436350613951496,0.0
sim_raptor_glider_3dof,raptor_glider_3dof,0.007,-14.916184165882276,0.0,-0.0005793064854676666,11.946952592434664,0.0,-0.18631506489291877,0.0,0.0,0.0,-34.923595341205655,-0.6095317253381911,-0.025506823267053384,0.0,0.0,0.0,0.0,0.0,-0.00215196395569408,-0.12329845232554847,0.0,0.0,11.94840531406963,0.0005793064854676666,0.03511241974218939,-0.015593931681301612,-0.8934664713539263,0.0,0.0,0.013441967725607532,0.7701680190283778,-7.693410528399182,0.0,-28.081787400130356,11.947325872576652,0.0,-0.1606052419691676,0.0,-84.85576962259707,0.0,0.0,-0.6095317253381911,0.0,0.4363323129985824,0.3490658503988659,1.0,0.14,0.14,0.75,0.08726646259971647,5.0,0.184,0.175,0.174,0.0,0.0,0.0,-0.05516886739682447,0.0,0.05458123429015566,0.0,6.022011606567932,0.0,-0.5306390995932566,0.0,0.18034094615955698,0.0,-3.442822740123928,0.0,-0.031329722669104235,0.0,-0.027433842397851762,0.7116112100401488,-0.3851593965008954,0.16000279048359145,0.0,0.0,0.0,0.6901068760336266,0.16000279048359145,0.0,0.0,-0.3728652305367967,0.0,0.0,-0.0035709552573874744,0.0,1.9587619456352325,0.0,8.448321951825605,0.0,-0.6390488010277785,0.0,87.4432046606849,-2.090261009781001,0.0,-8.416751218395161,0.0,-0.6390488010277785,0.0
sim_raptor_glider_3dof,raptor_glider_3dof,0.008,-14.904240606651282,0.0,-0.0007502161182813057,11.939238882633015,0.0,-0.21458650998107728,0.0,0.0,0.0,-39.768327695755914,-0.6940882563029905,-0.02906283149078703,0.0,0.0,0.0,0.0,0.0,-0.0028038236298313884,-0.16064726048838937,0.0,0.0,11.941167131685324,0.0007502161182813057,0.035091149113066274,-0.017971280258754233,-1.0296785112733915,0.0,0.0,0.015167456628922844,0.8690312507850021,-7.734472659743328,0.0,-28.458772998507442,11.939793614875626,0.0,-0.18111019026309105,0.0,-84.25932271685393,0.0,0.0,-0.6940882563029905,0.0,0.4363323129985824,0.3490658503988659,1.0,0.14,0.14,0.75,0.08726646259971647,5.0,0.184,0.175,0.174,0.0,0.0,0.0,-0.05547563193059443,0.0,0.054548242134604644,0.0,6.021535204946049,0.0,-0.5312274312413525,0.0,0.17765229454057654,0.0,-3.440852589499303,0.0,-0.030637728722487007,0.0,-0.027095110104628704,0.7017089249620452,-0.38469349440195466,0.1590791122370665,0.0,0.0,0.0,0.6772085241452388,0.1590791122370665,0.0,0.0,-0.37069336574289874,0.0,0.0,-0.004068796408710184,0.0,1.9450954633896698,0.0,8.280378294547667,0.0,-0.634556959380627,0.0,87.33729292823296,-2.0935823601488033,0.0,-8.244087212286694,0.0,-0.634556959380627,0.0
sim_raptor_glider_3dof,raptor_glider_3dof,0.009000000000000001,-14.892304576113405,0.0,-0.0009413184291606596,11.931482731000013,0.0,-0.24322801242629782,0.0,0.0,0.0,-44.57922600410458,-0.7780542717623,-0.03259832301805841,0.0,0.0,0.0,0.0,0.0,-0.0035399435977275817,-0.2028238278641469,0.0,0.0,11.933961623290918,0.0009413184291606596,0.03506997450201568,-0.020382573901800104,-1.1678354601866447,0.0,0.0,0.01684263030407252,0.9650116323224979,-7.778283843616755,0.0,-28.821964269395146,11.932268984822977,0.0,-0.20098980076623565,0.0,-83.67459264387269,0.0,0.0,-0.7780542717623,0.0,0.4363323129985824,0.3490658503988659,1.0,0.14,0.14,0.75,0.08726646259971647,5.0,0.184,0.175,0.174,0.0,0.0,0.0,-0.055788708736007504,0.0,0.0545365423304085,0.0,6.021023482042527,0.0,-0.531825634606743,0.0,0.17492580464570248,0.0,-3.4388415806117196,0.0,-0.029931992558805562,0.0,-0.02675881698380161,0.6916347024036031,-0.3842596132891834,0.15816803727685969,0.0,0.0,0.0,0.6641561648322319,0.15816803727685969,0.0,0.0,-0.3685655476778038,0.0,0.0,-0.004563765222528177,0.0,1.9316222876944662,0.0,8.110986723910683,0.0,-0.6301533572010052,0.0,87.23192303897322,-2.096532395351765,0.0,-8.0699332223392,0.0,-0.6301533572010052,0.0
sim_raptor_glider_3dof,raptor_glider_3dof,0.01,-14.88037606515921,0.0,-0.0011519857253842968,11.923681420343334,0.0,-0.27222596258209436,0.0,0.0,0.0,-49.356935507178044,-0.8614410332947542,-0.03611370438294382,0.0,0.0,0.0,0.0,0.0,-0.004359739052099519,-0.24979464746366856,0.0,0.0,11.926788569792983,0.0011519857253842968,0.03504889526519434,-0.022826731891997996,-1.3078753974881616,0.0,0.0,0.01846699283989848,1.058080750024493,-7.824779502619,0.0,-29.171728920063018,11.924754932281528,0.0,-0.22023940058925584,0.0,-83.10065118556057,0.0,0.0,-0.8614410332947542,0.0,0.4363323129985824,0.3490658503988659,1.0,0.14,0.14,0.75,0.08726646259971647,5.0,0.184,0.175,0.174,0.0,0.0,0.0,-0.05610878847395166,0.0,0.05454186162840115,0.0,6.020479004498773,0.0,-0.5324319328652451,0.0,0.17216057968112747,0.0,-3.4367921450673697,0.0,-0.02921103978427371,0.0,-0.02642521354291394,0.6813934773072167,-0.3838540408424605,0.15727017538811427,0.0,0.0,0.0,0.6509544254455103,0.15727017538811427,0.0,0.0,-0.3664778994650984,0.0,0.0,-0.0050559186136121355,0.0,1.9183490019530007,0.0,7.940207158086878,0.0,-0.6258310040784566,0.0,87.12709092666549,-2.099082476605616,0.0,-7.894352751368246,0.0,-0.6258310040784566,0.0
sim_raptor_glider_3dof,raptor_glider_3dof,0.01,-14.88037606515921,0.0,-0.0011519857253842968,11.923681420343334,0.0,-0.27222596258209436,0.0,0.0,0.0,-49.356935507178044,-0.8614410332947542,-0.03611370438294382,0.0,0.0,0.0,0.0,0.0,-0.004359739052099519,-0.24979464746366856,0.0,0.0,11.926788569792983,0.0011519857253842968,0.03504889526519434,-0.022826731891997996,-1.3078753974881616,0.0,0.0,0.01846699283989848,1.058080750024493,-5.180893797053411,0.0,-21.27173158072977,11.924754932281528,0.0,-0.22023940058925584,0.0,8.413394769675486,0.0,0.0,-0.8614410332947542,0.0,-0.12804383284701076,0.3490658503988659,1.0,0.14,0.14,0.75,0.08726646259971647,5.0,0.184,0.175,0.174,0.0,0.0,0.0,-0.0037277146088311713,0.0,0.004365613019303992,0.0,6.061132299343235,0.0,-0.5181591253580322,0.0,0.16586933845213234,0.0,-3.705254775260867,0.0,-0.03711262243792814,0.0,-0.009427997589402054,0.502178977832644,0.01837001212972931,0.10174435875836245,0.0,0.0,0.0,0.47153438622082877,0.10174435875836245,0.0,0.0,0.03710347871614598,0.0,0.0,-0.0050559186136121355,0.0,1.241056599554117,0.0,5.751678708063618,0.0,0.06336127601042608,0.0,87.12709092666549,-1.3720139075750788,0.0,-5.721853483051603,0.0,0.06336127601042608,0.0
sim_raptor_glider_3dof,raptor_glider_3dof,0.011,-14.86845375939863,0.0,-0.0013776734911921137,11.9184916061099,0.0,-0.29327424773280825,0.0,0.0,0.0,-48.87258302693671,-0.8529874877743421,-0.035773376215860776,0.0,0.0,0.0,0.0,0.0,-0.005216956096096225,-0.29890956621136,0.0,0.0,11.922099309655803,0.0013776734911921137,0.03503511507730407,-0.024601693537128707,-1.4095732085517487,0.0,0.0,0.01938473744103248,1.1106636423403886,-5.198513097472042,0.0,-20.825734597761233,11.919859407818553,0.0,-0.23109229137930018,0.0,8.493274416675307,0.0,0.0,-0.8529874877743421,0.0,-0.12804383284701076,0.3490658503988659,1.0,0.14,0.14,0.75,0.08726646259971647,5.0,0.184,0.175,0.174,0.0,0.0,0.0,-0.0037620547723876867,0.0,0.0043661746448011305,0.0,6.061243797647195,0.0,-0.5183773480422632,0.0,0.16381431715678368,0.0,-3.7039996009284053,0.0,-0.0365848265489289,0.0,-0.009250547461741022,0.4947601325323857,0.018934582223630807,0.1014097709467872,0.0,0.0,0.0,0.4644037708730857,0.1014097709467872,0.0,0.0,0.03748522219546821,0.0,0.0,-0.005008272670220509,0.0,1.236002873814258,0.0,5.660247430304421,0.0,0.06396284963198175,0.0,87.0585928100435,-1.374866477627107,0.0,-5.62812990655352,0.0,0.06396284963198175,0.0
sim_raptor_glider_3dof,raptor_glider_3dof,0.012,-14.856536345248664,0.0,-0.001614050200947796,11.91328505253689,0.0,-0.31387955169565623,0.0,0.0,0.0,-48.38374631394549,-0.8444556776280188,-0.03542946930428499,0.0,0.0,0.0,0.0,0.0,-0.006065683407609897,-0.3475380591185785,0.0,0.0,11.917419230520153,0.001614050200947796,0.03502136186934718,-0.026340925482368483,-1.5092238586083162,0.0,0.0,0.020275242074758587,1.1616857994897378,-5.214330680247285,0.0,-20.38576888597943,11.914969775662035,0.0,-0.24161200514826664,0.0,8.569860868855198,0.0,0.0,-0.8444556776280188,0.0,-0.12804383284701076,0.3490658503988659,1.0,0.14,0.14,0.75,0.08726646259971647,5.0,0.184,0.175,0.174,0.0,0.0,0.0,-0.003795668395409357,0.0,0.004366614960619009,0.0,6.061338808561051,0.0,-0.5185873481982678,0.0,0.16179956236912174,0.0,-3.7027583054268636,0.0,-0.03606809224970062,0.0,-0.009078826607667081,0.48747721204511363,0.019486804157146324,0.1010881663672697,0.0,0.0,0.0,0.4574122096286037,0.1010881663672697,0.0,0.0,0.03785295079840936,0.0,0.0,-0.004960125702599899,0.0,1.2311159611379587,0.0,5.570656708196907,0.0,0.0645396222033485,0.0,86.99025566208036,-1.377408169542695,0.0,-5.536299251740722,0.0,0.0645396222033485,0.0
sim_raptor_glider_3dof,raptor_glider_3dof,0.013000000000000001,-14.844623817780407,0.0,-0.0018607915616278706,11.908063503904206,0.0,-0.33404774909373725,0.0,0.0,0.0,-47.8906091588842,-0.8358488106082815,-0.035082115913754215,0.0,0.0,0.0,0.0,0.0,-0.006905843200931664,-0.39567566939249926,0.0,0.0,11.912747974824695,0.0018607915616278706,0.03500763459056891,-0.028044876190634838,-1.6068530426903058,0.0,0.0,0.021139032989703176,1.2111773732978066,-5.228418293488709,0.0,-19.95183204792326,11.910086416308149,0.0,-0.2518052179007226,0.0,8.643226830534967,0.0,0.0,-0.8358488106082815,0.0,-0.12804383284701076,0.3490658503988659,1.0,0.14,0.14,0.75,0.08726646259971647,5.0,0.184,0.175,0.174,0.0,0.0,0.0,-0.0038285750984825193,0.0,0.0043669292168222185,0.0,6.0614182104536125,0.0,-0.5187894194727656,0.0,0.15982463754457615,0.0,-3.701531272387404,0.0,-0.035562252508674605,0.0,-0.008912660477682808,0.48032978680138594,0.020026896293895223,0.1007791322813629,0.0,0.0,0.0,0.4505591541248635,0.1007791322813629,0.0,0.0,0.03820695317577457,0.0,0.0,-0.004911496227925591,0.0,1.2263903686430395,0.0,5.482895065815851,0.0,0.06509214126075884,0.0,86.92207410693409,-1.3796550703804011,0.0,-5.44634955964285,0.0,0.06509214126075884,0.0
sim_raptor_glider_3dof,raptor_glider_3dof,0.014,-14.83271617024361,0.0,-0.0021175602852723007,11.902828733172454,0.0,-0.353785119733178,0.0,0.0,0.0,-47.39336206322633,-0.8271702115930724,-0.03473145304323657,0.0,0.0,0.0,0.0,0.0,-0.0077373586885644005,-0.4433179974336177,0.0,0.0,11.908085310501448,0.0021175602852723007,0.034993932558998055,-0.02971402847186778,-1.7024884237695868,0.0,0.0,0.02197666978330338,1.259170426335969,-5.240846607899004,0.0,-19.52391197729493,11.905209778352901,0.0,-0.2616789934076707,0.0,8.713446894628317,0.0,0.0,-0.8271702115930724,0.0,-0.12804383284701076,0.3490658503988659,1.0,0.14,0.14,0.75,0.08726646259971647,5.0,0.184,0.175,0.174,0.0,0.0,0.0,-0.0038607940225325725,0.0,0.004367113812165416,0.0,6.061482852252541,0.0,-0.5189838500444226,0.0,0.1578890618832744,0.0,-3.700318833354912,0.0,-0.03506713196546733,0.0,-0.008751875988288617,0.47331717489518693,0.020555083688649448,0.1004822581977326,0.0,0.0,0.0,0.44384379990743195,0.1004822581977326,0.0,0.0,0.03854752666144325,0.0,0.0,-0.004862403426053119,0.0,1.2218206750126648,0.0,5.3969480874517375,0.0,0.06562096856344586,0.0,86.85404460786373,-1.3816227994376835,0.0,-5.35826584452576,0.0,0.06562096856344586,0.0
sim_raptor_glider_3dof,raptor_glider_3dof,0.015,-14.820813395853682,0.0,-0.002384045867749265,11.897582334852274,0.0,-0.3730975726369181,0.0,0.0,0.0,-46.89218007896419,-0.8184229358160197,-0.03437760686928685,0.0,0.0,0.0,0.0,0.0,-0.008560161009182634,-0.49046109777861246,0.0,0.0,11.903430900933412,0.002384045867749265,0.03498025478542834,-0.03134883488540188,-1.7961559315860096,0.0,0.0,0.02278867387621925,1.3056948338073973,-5.2516837373315575,0.0,-19.10199450939201,11.900340168061065,0.0,-0.2712399265018982,0.0,8.780590858045446,0.0,0.0,-0.8184229358160197,0.0,-0.12804383284701076,0.3490658503988659,1.0,0.14,0.14,0.75,0.08726646259971647,5.0,0.184,0.175,0.174,0.0,0.0,0.0,-0.003892342659789391,0.0,0.004367166186911518,0.0,6.061533551025869,0.0,-0.519170915208599,0.0,0.15599238539403798,0.0,-3.699121314961499,0.0,-0.03458256602327793,0.0,-0.008596307723587243,0.4664387195150596,0.021071577801268112,0.10019714766764934,0.0,0.0,0.0,0.43726537707315727,0.10019714766764934,0.0,0.0,0.03887494916712453,0.0,0.0,-0.00481286496170016,0.0,1.2174016260510185,0.0,5.312801745917824,0.0,0.06612662975194027,0.0,86.7861621092035,-1.383326341192684,0.0,-5.272033511302977,0.0,0.06612662975194027,0.0
sim_raptor_glider_3dof,raptor_glider_3dof,0.016,-14.808915487440082,0.0,-0.0026599385459909865,11.892325869211023,0.0,-0.39199110167800444,0.0,0.0,0.0,-46.38723761455207,-0.809610027278894,-0.034020703125774314,0.0,0.0,0.0,0.0,0.0,-0.009374182897491487,-0.5371011164099795,0.0,0.0,11.898784459065574,0.0026599385459909865,0.03496660042629984,-0.03294975565892797,-1.8878819352438736,0.0,0.0,0.023575572761436486,1.3507808188338943,-5.2609961566898304,0.0,-18.68605983169406,11.895477894619813,0.0,-0.28049467358902996,0.0,8.844727908128734,0.0,0.0,-0.809610027278894,0.0,-0.12804383284701076,0.3490658503988659,1.0,0.14,0.14,0.75,0.08726646259971647,5.0,0.184,0.175,0.174,0.0,0.0,0.0,-0.003923237660857394,0.0,0.00436708474173156,0.0,6.0615710945584995,0.0,-0.5193508821733824,0.0,0.15413414514759274,0.0,-3.697939012440912,0.0,-0.03410838950486064,0.0,-0.0084457941071054,0.45969363621276166,0.0215765887116598,0.0999234113761634,0.0,0.0,0.0,0.4308229887170367,0.0999234113761634,0.0,0.0,0.03918949665638578,0.0,0.0,-0.004762898437608404,0.0,1.213128081751558,0.0,5.230440581229473,0.0,0.0666096458761175,0.0,86.71842228563837,-1.3847801589870847,0.0,-5.187636487629219,0.0,0.0666096458761175,0.0
sim_raptor_glider_3dof,raptor_glider_3dof,0.017,-14.797022437526458,0.0,-0.0029449353645444845,11.88706082915042,0.0,-0.41047167824347514,0.0,0.0,0.0,-45.878705048240946,-0.8007344596431484,-0.03366086473178287,0.0,0.0,0.0,0.0,0.0,-0.010179360181967674,-0.5832343765702693,0.0,0.0,11.894145709321132,0.0029449353645444845,0.034952968671783276,-0.034517249777660665,-1.9776927326588354,0.0,0.0,0.02433788959569299,1.3944583560885657,-5.268848492059668,0.0,-18.276083693647717,11.890623236467384,0.0,-0.2894498280258314,0.0,8.905925709110337,0.0,0.0,-0.8007344596431484,0.0,-0.12804383284701076,0.3490658503988659,1.0,0.14,0.14,0.75,0.08726646259971647,5.0,0.184,0.175,0.174,0.0,0.0,0.0,-0.003953494733366965,0.0,0.004366868751665211,0.0,6.06159624160552,0.0,-0.5195240092600177,0.0,0.15231387578878677,0.0,-3.696772196744008,0.0,-0.03364443921802221,0.0,-0.008300178162125367,0.4530810561665809,0.02207032247451007,0.0996606687747611,0.0,0.0,0.0,0.42451565620594955,0.0996606687747611,0.0,0.0,0.03949143931474429,0.0,0.0,-0.004712521062449602,0.0,1.208995027706735,0.0,5.1498482184240695,0.0,0.06707052651530995,0.0,86.65082098586912,-1.3859981776149741,0.0,-5.10505775691844,0.0,0.06707052651530995,0.0
sim_raptor_glider_3dof,raptor_glider_3dof,0.018000000000000002,-14.785134238355086,0.0,-0.0032387403501198623,11.881788639683034,0.0,-0.4285452460590227,0.0,0.0,0.0,-45.36674867437345,-0.7917991352925895,-0.03329821175479727,0.0,0.0,0.0,0.0,0.0,-0.01097563182165961,-0.6288573808705791,0.0,0.0,11.88951438478547,0.0032387403501198623,0.034939358737504686,-0.036051774570680456,-2.0656145268570554,0.0,0.0,0.025076142749020848,1.4367571459864765,-5.275303522498208,0.0,-17.87203773676822,11.885776440444923,0.0,-0.2981119148658824,0.0,8.964250414887937,0.0,0.0,-0.7917991352925895,0.0,-0.12804383284701076,0.3490658503988659,1.0,0.14,0.14,0.75,0.08726646259971647,5.0,0.184,0.175,0.174,0.0,0.0,0.0,-0.003983128701073745,0.0,0.004366518286858384,0.0,6.0616097225852235,0.0,-0.5196905461185771,0.0,0.15053111019651738,0.0,-3.695621115561418,0.0,-0.03319055400050494,0.0,-0.008159307437160557,0.44660003353693956,0.022552981163100633,0.0994085481394581,0.0,0.0,0.0,0.41834232656047826,0.0994085481394581,0.0,0.0,0.03978104158910563,0.0,0.0,-0.004661749645671618,0.0,1.2049975746474566,0.0,5.071007456728546,0.0,0.06750976987452106,0.0,86.5833541912449,-1.3869937911598047,0.0,-5.024279451263327,0.0,0.06750976987452106,0.0
sim_raptor_glider_3dof,raptor_glider_3dof,0.019000000000000003,-14.773250881952443,0.0,-0.003541063619696613,11.87651066799566,0.0,-0.4462177197085757,0.0,0.0,0.0,-44.85153127847146,-0.7828068953705487,-0.032932861805429335,0.0,0.0,0.0,0.0,0.0,-0.011762939461606073,-0.6739667858179168,0.0,0.0,11.884890235100896,0.003541063619696613,0.034925769887745435,-0.03755378557420779,-2.1516734181413812,0.0,0.0,0.02579084611260172,1.4777066323234644,-5.2804222083129355,0.0,-17.47388991309493,11.88093773139006,0.0,-0.3064873948935754,0.0,9.01976676582175,0.0,0.0,-0.7828068953705487,0.0,-0.12804383284701076,0.3490658503988659,1.0,0.14,0.14,0.75,0.08726646259971647,5.0,0.184,0.175,0.174,0.0,0.0,0.0,-0.004012153564718305,0.0,0.004366034137950682,0.0,6.061612240280234,0.0,-0.5198507339711734,0.0,0.14878537981545106,0.0,-3.694485994134435,0.0,-0.032746574685874885,0.0,-0.00802303390553456,0.44024955136623045,0.023024762993690984,0.0991666865670523,0.0,0.0,0.0,0.41230187801441576,0.0991666865670523,0.0,0.0,0.04005856252986029,0.0,0.0,-0.0046106006527601075,0.0,1.201130959415792,0.0,4.993900345490877,0.0,0.0679278635134036,0.0,86.51601813043177,-1.3877798744043934,0.0,-4.945282930486296,0.0,0.0679278635134036,0.0
sim_raptor_glider_3dof,raptor_glider_3dof,0.02,-14.761372360130952,0.0,-0.0038516217316464894,11.871228221071945,0.0,-0.46349497996553435,0.0,0.0,0.0,-44.33321196811774,-0.7737605168282099,-0.032564929922334576,0.0,0.0,0.0,0.0,0.0,-0.012541227563613516,-0.7185594093081906,0.0,0.0,11.880273021830275,0.0038516217316464894,0.034912201421817494,-0.039023736159857915,-2.235895382791917,0.0,0.0,0.0264825085962444,1.5173359734837264,-5.284263698606988,0.0,-17.081604749474586,11.876107309386176,0.0,-0.3145826587281375,0.0,9.072538088953596,0.0,0.0,-0.7737605168282099,0.0,-0.12804383284701076,0.3490658503988659,1.0,0.14,0.14,0.75,0.08726646259971647,5.0,0.184,0.175,0.174,0.0,0.0,0.0,-0.004040582554887725,0.0,0.004365417746001075,0.0,6.061604470536529,0.0,-0.5200048058257742,0.0,0.14707621525413284,0.0,-3.6933670362339277,0.0,-0.032312344141894475,0.0,-0.007891213886911918,0.4340285281933605,0.023485862369315717,0.09893472999653426,0.0,0.0,0.0,0.40639312672137,0.09893472999653426,0.0,0.0,0.0403242557890543,0.0,0.0,-0.004559090189126842,0.0,1.1973905436998853,0.0,4.918508262749026,0.0,0.06832528434790953,0.0,86.4488092114461,-1.3883687918964036,0.0,-4.868048864027607,0.0,0.06832528434790953,0.0
sim_raptor_glider_3dof,raptor_glider_3dof,0.02,-14.761372360130952,0.0,-0.0038516217316464894,11.871228221071945,0.0,-0.46349497996553435,0.0,0.0,0.0,-44.33321196811774,-0.7737605168282099,-0.032564929922334576,0.0,0.0,0.0,0.0,0.0,-0.012541227563613516,-0.7185594093081906,0.0,0.0,11.880273021830275,0.0038516217316464894,0.034912201421817494,-0.039023736159857915,-2.235895382791917,0.0,0.0,0.0264825085962444,1.5173359734837264,-5.299448812114795,0.0,-17.041158457033674,11.876107309386176,0.0,-0.3145826587281375,0.0,9.52985760742089,0.0,0.0,-0.7737605168282099,0.0,-0.13147582447602363,0.3490658503988659,1.0,0.14,0.14,0.75,0.08726646259971647,5.0,0.184,0.175,0.174,0.0,0.0,0.0,-0.003266199626027084,0.0,0.004509390359012299,0.0,6.060498272221386,0.0,-0.5199125132835523,0.0,0.1470419968310824,0.0,-3.6891209060719583,0.0,-0.03252426839247117,0.0,-0.007966366922074293,0.43311862704039367,0.025537846025778296,0.09931535717732091,0.0,0.0,0.0,0.40548826882628897,0.09931535717732091,0.0,0.0,0.042356880955153685,0.0,0.0,-0.004559090189126842,0.0,1.201997211014438,0.0,4.9075569184940795,0.0,0.07176935764148673,0.0,86.4488092114461,-1.3925446981110505,0.0,-4.856926133606358,0.0,0.07176935764148673,0.0
sim_raptor_glider_3dof,raptor_glider_3dof,0.021,-14.749498677501943,0.0,-0.004170112207164933,11.865927552012984,0.0,-0.4803402639634348,0.0,0.0,0.0,-43.78583642823426,-0.7642070114123617,-0.03217538749244692,0.0,0.0,0.0,0.0,0.0,-0.013310201599573556,-0.7626183761238421,0.0,0.0,11.875645811441386,0.004170112207164933,0.03489860357765842,-0.04045854355639114,-2.3181037910274243,0.0,0.0,0.027148341956817583,1.5554854149035822,-5.301812792989454,0.0,-16.650661934489143,11.871269711939988,0.0,-0.3223644911922188,0.0,9.576888933122879,0.0,0.0,-0.7642070114123617,0.0,-0.13147582447602363,0.3490658503988659,1.0,0.14,0.14,0.75,0.08726646259971647,5.0,0.184,0.175,0.174,0.0,0.0,0.0,-0.0032905494563426553,0.0,0.004509573313938779,0.0,6.060479172814372,0.0,-0.5200595333731638,0.0,0.145373212642846,0.0,-3.688012881763578,0.0,-0.03210151370938707,0.0,-0.007839636960811962,0.4270417772616234,0.02598624175195646,0.09909478223245884,0.0,0.0,0.0,0.39974202005309445,0.09909478223245884,0.0,0.0,0.04259909584865952,0.0,0.0,-0.00450455424894257,0.0,1.1983935664310723,0.0,4.834243077905218,0.0,0.0721235505553484,0.0,86.38148097299505,-1.3929459582094248,0.0,-4.7818150145991565,0.0,0.0721235505553484,0.0
sim_raptor_glider_3dof,raptor_glider_3dof,0.022,-14.73762982287124,0.0,-0.00449625277119043,11.860625064753108,0.0,-0.496798212249603,0.0,0.0,0.0,-43.23583859234973,-0.7546077382973332,-0.031783596448034655,0.0,0.0,0.0,0.0,0.0,-0.014069612074577362,-0.8061293912595853,0.0,0.0,11.871025035368433,0.00449625277119043,0.0348850246418303,-0.041861872921339055,-2.398508640905714,0.0,0.0,0.027792260846761695,1.5923792496461286,-5.303005051728055,0.0,-16.266045597563252,11.866440682646145,0.0,-0.3298801533656733,0.0,9.621298633910271,0.0,0.0,-0.7546077382973332,0.0,-0.13147582447602363,0.3490658503988659,1.0,0.14,0.14,0.75,0.08726646259971647,5.0,0.184,0.175,0.174,0.0,0.0,0.0,-0.0033144018797679263,0.0,0.0045096154280847844,0.0,6.060451149153814,0.0,-0.5202008746436939,0.0,0.14374043053085703,0.0,-3.6869218359438323,0.0,-0.03168827217542993,0.0,-0.007717092262887007,0.4210934213219331,0.026424249780182842,0.09888342982554026,0.0,0.0,0.0,0.39412621061545056,0.09888342982554026,0.0,0.0,0.04282995878785485,0.0,0.0,-0.004449703502724852,0.0,1.1949071835061884,0.0,4.762620401652335,0.0,0.07245800001197826,0.0,86.31427253096757,-1.3931743335252864,0.0,-4.708441519636419,0.0,0.07245800001197826,0.0
sim_raptor_glider_3dof,raptor_glider_3dof,0.023,-14.725765792279125,0.0,-0.004829761707174804,11.855322020055862,0.0,-0.5128748506838117,0.0,0.0,0.0,-42.68337947463181,-0.7449655077104926,-0.031389673426584594,0.0,0.0,0.0,0.0,0.0,-0.014819398839438294,-0.8490890084208845,0.0,0.0,11.866410611962042,0.004829761707174804,0.03487146437439255,-0.04323419098814138,-2.4771366742830394,0.0,0.0,0.028414792148703086,1.6280476658621548,-5.303080952205117,0.0,-15.887263679934653,11.861620461858886,0.0,-0.3371362194957814,0.0,9.6631488284294,0.0,0.0,-0.7449655077104926,0.0,-0.13147582447602363,0.3490658503988659,1.0,0.14,0.14,0.75,0.08726646259971647,5.0,0.184,0.175,0.174,0.0,0.0,0.0,-0.0033377668171060922,0.0,0.004509519304898539,0.0,6.060414803354998,0.0,-0.5203367499666862,0.0,0.14214315635843303,0.0,-3.685847897418477,0.0,-0.031284387027962046,0.0,-0.007598599020609923,0.41527222611843867,0.026852061008624407,0.09868096726989632,0.0,0.0,0.0,0.38863940430746535,0.09868096726989632,0.0,0.0,0.04304971966062853,0.0,0.0,-0.004394554279721843,0.0,1.1915337563090058,0.0,4.692667513053809,0.0,0.07277317382690181,0.0,86.24718258921588,-1.3932408096691238,0.0,-4.636783489313147,0.0,0.07277317382690181,0.0
sim_raptor_glider_3dof,raptor_glider_3dof,0.024,-14.713906578532752,0.0,-0.005170426585606272,11.850019315719921,0.0,-0.5285749886778398,0.0,0.0,0.0,-42.12857903104753,-0.7352824132784218,-0.03099370594987546,0.0,0.0,0.0,0.0,0.0,-0.015559527312629084,-0.8914952462321784,0.0,0.0,11.861802110201932,0.005170426585606272,0.03485792150871883,-0.04457586389009516,-2.55400886905206,0.0,0.0,0.02901633657746607,1.6625136228198818,-5.3020921847394415,0.0,-15.51427860392247,11.856808951521833,0.0,-0.34413774669854846,0.0,9.702489902351635,0.0,0.0,-0.7352824132784218,0.0,-0.13147582447602363,0.3490658503988659,1.0,0.14,0.14,0.75,0.08726646259971647,5.0,0.184,0.175,0.174,0.0,0.0,0.0,-0.003360651992714171,0.0,0.004509288040721303,0.0,6.0603707162220894,0.0,-0.5204673552591458,0.0,0.1405810103269695,0.0,-3.684791253335696,0.0,-0.030889732212985205,0.0,-0.007484035863636659,0.40957722913085415,0.027269832351616098,0.09848708486057084,0.0,0.0,0.0,0.3832805604212388,0.09848708486057084,0.0,0.0,0.04325857947457445,0.0,0.0,-0.004339118832982565,0.0,1.1882691997640586,0.0,4.624367605779348,0.0,0.07306945145461016,0.0,86.18020477698046,-1.3931557676327493,0.0,-4.566823453079935,0.0,0.07306945145461016,0.0
sim_raptor_glider_3dof,raptor_glider_3dof,0.025,-14.702052171604272,0.0,-0.005517961911837838,11.844718139656694,0.0,-0.5439051657331021,0.0,0.0,0.0,-41.5715986504926,-0.7255612717687272,-0.030595811012544803,0.0,0.0,0.0,0.0,0.0,-0.016289952323755966,-0.9333455166205449,0.0,0.0,11.857199527596029,0.005517961911837838,0.03484439603748576,-0.04588740289757075,-2.6291545188471885,0.0,0.0,0.02959745057381478,1.6958090022266437,-5.300091238829592,0.0,-15.147031839220055,11.852006399487358,0.0,-0.35089164101493514,0.0,9.739385595410837,0.0,0.0,-0.7255612717687272,0.0,-0.13147582447602363,0.3490658503988659,1.0,0.14,0.14,0.75,0.08726646259971647,5.0,0.184,0.175,0.174,0.0,0.0,0.0,-0.0033830671648701722,0.0,0.004508925139026818,0.0,6.060319440598451,0.0,-0.5205928938327238,0.0,0.13905344104174155,0.0,-3.6837519568930346,0.0,-0.03050414002727341,0.0,-0.0073732726503835,0.4040067995095171,0.02767776343442186,0.09830145991759674,0.0,0.0,0.0,0.37804794515028894,0.09830145991759674,0.0,0.0,0.04345679645104865,0.0,0.0,-0.0042834135417562725,0.0,1.1851093713099168,0.0,4.557695918022314,0.0,0.07334731291903902,0.0,86.11333895777332,-1.392929315480051,0.0,-4.498535786808873,0.0,0.07334731291903902,0.0
sim_raptor_glider_3dof,raptor_glider_3dof,0.026000000000000002,-14.690202562731244,0.0,-0.005872129785013658,11.839419449656665,0.0,-0.5588709436736004,0.0,0.0,0.0,-41.01257302422075,-0.7158044339872601,-0.030196086672997363,0.0,0.0,0.0,0.0,0.0,-0.017010638167646093,-0.9746377738302733,0.0,0.0,11.852602652438456,0.005872129785013658,0.03483088733855963,-0.04716923835098968,-2.7025982803583313,0.0,0.0,0.030158600183343584,1.727960506528058,-5.297127577274258,0.0,-14.785472735768487,11.847212845965439,0.0,-0.35740371987799147,0.0,9.773890750057209,0.0,0.0,-0.7158044339872601,0.0,-0.13147582447602363,0.3490658503988659,1.0,0.14,0.14,0.75,0.08726646259971647,5.0,0.184,0.175,0.174,0.0,0.0,0.0,-0.003405020315508814,0.0,0.00450843447916708,0.0,6.060261508358638,0.0,-0.5207135543258404,0.0,0.13755998879012402,0.0,-3.6827301051557146,0.0,-0.030127467590093958,0.0,-0.007266189826027168,0.39855960083015773,0.028076026266839974,0.09812378988357336,0.0,0.0,0.0,0.3729401353827179,0.09812378988357336,0.0,0.0,0.043644591509635386,0.0,0.0,-0.004227452134219631,0.0,1.1820503419493393,0.0,4.492631349429496,0.0,0.07360717123868084,0.0,86.04658195762393,-1.3925710170825527,0.0,-4.431898624197187,0.0,0.07360717123868084,0.0
sim_raptor_glider_3dof,raptor_glider_3dof,0.027,-14.67835774288989,0.0,-0.006232691124093987,11.834124186034897,0.0,-0.5734779853841486,0.0,0.0,0.0,-40.451637660095095,-0.7060142649923942,-0.029794631600833333,0.0,0.0,0.0,0.0,0.0,-0.01772155024529794,-1.0153700354846007,0.0,0.0,11.848011320479753,0.006232691124093987,0.034817394929265486,-0.04842180971244332,-2.7743653329085807,0.0,0.0,0.030700259467145382,1.75899529742398,-5.293249219163871,0.0,-14.429547347280165,11.84242834852697,0.0,-0.36367988701755793,0.0,9.806060261465818,0.0,0.0,-0.7060142649923942,0.0,-0.13147582447602363,0.3490658503988659,1.0,0.14,0.14,0.75,0.08726646259971647,5.0,0.184,0.175,0.174,0.0,0.0,0.0,-0.0034265192216371954,0.0,0.004507820259755402,0.0,6.060197428583423,0.0,-0.5208295198157172,0.0,0.13610018084802317,0.0,-3.6817257691341223,0.0,-0.029759570291729567,0.0,-0.007162670552565303,0.39323421250092416,0.02846479343379055,0.09795377898196374,0.0,0.0,0.0,0.3679556235271097,0.09795377898196374,0.0,0.0,0.043822186246320984,0.0,0.0,-0.004171248424116667,0.0,1.1790882861905048,0.0,4.42915189232897,0.0,0.07384943982909908,0.0,85.97993129622687,-1.3920900194230097,0.0,-4.366889173058529,0.0,0.07384943982909908,0.0
sim_raptor_glider_3dof,raptor_glider_3dof,0.028,-14.666517703002159,0.0,-0.006599412871490525,11.828833240615113,0.0,-0.5877318976027316,0.0,0.0,0.0,-39.88892486883139,-0.696193074041755,-0.029391542226459597,0.0,0.0,0.0,0.0,0.0,-0.018422656360243338,-1.0555404568617859,0.0,0.0,11.843425375191957,0.006599412871490525,0.034803918349619316,-0.04964555244879871,-2.844480626911535,0.0,0.0,0.03122289608855537,1.7889401700497491,-5.288502550504888,0.0,-14.079200226966686,11.837652948613393,0.0,-0.3697259605781132,0.0,9.835947810322535,0.0,0.0,-0.696193074041755,0.0,-0.13147582447602363,0.3490658503988659,1.0,0.14,0.14,0.75,0.08726646259971647,5.0,0.184,0.175,0.174,0.0,0.0,0.0,-0.0034475712669693524,0.0,0.004507086955409963,0.0,6.0601276886277535,0.0,-0.5209409667545298,0.0,0.13467354687172234,0.0,-3.680739004717024,0.0,-0.029400305603507492,0.0,-0.007062601723513885,0.38802918867200054,0.028844234127778482,0.09779114000885922,0.0,0.0,0.0,0.36309287883187497,0.09779114000885922,0.0,0.0,0.0439897975512189,0.0,0.0,-0.004114815911704344,0.0,1.1762194952122516,0.0,4.367235340707767,0.0,0.07407452295953902,0.0,85.91338460911211,-1.391495049381437,0.0,-4.303484442819702,0.0,0.07407452295953902,0.0
sim_raptor_glider_3dof,raptor_glider_3dof,0.029,-14.654682433953884,0.0,-0.006972068113517469,11.823547456659899,0.0,-0.6016382275454533,0.0,0.0,0.0,-39.32456372381688,-0.6863431138909266,-0.028986912713025764,0.0,0.0,0.0,0.0,0.0,-0.019113926745221416,-1.0951473324234136,0.0,0.0,11.838844665622267,0.006972068113517469,0.034790457156020645,-0.050840897753345334,-2.9129688679228365,0.0,0.0,0.03172697100812392,1.8178215354994232,-5.28293235691435,0.0,-13.734374609948496,11.832886670823465,0.0,-0.37554766965220093,0.0,9.86360587020765,0.0,0.0,-0.6863431138909266,0.0,-0.13147582447602363,0.3490658503988659,1.0,0.14,0.14,0.75,0.08726646259971647,5.0,0.184,0.175,0.174,0.0,0.0,0.0,-0.00346818347000082,0.0,0.0045062392753002665,0.0,6.060052754803145,0.0,-0.5210480651619556,0.0,0.13327961933888063,0.0,-3.6797698535155883,0.0,-0.02904953311246648,0.0,-0.006965873877491689,0.38294306247738436,0.02921451417613428,0.09763559424133972,0.0,0.0,0.0,0.35835035164381096,0.09763559424133972,0.0,0.0,0.04414763763283748,0.0,0.0,-0.004058167779823607,0.0,1.1734403748531634,0.0,4.306859339865953,0.0,0.07428281580853381,0.0,85.84693961628999,-1.3907944266702013,0.0,-4.241661295939273,0.0,0.07428281580853381,0.0
sim_raptor_glider_3dof,raptor_glider_3dof,0.03,-14.642851926615595,0.0,-0.007350435271116589,11.818267636320352,0.0,-0.6152024682500663,0.0,0.0,0.0,-38.75868051297081,-0.6764665886799055,-0.02858083527145547,0.0,0.0,0.0,0.0,0.0,-0.019795333718462912,-1.134189076120935,0.0,0.0,11.834269052232926,0.007350435271116589,0.03477701093841407,-0.052008272969736424,-2.9798545409302175,0.0,0.0,0.03221293925127351,1.8456654648092823,-5.276581878178234,0.0,-13.395012567721597,11.828129529733465,0.0,-0.3811506637606984,0.0,9.889085814394981,0.0,0.0,-0.6764665886799055,0.0,-0.13147582447602363,0.3490658503988659,1.0,0.14,0.14,0.75,0.08726646259971647,5.0,0.184,0.175,0.174,0.0,0.0,0.0,-0.00348836252199917,0.0,0.004505282124277176,0.0,6.059973073005435,0.0,-0.5211509788751515,0.0,0.13191793316526892,0.0,-3.6788183431235955,0.0,-0.028707114352100917,0.0,-0.006872381057139735,0.37797434710614813,0.02957579628049555,0.09748687124906162,0.0,0.0,0.0,0.35372647420528475,0.09748687124906162,0.0,0.0,0.04429591442867495,0.0,0.0,-0.004001316938003767,0.0,1.1707474440341399,0.0,4.24800140015809,0.0,0.07447470526820861,0.0,85.78059420674548,-1.3899960785103735,0.0,-4.181396462329702,0.0,0.07447470526820861,0.0
sim_raptor_glider_3dof,raptor_glider_3dof,0.03,-14.642851926615595,0.0,-0.007350435271116589,11.818267636320352,0.0,-0.6152024682500663,0.0,0.0,0.0,-38.75868051297081,-0.6764665886799055,-0.02858083527145547,0.0,0.0,0.0,0.0,0.0,-0.019795333718462912,-1.134189076120935,0.0,0.0,11.834269052232926,0.007350435271116589,0.03477701093841407,-0.052008272969736424,-2.9798545409302175,0.0,0.0,0.03221293925127351,1.8456654648092823,-5.286846712952431,0.0,-13.36797919810854,11.828129529733465,0.0,-0.3811506637606984,0.0,10.194403971758673,0.0,0.0,-0.6764665886799055,0.0,-0.13378848670113758,0.3490658503988659,1.0,0.14,0.14,0.75,0.08726646259971647,5.0,0.184,0.175,0.174,0.0,0.0,0.0,-0.0029532964176672977,0.0,0.004612014906119718,0.0,6.05920786053302,0.0,-0.521084151455628,0.0,0.13189619966891947,0.0,-3.6758699505046075,0.0,-0.028852618422523953,0.0,-0.006927210854283457,0.3773653056680428,0.030955197092305767,0.09775378785882323,0.0,0.0,0.0,0.3531204946248065,0.09775378785882323,0.0,0.0,0.04566351778715892,0.0,0.0,-0.004001316938003767,0.0,1.1739529211885997,0.0,4.2407240197694085,0.0,0.07677405631131456,0.0,85.78059420674548,-1.3928189080732776,0.0,-4.173962285686111,0.0,0.07677405631131456,0.0
sim_raptor_glider_3dof,raptor_glider_3dof,0.031,-14.631026189514822,0.0,-0.007734282785082706,11.812984451202594,0.0,-0.6284011998802159,0.0,0.0,0.0,-38.17396889613045,-0.6662614457913816,-0.028160569980893058,0.0,0.0,0.0,0.0,0.0,-0.020466669890889133,-1.1726538054354245,0.0,0.0,11.829686796883726,0.007734282785082706,0.0347635452022796,-0.053145710832957,-3.045024929951135,0.0,0.0,0.03267904094206787,1.8723711245157106,-5.279557778270557,0.0,-13.031352188890994,11.823370781109356,0.0,-0.3865140162719706,0.0,10.215754447487756,0.0,0.0,-0.6662614457913816,0.0,-0.13378848670113758,0.3490658503988659,1.0,0.14,0.14,0.75,0.08726646259971647,5.0,0.184,0.175,0.174,0.0,0.0,0.0,-0.0029712298457630288,0.0,0.004611465932324107,0.0,6.059123119290865,0.0,-0.5211823924886396,0.0,0.13056921853137293,0.0,-3.674933861490077,0.0,-0.028519554716768945,0.0,-0.006837253370009446,0.3725232528993728,0.03130625657337688,0.09761261414851222,0.0,0.0,0.0,0.3486352824120636,0.09761261414851222,0.0,0.0,0.04579460907880716,0.0,0.0,-0.0039424797973250285,0.0,1.1713499004211303,0.0,4.183618140943801,0.0,0.0769348467440303,0.0,85.71417819297892,-1.3919327791958014,0.0,-4.11548836429541,0.0,0.0769348467440303,0.0
sim_raptor_glider_3dof,raptor_glider_3dof,0.032,-14.619205193548641,0.0,-0.008123375429379182,11.807708887827847,0.0,-0.6412669369401329,0.0,0.0,0.0,-37.588097058425326,-0.6560360532287173,-0.027739111356352635,0.0,0.0,0.0,0.0,0.0,-0.021127818647864907,-1.2105348388404569,0.0,0.0,11.825109406009794,0.008123375429379182,0.03475009376123246,-0.05425587529399601,-3.108632668134086,0.0,0.0,0.0331280566461311,1.8980978292936292,-5.271568526454525,0.0,-12.70012211665481,11.818621159033684,0.0,-0.39167124395673336,0.0,10.235030422956136,0.0,0.0,-0.6560360532287173,0.0,-0.13378848670113758,0.3490658503988659,1.0,0.14,0.14,0.75,0.08726646259971647,5.0,0.184,0.175,0.174,0.0,0.0,0.0,-0.0029887801016860766,0.0,0.004610811736863046,0.0,6.059034523945789,0.0,-0.5212767594795452,0.0,0.1292737297830451,0.0,-3.674015673161648,0.0,-0.028194605684013878,0.0,-0.0067503284927279555,0.3677962114439507,0.03164859526668079,0.09747773440261163,0.0,0.0,0.0,0.3442660987719103,0.09747773440261163,0.0,0.0,0.04591654545027501,0.0,0.0,-0.0038834755898893695,0.0,1.1688262865966972,0.0,4.127991569507825,0.0,0.07708001411528266,0.0,85.64785836623555,-1.3909643012442832,0.0,-4.058532690373592,0.0,0.07708001411528266,0.0
sim_raptor_glider_3dof,raptor_glider_3dof,0.033,-14.607388942660283,0.0,-0.008517524693259787,11.802441644332784,0.0,-0.6538041176845533,0.0,0.0,0.0,-37.00117902859216,-0.6457924011688103,-0.027316543059921528,0.0,0.0,0.0,0.0,0.0,-0.02177873288925337,-1.2478294776969754,0.0,0.0,11.82053673029199,0.008517524693259787,0.03473665617647297,-0.055339106448071766,-3.1706972414997123,0.0,0.0,0.0335603735588184,1.922867763802737,-5.262917768666243,0.0,-12.37424169830552,11.813880627637992,0.0,-0.3966271651082264,0.0,10.252272577007457,0.0,0.0,-0.6457924011688103,0.0,-0.13378848670113758,0.3490658503988659,1.0,0.14,0.14,0.75,0.08726646259971647,5.0,0.184,0.175,0.174,0.0,0.0,0.0,-0.003005946398772435,0.0,0.0046100632986992175,0.0,6.058942477548514,0.0,-0.5213673897948973,0.0,0.12800936523133907,0.0,-3.67311543466163,0.0,-0.02787766056285636,0.0,-0.00666634656993258,0.363182972193799,0.031982334818403665,0.09734890784916303,0.0,0.0,0.0,0.3400116613618232,0.09734890784916303,0.0,0.0,0.04602948904930322,0.0,0.0,-0.003824316028389014,0.0,1.1663789835770555,0.0,4.073825425941427,0.0,0.07720986477744315,0.0,85.58163248252049,-1.3899202804344297,0.0,-4.003075711051962,0.0,0.07720986477744315,0.0
sim_raptor_glider_3dof,raptor_glider_3dof,0.034,-14.595577428899208,0.0,-0.008916555496608124,11.797183287257576,0.0,-0.6660174237180572,0.0,0.0,0.0,-36.41331631282184,-0.6355322612289026,-0.026892939781434425,0.0,0.0,0.0,0.0,0.0,-0.02241939729156827,-1.2845368440338907,0.0,0.0,11.815968547768122,0.008916555496608124,0.03472323179572753,-0.05639576602222653,-3.2312393754808713,0.0,0.0,0.03397636873065826,1.9467025314469806,-5.253642739924986,0.0,-12.053656056608773,11.809149064412223,0.0,-0.40138646755641827,0.0,10.267521704481434,0.0,0.0,-0.6355322612289026,0.0,-0.13378848670113758,0.3490658503988659,1.0,0.14,0.14,0.75,0.08726646259971647,5.0,0.184,0.175,0.174,0.0,0.0,0.0,-0.0030227288091618553,0.0,0.004609230881694966,0.0,6.0588473632600515,0.0,-0.5214544182932095,0.0,0.12677572973584153,0.0,-3.6722331634296133,0.0,-0.02756860291932916,0.0,-0.006585218825243406,0.3586822074443954,0.032307603338623266,0.09722589821664249,0.0,0.0,0.0,0.33587057702448764,0.09722589821664249,0.0,0.0,0.04613360368447313,0.0,0.0,-0.00376501156940082,0.0,1.164004944417532,0.0,4.021099516815284,0.0,0.07732470595644968,0.0,85.51549724979151,-1.3888071850335604,0.0,-3.949096534342979,0.0,0.07732470595644968,0.0
sim_raptor_glider_3dof,raptor_glider_3dof,0.034999999999999996,-14.583770641858402,0.0,-0.009320242502810277,11.791934525771142,0.0,-0.6779129561470706,0.0,0.0,0.0,-35.824639998236954,-0.6252579213108904,-0.026468397549898024,0.0,0.0,0.0,0.0,0.0,-0.023049793588961948,-1.3206558912952222,0.0,0.0,11.811404905267855,0.009320242502810277,0.034709820756613045,-0.057426335541282146,-3.290286659417585,0.0,0.0,0.0343765419523202,1.9696307681223626,-5.243780739864345,0.0,-11.738292753560142,11.804426548519105,0.0,-0.40595528916723417,0.0,10.28082941768387,0.0,0.0,-0.6252579213108904,0.0,-0.13378848670113758,0.3490658503988659,1.0,0.14,0.14,0.75,0.08726646259971647,5.0,0.184,0.175,0.174,0.0,0.0,0.0,-0.003039129821507653,0.0,0.004608323941066241,0.0,6.058749534710105,0.0,-0.5215379851991822,0.0,0.12557228661495753,0.0,-3.6713687626374796,0.0,-0.027267281930045913,0.0,-0.006506849944024199,0.3542920546383153,0.03262456556549465,0.0971084628530546,0.0,0.0,0.0,0.33184089985071996,0.0971084628530546,0.0,0.0,0.04622910028014189,0.0,0.0,-0.0037055756569857237,0.0,1.1617011082183402,0.0,3.9697872850906366,0.0,0.07742492634457723,0.0,85.44945327019369,-1.387631172734367,0.0,-3.8965677566492865,0.0,0.07742492634457723,0.0
sim_raptor_glider_3dof,raptor_glider_3dof,0.036,-14.57196857283048,0.0,-0.009728404902664547,11.786695906052204,0.0,-0.6894957178880864,0.0,0.0,0.0,-35.23525595329961,-0.6149712291680115,-0.02604299430358929,0.0,0.0,0.0,0.0,0.0,-0.023669909190417747,-1.3561858980688561,0.0,0.0,11.806845672182464,0.009728404902664547,0.034696422675313594,-0.05843120508941858,-3.3478614434870204,0.0,0.0,0.03476129589900083,1.9916755454181643,-5.233366712306655,0.0,-11.428090895970033,11.799713003092243,0.0,-0.4103386057752887,0.0,10.292238516841701,0.0,0.0,-0.6149712291680115,0.0,-0.13378848670113758,0.3490658503988659,1.0,0.14,0.14,0.75,0.08726646259971647,5.0,0.184,0.175,0.174,0.0,0.0,0.0,-0.003055150951668303,0.0,0.004607351324283694,0.0,6.058649335228289,0.0,-0.5216182187316141,0.0,0.12439860433314982,0.0,-3.6705221977119837,0.0,-0.02697357414016313,0.0,-0.006431154271073216,0.350011018067922,0.032933357787458956,0.09699637735534151,0.0,0.0,0.0,0.32792106625045064,0.09699637735534151,0.0,0.0,0.04631615220352853,0.0,0.0,-0.003646019202502501,0.0,1.1594646067260637,0.0,3.919866705169605,0.0,0.07751084827033486,0.0,85.38349857853979,-1.3863980690272955,0.0,-3.8454666237980826,0.0,0.07751084827033486,0.0
sim_raptor_glider_3dof,raptor_glider_3dof,0.037,-14.5601712128865,0.0,-0.010140859990723587,11.781467962271392,0.0,-0.7007708320934399,0.0,0.0,0.0,-34.645271565220234,-0.6046740590606624,-0.025616809123202734,0.0,0.0,0.0,0.0,0.0,-0.024279732707847265,-1.3911262118653902,0.0,0.0,11.802290756676864,0.010140859990723587,0.03468303728195617,-0.059410775517544166,-3.40398669475444,0.0,0.0,0.0351310428096969,2.01286048288905,-5.222434488515779,0.0,-11.122987222167643,11.795008370099405,0.0,-0.4145414990385856,0.0,10.301792508660736,0.0,0.0,-0.6046740590606624,0.0,-0.13378848670113758,0.3490658503988659,1.0,0.14,0.14,0.75,0.08726646259971647,5.0,0.184,0.175,0.174,0.0,0.0,0.0,-0.0030707943283709766,0.0,0.004606321238602942,0.0,6.0585470896816815,0.0,-0.5216952437620198,0.0,0.12325423728435628,0.0,-3.669693411777727,0.0,-0.026687353527170853,0.0,-0.006358047819456745,0.34583753544151097,0.033234119301135706,0.09688942328985034,0.0,0.0,0.0,0.32410944523106744,0.09688942328985034,0.0,0.0,0.04639493629496156,0.0,0.0,-0.003586353277248383,0.0,1.157292659454768,0.0,3.8713150423423364,0.0,0.077582799382724,0.0,85.31763177321515,-1.3851133979738703,0.0,-3.7957696625911344,0.0,0.077582799382724,0.0
sim_raptor_glider_3dof,raptor_glider_3dof,0.038,-14.548378553141562,0.0,-0.010557429545537851,11.776251198205154,0.0,-0.7117433690515053,0.0,0.0,0.0,-34.054792043187334,-0.5943682472355859,-0.025189919569104692,0.0,0.0,0.0,0.0,0.0,-0.024879254470396187,-1.4254762785856876,0.0,0.0,11.797740076244141,0.010557429545537851,0.03466966433408017,-0.06036544390687319,-3.4586851642975454,0.0,0.0,0.03548618943647701,2.0332088857118578,-5.2110166558045306,0.0,-10.822918194408503,11.790312587773878,0.0,-0.4185689778255659,0.0,10.309534262892145,0.0,0.0,-0.5943682472355859,0.0,-0.13378848670113758,0.3490658503988659,1.0,0.14,0.14,0.75,0.08726646259971647,5.0,0.184,0.175,0.174,0.0,0.0,0.0,-0.003086062429855482,0.0,0.004605241299935071,0.0,6.058443106362231,0.0,-0.5217691807410549,0.0,0.1221387428441186,0.0,-3.66888233822358,0.0,-0.026408495721567022,0.0,-0.006287449310354119,0.3417700415347267,0.03352698791165763,0.09678738972413566,0.0,0.0,0.0,0.3204044042958701,0.09678738972413566,0.0,0.0,0.04646562705282813,0.0,0.0,-0.003526588739674657,0.0,1.1551825858300988,0.0,3.8241096213131804,0.0,0.07764110253384074,0.0,85.25185158953714,-1.383782391417157,0.0,-3.7474534681072376,0.0,0.07764110253384074,0.0
sim_raptor_glider_3dof,raptor_glider_3dof,0.039,-14.536590584783875,0.0,-0.010977940977359981,11.771046081301451,0.0,-0.7224183271436305,0.0,0.0,0.0,-33.46391983535995,-0.5840555817504699,-0.02476240126632118,0.0,0.0,0.0,0.0,0.0,-0.02546846686734359,-1.4592356621675608,0.0,0.0,11.793193549141609,0.010977940977359981,0.03465630359147083,-0.06129560198734844,-3.5119792965887666,0.0,0.0,0.03582713512000485,2.052743634421206,-5.199144567934209,0.0,-10.52782024270298,11.785625583723297,0.0,-0.4224259554077584,0.0,10.315505843620013,0.0,0.0,-0.5840555817504699,0.0,-0.13378848670113758,0.3490658503988659,1.0,0.14,0.14,0.75,0.08726646259971647,5.0,0.184,0.175,0.174,0.0,0.0,0.0,-0.0031009580277929147,0.0,0.004604118570864159,0.0,6.05833767776738,0.0,-0.5218401457090764,0.0,0.12105168329689243,0.0,-3.6680889024994094,0.0,-0.02613687843844461,0.0,-0.006219280208722646,0.3378069765543284,0.03381209942782867,0.09669007321292364,0.0,0.0,0.0,0.3168043181526036,0.09669007321292364,0.0,0.0,0.04652839592762087,0.0,0.0,-0.003466736177284965,0.0,1.153131802952755,0.0,3.778227923874419,0.0,0.07768607450830232,0.0,85.1861567757703,-1.3824099993585253,0.0,-3.7004948038605643,0.0,0.07768607450830232,0.0
sim_raptor_glider_3dof,raptor_glider_3dof,0.04,-14.524807299072837,0.0,-0.011402226191503861,11.765853050742562,0.0,-0.7328006458542775,0.0,0.0,0.0,-32.87275518494651,-0.5737378121793542,-0.024334328297125438,0.0,0.0,0.0,0.0,0.0,-0.026047363916311062,-1.4924040198459751,0.0,0.0,11.788651101726293,0.011402226191503861,0.03464295483771575,-0.06220163719575585,-3.5638912901207678,0.0,0.0,0.03615427327944479,2.071487270274792,-5.186848403268352,0.0,-10.237629753152445,11.780947282480383,0.0,-0.42611726748699086,0.0,10.319748639166049,0.0,0.0,-0.5737378121793542,0.0,-0.13378848670113758,0.3490658503988659,1.0,0.14,0.14,0.75,0.08726646259971647,5.0,0.184,0.175,0.174,0.0,0.0,0.0,-0.0031154841752710958,0.0,0.004602959593903221,0.0,6.0582310810881275,0.0,-0.5219082505114961,0.0,0.11999262467551274,0.0,-3.6673130216674164,0.0,-0.025872381139331244,0.0,-0.006153464563869517,0.33394678314678033,0.034089587970368006,0.09659727749683505,0.0,0.0,0.0,0.31330756538299365,0.09659727749683505,0.0,0.0,0.046583411835628925,0.0,0.0,-0.0034068059615975613,0.0,1.1511378230618245,0.0,3.73364755311656,0.0,0.07771802700155951,0.0,85.12054619903316,-1.3810009020649672,0.0,-3.654870565023136,0.0,0.07771802700155951,0.0
sim_raptor_glider_3dof,raptor_glider_3dof,0.04,-14.524807299072837,0.0,-0.011402226191503861,11.765853050742562,0.0,-0.7328006458542775,0.0,0.0,0.0,-32.87275518494651,-0.5737378121793542,-0.024334328297125438,0.0,0.0,0.0,0.0,0.0,-0.026047363916311062,-1.4924040198459751,0.0,0.0,11.788651101726293,0.011402226191503861,0.03464295483771575,-0.06220163719575585,-3.5638912901207678,0.0,0.0,0.03615427327944479,2.071487270274792,-5.192474563610502,0.0,-10.222948271258248,11.780947282480383,0.0,-0.42611726748699086,0.0,10.485612087272948,0.0,0.0,-0.5737378121793542,0.0,-0.13505647781255403,0.3490658503988659,1.0,0.14,0.14,0.75,0.08726646259971647,5.0,0.184,0.175,0.174,0.0,0.0,0.0,-0.002816995197819961,0.0,0.0046654149016928225,0.0,6.057803936336352,0.0,-0.5218696807266301,0.0,0.1199814875060009,0.0,-3.6656633714751155,0.0,-0.0259532011810398,0.0,-0.00618503489016882,0.33361525625153454,0.03484391668170226,0.09674791876858471,0.0,0.0,0.0,0.3129774936870347,0.09674791876858471,0.0,0.0,0.0473321205088535,0.0,0.0,-0.0034068059615975613,0.0,1.1529329964882271,0.0,3.729714129490279,0.0,0.07896714462925257,0.0,85.12054619903316,-1.3825480961590584,0.0,-3.6508331575022313,0.0,0.07896714462925257,0.0
sim_raptor_glider_3dof,raptor_glider_3dof,0.041,-14.513028713441349,0.0,-0.011830119852811904,11.760667044066322,0.0,-0.7428787263831251,0.0,0.0,0.0,-32.27193044799351,-0.5632514422920954,-0.023898776639231078,0.0,0.0,0.0,0.0,0.0,-0.026615805249844762,-1.5249733091582445,0.0,0.0,11.78410616565806,0.011830119852811904,0.034629598770631105,-0.06308256629453261,-3.6143648095309393,0.0,0.0,0.03646676104468785,2.089391500372695,-5.179663383427883,0.0,-9.936172157638978,11.776271636434304,0.0,-0.42963294614493147,0.0,10.487097708177377,0.0,0.0,-0.5632514422920954,0.0,-0.13505647781255403,0.3490658503988659,1.0,0.14,0.14,0.75,0.08726646259971647,5.0,0.184,0.175,0.174,0.0,0.0,0.0,-0.0028303931250255546,0.0,0.004664447646252855,0.0,6.057696210715999,0.0,-0.5219347430690179,0.0,0.11895166751381045,0.0,-3.664904387097567,0.0,-0.02569628720061324,0.0,-0.00612167602376219,0.329862482476507,0.03511320687848465,0.09665988635909203,0.0,0.0,0.0,0.3095944684601565,0.09665988635909203,0.0,0.0,0.047375349267678245,0.0,0.0,-0.0033458287294923514,0.0,1.150995913513536,0.0,3.6865548002014292,0.0,0.07897833284028383,0.0,85.0549249737062,-1.381109658538114,0.0,-3.6066624459333303,0.0,0.07897833284028383,0.0
sim_raptor_glider_3dof,raptor_glider_3dof,0.042,-14.501254775368237,0.0,-0.012261433210525764,11.755493969672385,0.0,-0.7526739064418976,0.0,0.0,0.0,-31.671068418712576,-0.5527644215309285,-0.02346285333068203,0.0,0.0,0.0,0.0,0.0,-0.027173813187950768,-1.5569448089465159,0.0,0.0,11.77956520761451,0.012261433210525764,0.03461625439364809,-0.06394013722172691,-3.663500004292293,0.0,0.0,0.03676632403377614,2.106555195345777,-5.166485037526637,0.0,-9.654188232945554,11.771604516676561,0.0,-0.4329937452230739,0.0,10.48694358753168,0.0,0.0,-0.5527644215309285,0.0,-0.13505647781255403,0.3490658503988659,1.0,0.14,0.14,0.75,0.08726646259971647,5.0,0.184,0.175,0.174,0.0,0.0,0.0,-0.0028434482878272683,0.0,0.004663450748069874,0.0,6.057587848443369,0.0,-0.521997164713035,0.0,0.11794898829355258,0.0,-3.664162822287384,0.0,-0.025446251407349626,0.0,-0.006060521505069313,0.32620946155929503,0.03537514532636881,0.09657598930451022,0.0,0.0,0.0,0.30631150022769027,0.09657598930451022,0.0,0.0,0.047411185409438165,0.0,0.0,-0.003284799466295484,0.0,1.149110770822483,0.0,3.644651705597327,0.0,0.07897717215770109,0.0,84.98938645529493,-1.3796433643625523,0.0,-3.5637797078248434,0.0,0.07897717215770109,0.0
sim_raptor_glider_3dof,raptor_glider_3dof,0.043000000000000003,-14.489485500200683,0.0,-0.012696031877660828,11.750334243530576,0.0,-0.7621894762281439,0.0,0.0,0.0,-31.070261266141312,-0.5422783585490281,-0.023026626867873573,0.0,0.0,0.0,0.0,0.0,-0.027721334586784094,-1.5883154742927645,0.0,0.0,11.775028137221593,0.012696031877660828,0.0346029214411872,-0.06477459934224343,-3.7113111619614267,0.0,0.0,0.037053264755459336,2.1229956876686624,-5.152966555789276,0.0,-9.376956313217937,11.766945832356644,0.0,-0.4362034052420811,0.0,10.485180504843083,0.0,0.0,-0.5422783585490281,0.0,-0.13505647781255403,0.3490658503988659,1.0,0.14,0.14,0.75,0.08726646259971647,5.0,0.184,0.175,0.174,0.0,0.0,0.0,-0.0028561621826870207,0.0,0.004662429579291179,0.0,6.057479100163754,0.0,-0.5220570365884172,0.0,0.11697317384807761,0.0,-3.6634386790537583,0.0,-0.025203014910434113,0.0,-0.006001511688323762,0.3226551843724666,0.03562982276770058,0.09649606400831595,0.0,0.0,0.0,0.30312752083254874,0.09649606400831595,0.0,0.0,0.047439751739927496,0.0,0.0,-0.0032237277615023,0.0,1.1472754881062108,0.0,3.6039892196185055,0.0,0.07896389438197327,0.0,84.92392927382136,-1.37815323421551,0.0,-3.5221687926272183,0.0,0.07896389438197327,0.0
sim_raptor_glider_3dof,raptor_glider_3dof,0.044,-14.477720880542345,0.0,-0.013133784002692132,11.745188155669217,0.0,-0.7714296097607166,0.0,0.0,0.0,-30.46958960021127,-0.5317946602551094,-0.022590157342787107,0.0,0.0,0.0,0.0,0.0,-0.028258370875647247,-1.6190853870899917,0.0,0.0,11.770494826254673,0.013133784002692132,0.034589599536438545,-0.0655862780005895,-3.7578169234054974,0.0,0.0,0.03732790712494225,2.1387315363155057,-5.139133644699035,0.0,-9.10441938859115,11.762295435602363,0.0,-0.43926591091940476,0.0,10.481843113782343,0.0,0.0,-0.5317946602551094,0.0,-0.13505647781255403,0.3490658503988659,1.0,0.14,0.14,0.75,0.08726646259971647,5.0,0.184,0.175,0.174,0.0,0.0,0.0,-0.0028685377142762462,0.0,0.004661389033940131,0.0,6.057370194394792,0.0,-0.5221144520602783,0.0,0.11602385839748769,0.0,-3.6627318841427243,0.0,-0.024966477039547744,0.0,-0.00594458331111026,0.31919830727984033,0.035877352794650305,0.09641994490879582,0.0,0.0,0.0,0.3000411348713561,0.09641994490879582,0.0,0.0,0.04746118933406212,0.0,0.0,-0.0031626220279901956,0.0,1.1454879607045587,0.0,3.5645478540396676,0.0,0.07893876048989483,0.0,84.85855151561093,-1.3766430067494508,0.0,-3.481809601891769,0.0,0.07893876048989483,0.0
