name,vehicle,t,north,east,down,u,v,w,p_rad,p_deg,p_hat_div_b,q_deg,q_rad,q_hat_div_c,r_rad,r_deg,r_hat_div_b,phi_rad,phi_deg,theta_rad,theta_deg,psi_rad,psi_deg,speed,altitude,mach,alpha_rad,alpha_deg,beta_rad,beta_deg,gamma_rad,gamma_deg,u_dot,v_dot,w_dot,north_dot,east_dot,down_dot,p_rad_dot,q_rad_dot,r_rad_dot,phi_rad_dot,theta_rad_dot,psi_rad_dot,del_tail_alt_rad,del_tail_splay_rad,DIM_b,DIM_c_bar,DIM_S,DIM_wing_position,DIM_wing_incidence_rad,DIM_wing_incidence_deg,DIM_empennage_length,DIM_nose_length,DIM_tail_length,CDp,CDq,CDr,CYp,CYq,CYr,CLp,CLq,CLr,Clp,Clq,Clr,Cmp,Cmq,Cmr,Cnp,Cnq,Cnr,CL_0,Cm_0,CD_0,Cl_0,CY_0,Cn_0,CL,CD,CY,Cl,Cm,Cn,p_hat,q_hat,r_hat,drag_force_wind,side_force_wind,lift_force_wind,roll_moment_wind,pitch_moment_wind,yaw_moment_wind,qbar,X_total,Y_total,Z_total,L_total,M_total,N_total
sim_raptor_glider_3dof,raptor_glider_3dof,0.0,-15.0,0.0,0.0,12.0,0.0,0.0,0.0,0.0,0.0,0.0,0.0,0.0,0.0,0.0,0.0,0.0,0.0,0.0,0.0,0.0,0.0,12.0,-0.0,0.035264039495724236,0.0,0.0,0.0,0.0,0.0,0.0,-6.780234345334412,0.0,-22.216327958501395,12.0,0.0,0.0,0.0,-58.328260168570296,0.0,0.0,0.0,0.0,0.2851254652642259,0.3490658503988659,1.0,0.14,0.14,0.75,0.08726646259971647,5.0,0.184,0.175,0.174,0.0,0.0,0.0,-0.005227566657174259,0.0,0.023178437192511923,0.0,6.061750578855402,0.0,-0.5155928501723916,0.0,0.19494750287297685,0.0,-3.645658495954832,0.0,-0.0454069715164772,0.0,-0.018710205400881707,0.7131776256094298,-0.25410132736560515,0.1510013040557142,0.0,0.0,0.0,0.7131776256094298,0.1510013040557142,0.0,0.0,-0.25410132736560515,0.0,0.0,0.0,0.0,1.8645644449669634,0.0,8.806318938587884,0.0,-0.43927012732950294,0.0,88.20001620075907,-1.8645644449669634,0.0,-8.806318938587884,0.0,-0.43927012732950294,0.0
sim_raptor_glider_3dof,raptor_glider_3dof,0.001,-14.988003393847116,0.0,-0.000011028835701674603,11.993207967390433,0.0,-0.022326163576598147,0.0,0.0,0.0,-3.328003724674346,-0.05808462251420219,-0.002421559020247925,0.0,0.0,0.0,0.0,0.0,-0.0000290831994329128,-0.0016663445822431727,0.0,0.0,11.99322874820027,0.000011028835701674603,0.03524414102148247,-0.0018615651331501228,-0.10665982541821117,0.0,0.0,0.00183248193371721,0.104993480835968,-6.80400332951975,0.0,-22.43430927698494,11.993208611634579,0.0,-0.021977362708049206,0.0,-57.84138574791914,0.0,0.0,-0.05808462251420219,0.0,0.2851254652642259,0.3490658503988659,1.0,0.14,0.14,0.75,0.08726646259971647,5.0,0.184,0.175,0.174,0.0,0.0,0.0,-0.0052991005499871,0.0,0.023128576792817195,0.0,6.062937631915755,0.0,-0.5158736507971693,0.0,0.1928184440812796,0.0,-3.6470051311155025,0.0,-0.04484581128636737,0.0,-0.01846959067510487,0.7056480146641279,-0.2535013194177075,0.15036973548005778,0.0,0.0,0.0,0.7035925680804805,0.15036973548005778,0.0,0.0,-0.25226491807360746,0.0,0.0,-0.0003390182628347095,0.0,1.854670987793052,0.0,8.678160662314506,0.0,-0.43560347606757904,0.0,88.10050686405866,-1.8708227261608203,0.0,-8.674693036712274,0.0,-0.43560347606757904,0.0
sim_raptor_glider_3dof,raptor_glider_3dof,0.002,-14.976013589543163,0.0,-0.000043795010361874726,11.986391659584173,0.0,-0.044865308229222925,0.0,0.0,0.0,-6.628180155924723,-0.11568356713623756,-0.004825587218202096,0.0,0.0,0.0,0.0,0.0,-0.0001160076843584534,-0.006646750704825195,0.0,0.0,11.986475625171543,0.000043795010361874726,0.03522429582171543,-0.003743002897048427,-0.21445826870611504,0.0,0.0,0.0036269952126899733,0.20781151800128983,-6.828776894653994,0.0,-22.642334012056423,11.986396783649548,0.0,-0.04347479439020617,0.0,-57.356902295159976,0.0,0.0,-0.11568356713623756,0.0,0.2851254652642259,0.3490658503988659,1.0,0.14,0.14,0.75,0.08726646259971647,5.0,0.184,0.175,0.174,0.0,0.0,0.0,-0.005371660584117311,0.0,0.02308215458328935,0.0,6.064119667799583,0.0,-0.5161542966304158,0.0,0.190666749788225,0.0,-3.648352722262401,0.0,-0.044279915895656795,0.0,-0.018229203163872547,0.6980078927236815,-0.2528986400493328,0.1497390563484973,0.0,0.0,0.0,0.69391108135348,0.1497390563484973,0.0,0.0,-0.2504338778523669,0.0,0.0,-0.0006755822105482936,0.0,1.8448128435985693,0.0,8.549112745955398,0.0,-0.4319548311848498,0.0,88.00131988587142,-1.876799199690974,0.0,-8.542147735493844,0.0,-0.4319548311848498,0.0
sim_raptor_glider_3dof,raptor_glider_3dof,0.003,-14.964030606145451,0.0,-0.00009781746696546208,11.979550092717929,0.0,-0.0676075788681275,0.0,0.0,0.0,-9.900666276962397,-0.17279922467416264,-0.007212143677052125,0.0,0.0,0.0,0.0,0.0,-0.00026028925959698624,-0.014913476027492371,0.0,0.0,11.979740865672285,0.00009781746696546208,0.035204504586300756,-0.005643522552261084,-0.32335002383145867,0.0,0.0,0.005383233292664097,0.3084365478039663,-6.854514222995921,0.0,-22.840595321389678,11.979567284434133,0.0,-0.06448942838917471,0.0,-56.874811597641724,0.0,0.0,-0.17279922467416264,0.0,0.2851254652642259,0.3490658503988659,1.0,0.14,0.14,0.75,0.08726646259971647,5.0,0.184,0.175,0.174,0.0,0.0,0.0,-0.005445210637734967,0.0,0.023039017628558447,0.0,6.065295794435729,0.0,-0.5164345092405243,0.0,0.18849318707887003,0.0,-3.6497003993200914,0.0,-0.043709431693521913,0.0,-0.017989209128092345,0.69026041424682,-0.25229334727516833,0.1491097665628081,0.0,0.0,0.0,0.6841362843869594,0.1491097665628081,0.0,0.0,-0.24860824436303558,0.0,0.0,-0.0010097001147872976,0.0,1.8349961044317407,0.0,8.419216565681369,0.0,-0.42832420614183986,0.0,87.90245826140638,-1.8824806691416596,0.0,-8.408726705835505,0.0,-0.42832420614183986,0.0
sim_raptor_glider_3dof,raptor_glider_3dof,0.004,-14.952054459971816,0.0,-0.00017261204759725428,11.972682323576358,0.0,-0.09054330824316661,0.0,0.0,0.0,-13.145599083529143,-0.22943398615473262,-0.00958128761058638,0.0,0.0,0.0,0.0,0.0,-0.0004614458257033652,-0.02643889828673223,0.0,0.0,11.973024685180658,0.00017261204759725428,0.03518476794845766,-0.007562347330328504,-0.4332905852398487,0.0,0.0,0.007100901504625138,0.40685168695311646,-6.881173822407338,0.0,-23.02928695491099,11.97272282972144,0.0,-0.08501855451875087,0.0,-56.395109009467696,0.0,0.0,-0.22943398615473262,0.0,0.2851254652642259,0.3490658503988659,1.0,0.14,0.14,0.75,0.08726646259971647,5.0,0.184,0.175,0.174,0.0,0.0,0.0,-0.005519713950164287,0.0,0.022998989664616762,0.0,6.0664651620438335,0.0,-0.5167140129219197,0.0,0.1862984986374633,0.0,-3.651047327417468,0.0,-0.043134491371677304,0.0,-0.017749767909838152,0.6824087676024391,-0.2516854710601711,0.14848235074056218,0.0,0.0,0.0,0.6742713309528389,0.14848235074056218,0.0,0.0,-0.24678802822683216,0.0,0.0,-0.0013413802654820932,0.0,1.8252266400471773,0.0,8.28851368352554,0.0,-0.42471156595030124,0.0,87.8039246965707,-1.8878544706514657,0.0,-8.274473812102453,0.0,-0.42471156595030124,0.0
sim_raptor_glider_3dof,raptor_glider_3dof,0.005,-14.940085164608647,0.0,-0.00026769192041522214,11.965787451342338,0.0,-0.11366302598045004,0.0,0.0,0.0,-16.363115126293962,-0.2855902348367174,-0.011933078049438483,0.0,0.0,0.0,0.0,0.0,-0.0007189977076596213,-0.04119553412847728,0.0,0.0,11.966327281759295,0.00026769192041522214,0.03516508649022685,-0.009498715231586153,-0.5442362935665169,0.0,0.0,0.008779717523926532,0.5030407594380396,-6.9087136731663765,0.0,-23.208602922990096,11.965866081887555,0.0,-0.10505962359436882,0.0,-55.917783660393354,0.0,0.0,-0.2855902348367174,0.0,0.2851254652642259,0.3490658503988659,1.0,0.14,0.14,0.75,0.08726646259971647,5.0,0.184,0.175,0.174,0.0,0.0,0.0,-0.0055951331890988784,0.0,0.022961871864125957,0.0,6.067626963251605,0.0,-0.5169925349865532,0.0,0.18408340220978733,0.0,-3.6523927071781856,0.0,-0.04255521407150978,0.0,-0.017511031883728843,0.6744561692973544,-0.25107501389081105,0.1478572779829634,0.0,0.0,0.0,0.6643194040395242,0.1478572779829634,0.0,0.0,-0.24497321367693703,0.0,0.0,-0.0016706309269213877,0.0,1.815510097051355,0.0,8.157045781945635,0.0,-0.42111682874642237,0.0,87.7057216361493,-1.8929084848153372,0.0,-8.139433043484454,0.0,-0.42111682874642237,0.0
sim_raptor_glider_3dof,raptor_glider_3dof,0.006,-14.92812273104555,0.0,-0.00038256782392560407,11.95886461688207,0.0,-0.1369574531733437,0.0,0.0,0.0,-19.553350156794817,-0.34127034003141904,-0.014267573602074488,0.0,0.0,0.0,0.0,0.0,-0.0010324675749739276,-0.05915603453011295,0.0,0.0,11.95964883551744,0.00038256782392560407,0.03514546074088994,-0.011451878618032357,-0.6561443123093638,0.0,0.0,0.010419411043058428,0.5969882777792508,-6.9370913498330005,0.0,-23.378737392301268,11.958999646976244,0.0,-0.12461024241898014,0.0,-55.44281872958442,0.0,0.0,-0.34127034003141904,0.0,0.2851254652642259,0.3490658503988659,1.0,0.14,0.14,0.75,0.08726646259971647,5.0,0.184,0.175,0.174,0.0,0.0,0.0,-0.005671430473417003,0.0,0.02292744367176568,0.0,6.06878043239525,0.0,-0.5172698058742706,0.0,0.18184859145819113,0.0,-3.6537357741030174,0.0,-0.04197170587018681,0.0,-0.01727314657143157,0.6664058629530936,-0.2504619517736133,0.1472350020702857,0.0,0.0,0.0,0.6542837149439296,0.1472350020702857,0.0,0.0,-0.24316375960247666,0.0,0.0,-0.0019974603042904283,0.0,1.8058519025612099,0.0,8.024854652987194,0.0,-0.41753986785250025,0.0,87.60785125668636,-1.8976311418800862,0.0,-8.0036485020846,0.0,-0.41753986785250025,0.0
sim_raptor_glider_3dof,raptor_glider_3dof,0.007,-14.916167167696612,0.0,-0.0005167481832256666,11.951913003613392,0.0,-0.16041750496342874,0.0,0.0,0.0,-22.71643879821878,-0.39647665135670146,-0.016584832230924766,0.0,0.0,0.0,0.0,0.0,-0.001401380455587428,-0.08029318559728013,0.0,0.0,11.952989509818938,0.0005167481832256666,0.03512589118051937,-0.013421104471645384,-0.7689726426294371,0.0,0.0,0.012019724016057956,0.688679457032157,-6.966264149463246,0.0,-23.539884463759947,11.95212607351307,0.0,-0.14366817563616557,0.0,-54.970191692729,0.0,0.0,-0.39647665135670146,0.0,0.2851254652642259,0.3490658503988659,1.0,0.14,0.14,0.75,0.08726646259971647,5.0,0.184,0.175,0.174,0.0,0.0,0.0,-0.0057485674237283575,0.0,0.022895463661926303,0.0,6.069924845165092,0.0,-0.5175455593571676,0.0,0.1795947360679136,0.0,-3.6550757983738644,0.0,-0.04138406008203769,0.0,-0.017036250682432436,0.6582611154257916,-0.24984623505982917,0.14661596146440523,0.0,0.0,0.0,0.6441674994961977,0.14661596146440523,0.0,0.0,-0.24135960041280102,0.0,0.0,-0.002321876512329467,0.0,1.7962572660031408,0.0,7.891982154849034,0.0,-0.41398051363794214,0.0,87.51031548495139,-1.9020114292913108,0.0,-7.867164357058387,0.0,-0.41398051363794214,0.0
sim_raptor_glider_3dof,raptor_glider_3dof,0.008,-14.904218480449416,0.0,-0.0006697392573916471,11.94493183783302,0.0,-0.18403429091096268,0.0,0.0,0.0,-25.852514232756747,-0.4512114932803009,-0.0188849110387666,0.0,0.0,0.0,0.0,0.0,-0.001825263720694659,-0.10457990769414946,0.0,0.0,11.946349452058902,0.0006697392573916471,0.035106378242260726,-0.015405674467742731,-0.8826801275541094,0.0,0.0,0.013580410747048072,0.7781002198599599,-6.9961892104785175,0.0,-23.692237981278573,11.94524785097289,0.0,-0.1622313457243335,0.0,-54.499874583159574,0.0,0.0,-0.4512114932803009,0.0,0.2851254652642259,0.3490658503988659,1.0,0.14,0.14,0.75,0.08726646259971647,5.0,0.184,0.175,0.174,0.0,0.0,0.0,-0.005826505207492059,0.0,0.022865670432876364,0.0,6.071059518074443,0.0,-0.5178195327118937,0.0,0.1773224820750295,0.0,-3.6564120844796864,0.0,-0.04079235762825034,0.0,-0.016800476187805637,0.650025213554124,-0.2492277893616885,0.1460005793987911,0.0,0.0,0.0,0.633974014906739,0.1460005793987911,0.0,0.0,-0.2395606469905827,0.0,0.0,-0.002643887545427324,0.0,1.7867311818325027,0.0,7.758470175734067,0.0,-0.4104385554857748,0.0,87.4131160100283,-1.9060388973420497,0.0,-7.730024806280164,0.0,-0.4104385554857748,0.0
sim_raptor_glider_3dof,raptor_glider_3dof,0.009000000000000001,-14.892276672733857,0.0,-0.0008410453108833226,11.937920388737108,0.0,-0.20779911421108518,0.0,0.0,0.0,-28.96170788217512,-0.5054771595447498,-0.02116786604856369,0.0,0.0,0.0,0.0,0.0,-0.0023036470505311364,-0.1319892534831944,0.0,0.0,11.939728794226948,0.0008410453108833226,0.03508692231398791,-0.017404884951323682,-0.9972264506216062,0.0,0.0,0.015101237900792545,0.8652371971384117,-7.026823623689328,0.0,-23.83599135274313,11.938367408127604,0.0,-0.18029783206868397,0.0,-54.0318342632657,0.0,0.0,-0.5054771595447498,0.0,0.2851254652642259,0.3490658503988659,1.0,0.14,0.14,0.75,0.08726646259971647,5.0,0.184,0.175,0.174,0.0,0.0,0.0,-0.0059052045817876,0.0,0.022837783529342116,0.0,6.072183807817246,0.0,-0.5180914668735948,0.0,0.17503245231346534,0.0,-3.657743970734939,0.0,-0.04019666744605901,0.0,-0.01656594841417504,0.6417014612046131,-0.24860651652606333,0.1453892640226086,0.0,0.0,0.0,0.6237065369193545,0.1453892640226086,0.0,0.0,-0.2377667877083191,0.0,0.0,-0.0029635012467989167,0.0,1.7772784328263453,0.0,7.62436060139352,0.0,-0.406913743836654,0.0,87.31625429223928,-1.9097036634634996,0.0,-7.59227404178916,0.0,-0.406913743836654,0.0
sim_raptor_glider_3dof,raptor_glider_3dof,0.01,-14.880341745582905,0.0,-0.0010301687680609347,11.930877968413109,0.0,-0.2317034711696045,0.0,0.0,0.0,-32.0441491233086,-0.5592759082017895,-0.023433752006994046,0.0,0.0,0.0,0.0,0.0,-0.002836062401170212,-0.16249440602279128,0.0,0.0,11.93312765354152,0.0010301687680609347,0.03506752374016727,-0.019418046934325167,-1.112572135723779,0.0,0.0,0.016581984533154955,0.9500777297009876,-7.058124537684634,0.0,-23.971337370542585,11.931487111550398,0.0,-0.19786587028610392,0.0,-53.56603269569778,0.0,0.0,-0.5592759082017895,0.0,0.2851254652642259,0.3490658503988659,1.0,0.14,0.14,0.75,0.08726646259971647,5.0,0.184,0.175,0.174,0.0,0.0,0.0,-0.005984625938104785,0.0,0.02281150438656723,0.0,6.073297110589584,0.0,-0.5183611065879699,0.0,0.17272524684419094,0.0,-3.6590708287758384,0.0,-0.03959704690014458,0.0,-0.016332786142676494,0.6332931761464587,-0.24798229562350602,0.144782408559489,0.0,0.0,0.0,0.6133683567768498,0.144782408559489,0.0,0.0,-0.23597788945064774,0.0,0.0,-0.003280725280979167,0.0,1.7679035935486724,0.0,7.489695280689313,0.0,-0.40340579223129996,0.0,87.21973157307525,-1.9129964156808146,0.0,-7.453956213129671,0.0,-0.40340579223129996,0.0
sim_raptor_glider_3dof,raptor_glider_3dof,0.01,-14.880341745582905,0.0,-0.0010301687680609347,11.930877968413109,0.0,-0.2317034711696045,0.0,0.0,0.0,-32.0441491233086,-0.5592759082017895,-0.023433752006994046,0.0,0.0,0.0,0.0,0.0,-0.002836062401170212,-0.16249440602279128,0.0,0.0,11.93312765354152,0.0010301687680609347,0.03506752374016727,-0.019418046934325167,-1.112572135723779,0.0,0.0,0.016581984533154955,0.9500777297009876,-4.839955187872872,0.0,-19.512008761427232,11.931487111550398,0.0,-0.19786587028610392,0.0,-1.224387706907687,0.0,0.0,-0.5592759082017895,0.0,-0.06869850273300626,0.3490658503988659,1.0,0.14,0.14,0.75,0.08726646259971647,5.0,0.184,0.175,0.174,0.0,0.0,0.0,-0.01200145899938748,0.0,0.0024261681831488236,0.0,6.075874975166919,0.0,-0.5184011674446243,0.0,0.17031603036128132,0.0,-3.764846255337197,0.0,-0.03584970537404464,0.0,-0.008799263013577256,0.5319215285271445,-0.017745300212435297,0.09678619023178245,0.0,0.0,0.0,0.5119882518920457,0.09678619023178245,0.0,0.0,-0.005393873923550807,0.0,0.0,-0.003280725280979167,0.0,1.1818331744795327,0.0,6.251766905802917,0.0,-0.00922086382072179,0.0,87.21973157307525,-1.3029998444825799,0.0,-6.2276408456229495,0.0,-0.00922086382072179,0.0
sim_raptor_glider_3dof,raptor_glider_3dof,0.011,-14.86841259655107,0.0,-0.0012344015520325863,11.926029227362418,0.0,-0.2510567596233816,0.0,0.0,0.0,-32.11059210422025,-0.5604355569835375,-0.023491113792590716,0.0,0.0,0.0,0.0,0.0,-0.003395926036121665,-0.19457222940836255,0.0,0.0,11.928671452783634,0.0012344015520325863,0.035054428436873356,-0.021048052064336298,-1.2059645502580898,0.0,0.0,0.017652126028214633,1.011392320849727,-4.857375915769746,0.0,-19.195106700780684,11.92681302862159,0.0,-0.21055547667428304,0.0,-1.0953037718007541,0.0,0.0,-0.5604355569835375,0.0,-0.06869850273300626,0.3490658503988659,1.0,0.14,0.14,0.75,0.08726646259971647,5.0,0.184,0.175,0.174,0.0,0.0,0.0,-0.01208083969679297,0.0,0.0024146002827129492,0.0,6.076102008582029,0.0,-0.5186156788590436,0.0,0.1684300071826025,0.0,-3.7640174108045135,0.0,-0.035350986935943206,0.0,-0.008625319687814456,0.52512481063647,-0.017207752533005216,0.09644462558419692,0.0,0.0,0.0,0.5051419941186115,0.09644462558419692,0.0,0.0,-0.004828817948975005,0.0,0.0,-0.0032887559309627006,0.0,1.176783022449515,0.0,6.163562966877007,0.0,-0.008248732705431479,0.0,87.15460261866419,-1.3062437780998246,0.0,-6.137430563416469,0.0,-0.008248732705431479,0.0
sim_raptor_glider_3dof,raptor_glider_3dof,0.012,-14.856488120531948,0.0,-0.0014511649872071938,11.921163645646173,0.0,-0.2700948371827577,0.0,0.0,0.0,-32.169718753244034,-0.5614675116846737,-0.023543148774163906,0.0,0.0,0.0,0.0,0.0,-0.003956887287378198,-0.22671294157573962,0.0,0.0,11.924222988830287,0.0014511649872071938,0.03504135586949451,-0.022652875479126356,-1.2979141587893328,0.0,0.0,0.01869598819174816,1.0712012172135932,-4.873607206745169,0.0,-18.88156457275327,11.922139053233396,0.0,-0.22292214496518706,0.0,-0.9690347584668991,0.0,0.0,-0.5614675116846737,0.0,-0.06869850273300626,0.3490658503988659,1.0,0.14,0.14,0.75,0.08726646259971647,5.0,0.184,0.175,0.174,0.0,0.0,0.0,-0.012158840950481685,0.0,0.0024029143388711294,0.0,6.07631327692813,0.0,-0.5188236838200719,0.0,0.1665720628263441,0.0,-3.7631916597434785,0.0,-0.03486042005435984,0.0,-0.008455817021093529,0.5184200663246575,-0.01667896274890104,0.09611346215606593,0.0,0.0,0.0,0.49839228967785704,0.09611346215606593,0.0,0.0,-0.004275329393356349,0.0,0.0,-0.003296040828382947,0.0,1.171867764382559,0.0,6.07667068887742,0.0,-0.0072978007660142175,0.0,87.08961100279865,-1.3092093954642658,0.0,-6.048567721129445,0.0,-0.0072978007660142175,0.0
sim_raptor_glider_3dof,raptor_glider_3dof,0.013000000000000001,-14.84456831815163,0.0,-0.0016801428261576327,11.916282385481262,0.0,-0.28882098865652,0.0,0.0,0.0,-32.22168672863756,-0.562374523960886,-0.023589966784582122,0.0,0.0,0.0,0.0,0.0,-0.00451882065716616,-0.25890935203215404,0.0,0.0,11.919782022084947,0.0016801428261576327,0.035028305333935604,-0.024232763426097353,-1.3884350702543593,0.0,0.0,0.019713942768931195,1.1295257182222054,-4.888684575989407,0.0,-18.57140468008666,11.917465847801498,0.0,-0.2349706800952521,0.0,-0.8455374777154447,0.0,0.0,-0.562374523960886,0.0,-0.06869850273300626,0.3490658503988659,1.0,0.14,0.14,0.75,0.08726646259971647,5.0,0.184,0.175,0.174,0.0,0.0,0.0,-0.012235488591755607,0.0,0.0023911255625107476,0.0,6.076509390380182,0.0,-0.519025369063221,0.0,0.1647419711801187,0.0,-3.762369323703686,0.0,-0.03437790156268686,0.0,-0.008290657620366248,0.51180737666778,-0.01615882969138192,0.09579244561679748,0.0,0.0,0.0,0.4917391250118422,0.09579244561679748,0.0,0.0,-0.003733246258531827,0.0,0.0,-0.0033025953498414975,0.0,1.1670839500168972,0.0,5.99108663215963,0.0,-0.006367742744675014,0.0,87.02475310047129,-1.3119076717357783,0.0,-5.961048753471966,0.0,-0.006367742744675014,0.0
sim_raptor_glider_3dof,raptor_glider_3dof,0.014,-14.832653188301904,0.0,-0.0019210073277189706,11.91138662827948,0.0,-0.30723872973645194,0.0,0.0,0.0,-32.26665962057031,-0.5631594489992562,-0.0236316820533644,0.0,0.0,0.0,0.0,0.0,-0.005081597816825222,-0.29115410808697845,0.0,0.0,11.915348381201671,0.0019210073277189706,0.03501527632666746,-0.02578798167412983,-1.4775425120883503,0.0,0.0,0.020706383857304608,1.186388404001372,-4.9026434013849345,0.0,-18.264643997458606,11.912794093846587,0.0,-0.24670614710455405,0.0,-0.7247670697969207,0.0,0.0,-0.5631594489992562,0.0,-0.06869850273300626,0.3490658503988659,1.0,0.14,0.14,0.75,0.08726646259971647,5.0,0.184,0.175,0.174,0.0,0.0,0.0,-0.01231080856922255,0.0,0.0023792483238314253,0.0,6.076690944363279,0.0,-0.519220918941364,0.0,0.16293948119344293,0.0,-3.7615507013456986,0.0,-0.033903323590393136,0.0,-0.008129743465756635,0.5052866758379732,-0.015647246275934366,0.09548132154285603,0.0,0.0,0.0,0.4851823358712479,0.09548132154285603,0.0,0.0,-0.003202398447680766,0.0,0.0,-0.0033084354874710164,0.0,1.1624281523972533,0.0,5.906805615477955,0.0,-0.00545822080264061,0.0,86.96002628830591,-1.3143493672083835,0.0,-5.874868298902242,0.0,-0.00545822080264061,0.0
sim_raptor_glider_3dof,raptor_glider_3dof,0.015,-14.820742729232819,0.0,-0.0021734527886194447,11.90647745695845,0.0,-0.3253514158074254,0.0,0.0,0.0,-32.30478996195674,-0.5638249490013589,-0.023668401017883374,0.0,0.0,0.0,0.0,0.0,-0.005645099984816969,-0.3234404040593774,0.0,0.0,11.910921835728235,0.0021734527886194447,0.03500226817046705,-0.027318782960293116,-1.5652509650587048,0.0,0.0,0.021673682975476147,1.2418105609993273,-4.915518106994711,0.0,-17.96129689890751,11.908124376205548,0.0,-0.25813333307984054,0.0,-0.6066808529019275,0.0,0.0,-0.5638249490013589,0.0,-0.06869850273300626,0.3490658503988659,1.0,0.14,0.14,0.75,0.08726646259971647,5.0,0.184,0.175,0.174,0.0,0.0,0.0,-0.012384825406595997,0.0,0.0023672964161763396,0.0,6.076858515731952,0.0,-0.519410511348843,0.0,0.16116435465249063,0.0,-3.760736085510539,0.0,-0.033436583461901585,0.0,-0.007972979340371555,0.49885789033749856,-0.01514411021830116,0.09517984210618674,0.0,0.0,0.0,0.47872175693839886,0.09517984210618674,0.0,0.0,-0.002682624847100785,0.0,0.0,-0.003313576142503673,0.0,1.157897024150485,0.0,5.823822413328351,0.0,-0.0045689135032044165,0.0,86.8954270844364,-1.3165449240105491,0.0,-5.7900209398226075,0.0,-0.0045689135032044165,0.0
sim_raptor_glider_3dof,raptor_glider_3dof,0.016,-14.808836938641187,0.0,-0.002437173175506318,11.901555939807874,0.0,-0.34316246575694503,0.0,0.0,0.0,-32.336230404516144,-0.5643736882423046,-0.023700230323874073,0.0,0.0,0.0,0.0,0.0,-0.006209208975656762,-0.3557614684198816,0.0,0.0,11.906502184364664,0.002437173175506318,0.0349892802737802,-0.02882542560586453,-1.6515752298843716,0.0,0.0,0.02261621663020777,1.29581376146449,-4.927342636251192,0.0,-17.661374159685998,11.903457266378926,0.0,-0.2692570774766556,0.0,-0.49123599569357457,0.0,0.0,-0.5643736882423046,0.0,-0.06869850273300626,0.3490658503988659,1.0,0.14,0.14,0.75,0.08726646259971647,5.0,0.184,0.175,0.174,0.0,0.0,0.0,-0.012457563143049884,0.0,0.0023552829402793316,0.0,6.077012665419057,0.0,-0.5195943202075542,0.0,0.15941634469024718,0.0,-3.7599257537508177,0.0,-0.032977577964803835,0.0,-0.007820270891738037,0.49252086406425744,-0.014649317899834957,0.09488776231069669,0.0,0.0,0.0,0.47235714008504304,0.09488776231069669,0.0,0.0,-0.0021737630087965247,0.0,0.0,-0.003318032245342371,0.0,1.153487268652579,0.0,5.742130850985598,0.0,-0.00369949828356831,0.0,86.83095243738344,-1.31850452737189,0.0,-5.706500276008406,0.0,-0.00369949828356831,0.0
sim_raptor_glider_3dof,raptor_glider_3dof,0.017,-14.796935813651366,0.0,-0.0027118674088316267,11.896623110597316,0.0,-0.3606753079970648,0.0,0.0,0.0,-32.36113109270186,-0.5648082872371578,-0.023727274941989715,0.0,0.0,0.0,0.0,0.0,-0.006773809317797844,-0.38811068513620783,0.0,0.0,11.902089233130331,0.0027118674088316267,0.03497631206656185,-0.030308169040255673,-1.736530170775717,0.0,0.0,0.023534359722457827,1.3484194856395089,-4.9381503181673505,0.0,-17.36488337732381,11.898793303461261,0.0,-0.28008219311909854,0.0,-0.3783900669780756,0.0,0.0,-0.5648082872371578,0.0,-0.06869850273300626,0.3490658503988659,1.0,0.14,0.14,0.75,0.08726646259971647,5.0,0.184,0.175,0.174,0.0,0.0,0.0,-0.012529045151321415,0.0,0.0023432203588183488,0.0,6.07715393815799,0.0,-0.519772514988667,0.0,0.15769520103896753,0.0,-3.7591199708353082,0.0,-0.0325262046741281,0.0,-0.007671525113854042,0.486275379858819,-0.0141627658372534,0.09460484094138276,0.0,0.0,0.0,0.4660881775290532,0.09460484094138276,0.0,0.0,-0.0016756516049426778,0.0,0.0,-0.0033218184918785603,0.0,1.1491956470283118,0.0,5.661724066315185,0.0,-0.0028496555944118873,0.0,86.76659940692178,-1.3202380906965097,0.0,-5.624299193865438,0.0,-0.0028496555944118873,0.0
sim_raptor_glider_3dof,raptor_glider_3dof,0.018000000000000002,-14.7850393508311,0.0,-0.0029972394997866804,11.891679968039517,0.0,-0.3778933776222662,0.0,0.0,0.0,-32.37963960367182,-0.565131321693225,-0.023749638121856115,0.0,0.0,0.0,0.0,0.0,-0.007338788298260743,-0.42048159623033615,0.0,0.0,11.897682794020149,0.0029972394997866804,0.034963362996327095,-0.03176727357551067,-1.820130702514226,0.0,0.0,0.02442848527724993,1.3996491062838898,-4.947973849135856,0.0,-17.071829131442346,11.894132994138642,0.0,-0.29061346298074026,0.0,-0.2681010535834036,0.0,0.0,-0.565131321693225,0.0,-0.06869850273300626,0.3490658503988659,1.0,0.14,0.14,0.75,0.08726646259971647,5.0,0.184,0.175,0.174,0.0,0.0,0.0,-0.012599294161060174,0.0,0.00233112051923486,0.0,6.077282862755273,0.0,-0.5199452607820757,0.0,0.1560006703591562,0.0,-3.758318989060922,0.0,-0.03208236197888355,0.0,-0.007526650379507267,0.4801211631745242,-0.013684350751919157,0.09433084063522655,0.0,0.0,0.0,0.4599145055488808,0.09433084063522655,0.0,0.0,-0.0011881305207815732,0.0,0.0,-0.003324949337059857,0.0,1.1450189784771267,0.0,5.582594555335032,0.0,-0.0020190690345366124,0.0,86.70236514428036,-1.3217552555441003,0.0,-5.543409914012375,0.0,-0.0020190690345366124,0.0
sim_raptor_glider_3dof,raptor_glider_3dof,0.019000000000000003,-14.773147546289545,0.0,-0.0032929979444241897,11.886727480466446,0.0,-0.39482011220749175,0.0,0.0,0.0,-32.39190126310715,-0.5653453280221298,-0.02376742161162033,0.0,0.0,0.0,0.0,0.0,-0.007904035603117102,-0.45286788117975013,0.0,0.0,11.893282688807144,0.0032929979444241897,0.0349504325393257,-0.033203000051978016,-1.9023917701509934,0.0,0.0,0.025298964448860914,1.4495238889712432,-4.956845286063468,0.0,-16.782213251453378,11.889476817738233,0.0,-0.3008556403740154,0.0,-0.16032735631053083,0.0,0.0,-0.5653453280221298,0.0,-0.06869850273300626,0.3490658503988659,1.0,0.14,0.14,0.75,0.08726646259971647,5.0,0.184,0.175,0.174,0.0,0.0,0.0,-0.012668332274839501,0.0,0.002318994677248885,0.0,6.077399952359482,0.0,-0.5201127183517995,0.0,0.15433249671713864,0.0,-3.757523048643256,0.0,-0.03164594914877641,0.0,-0.007385556482198151,0.47405788619198597,-0.013213969680826962,0.09406552796806508,0.0,0.0,0.0,0.4538357084161623,0.09406552796806508,0.0,0.0,-0.0007110408490790272,0.0,0.0,-0.0033274390256268467,0.0,1.1409541417864275,0.0,5.504734225100942,0.0,-0.0012074253203746077,0.0,86.63824694736641,-1.3230653930693492,0.0,-5.463824046244491,0.0,-0.0012074253203746077,0.0
sim_raptor_glider_3dof,raptor_glider_3dof,0.02,-14.761260395668828,0.0,-0.003598855988439674,11.881766584391364,0.0,-0.41145894987030573,0.0,0.0,0.0,-32.39805901918805,-0.5654528011402762,-0.023780725565847066,0.0,0.0,0.0,0.0,0.0,-0.008469443441507891,-0.4852633640231573,0.0,0.0,11.888888746783174,0.003598855988439674,0.03493752019390277,-0.034615609688106064,-1.9833283404006414,0.0,0.0,0.02614616624659817,1.498064976377484,-4.964796032631041,0.0,-16.496034935667808,11.884825225276542,0.0,-0.3108134456840441,0.0,-0.05502780730228586,0.0,0.0,-0.5654528011402762,0.0,-0.06869850273300626,0.3490658503988659,1.0,0.14,0.14,0.75,0.08726646259971647,5.0,0.184,0.175,0.174,0.0,0.0,0.0,-0.012736180992871165,0.0,0.0023068535183106567,0.0,6.077505704755701,0.0,-0.5202750442167157,0.0,0.15269042182455442,0.0,-3.756732378002787,0.0,-0.031216866339811078,0.0,-0.007248154654653027,0.4680851709757993,-0.012751520020137725,0.09380867349496094,0.0,0.0,0.0,0.44785132163524616,0.09380867349496094,0.0,0.0,-0.00024422498135144056,0.0,0.0,-0.0033293015792185895,0.0,1.1369980751081454,0.0,5.428134432167048,0.0,-0.00041441441679351484,0.0,86.57424222758347,-1.3241776051450742,0.0,-5.385532629787824,0.0,-0.00041441441679351484,0.0
sim_raptor_glider_3dof,raptor_glider_3dof,0.02,-14.761260395668828,0.0,-0.003598855988439674,11.881766584391364,0.0,-0.41145894987030573,0.0,0.0,0.0,-32.39805901918805,-0.5654528011402762,-0.023780725565847066,0.0,0.0,0.0,0.0,0.0,-0.008469443441507891,-0.4852633640231573,0.0,0.0,11.888888746783174,0.003598855988439674,0.03493752019390277,-0.034615609688106064,-1.9833283404006414,0.0,0.0,0.02614616624659817,1.498064976377484,-4.971213535785291,0.0,-16.475165849589928,11.884825225276542,0.0,-0.3108134456840441,0.0,0.18371390212793615,0.0,0.0,-0.5654528011402762,0.0,-0.07052747219138011,0.3490658503988659,1.0,0.14,0.14,0.75,0.08726646259971647,5.0,0.184,0.175,0.174,0.0,0.0,0.0,-0.012759636380724497,0.0,0.0023795716201757554,0.0,6.077115037437965,0.0,-0.5202987332088213,0.0,0.15268140172540273,0.0,-3.7552995711462556,0.0,-0.03120739726999526,0.0,-0.007279117625557331,0.4676156938947136,-0.011687163859324296,0.09397058039491439,0.0,0.0,0.0,0.4473831452034783,0.09397058039491439,0.0,0.0,0.0008153609333318244,0.0,0.0,-0.0033293015792185895,0.0,1.1389604505126296,0.0,5.4224599493937715,0.0,0.0013835493969254872,0.0,86.57424222758347,-1.3259424185124933,0.0,-5.379793631116408,0.0,0.0013835493969254872,0.0
sim_raptor_glider_3dof,raptor_glider_3dof,0.021,-14.749377902182296,0.0,-0.0039145176845149995,11.876791864794153,0.0,-0.4277912721476839,0.0,0.0,0.0,-32.38462205058527,-0.5652182817966707,-0.023779653400932715,0.0,0.0,0.0,0.0,0.0,-0.009034782062605119,-0.517654881007774,0.0,0.0,11.88449369439718,0.0039145176845149995,0.03492460458549231,-0.03600352847653948,-2.062850229284787,0.0,0.0,0.02696874641393436,1.5451953482770127,-4.9781523816413005,0.0,-16.19031867055663,11.880172081273598,0.0,-0.32047104626417344,0.0,0.28494867483924086,0.0,0.0,-0.5652182817966707,0.0,-0.07052747219138011,0.3490658503988659,1.0,0.14,0.14,0.75,0.08726646259971647,5.0,0.184,0.175,0.174,0.0,0.0,0.0,-0.012826286016119846,0.0,0.0023675468882480414,0.0,6.077204676497241,0.0,-0.520456060511271,0.0,0.15106733501527572,0.0,-3.7545017808041727,0.0,-0.03078615348627091,0.0,-0.007145559435629524,0.4617412979407714,-0.011233707448500227,0.09372285576334306,0.0,0.0,0.0,0.4415093630212629,0.09372285576334306,0.0,0.0,0.001265597697198877,0.0,0.0,-0.0033291514761305805,0.0,1.1351182098985921,0.0,5.347311642654614,0.0,0.002145948470214323,0.0,86.51024499333033,-1.3268630853427787,0.0,-5.30298684769891,0.0,0.002145948470214323,0.0
sim_raptor_glider_3dof,raptor_glider_3dof,0.022,-14.737500054276754,0.0,-0.004239695810720897,11.871810627211014,0.0,-0.4438407108723855,0.0,0.0,0.0,-32.36545643435995,-0.5648837786903651,-0.02377436075007445,0.0,0.0,0.0,0.0,0.0,-0.009599838673219566,-0.550030239981949,0.0,0.0,11.880104466922338,0.004239695810720897,0.03491170609457327,-0.0373686971282308,-2.1410686313502647,0.0,0.0,0.027768858455011234,1.5910383913683155,-4.984227732684067,0.0,-15.908950442140064,11.87552433054215,0.0,-0.3298545432300268,0.0,0.3837901300870748,0.0,0.0,-0.5648837786903651,0.0,-0.07052747219138011,0.3490658503988659,1.0,0.14,0.14,0.75,0.08726646259971647,5.0,0.184,0.175,0.174,0.0,0.0,0.0,-0.012891779845149371,0.0,0.0023555261927140675,0.0,6.077284030327065,0.0,-0.5206085406919357,0.0,0.1494790281003323,0.0,-3.7537100193015727,0.0,-0.030372088037730394,0.0,-0.00701553126137305,0.4559572532654913,-0.010788026681398588,0.0934831550139604,0.0,0.0,0.0,0.4357295572570186,0.0934831550139604,0.0,0.0,0.0017058611796076442,0.0,0.0,-0.0033284105050104228,0.0,1.131378936286297,0.0,5.273412551430531,0.0,0.0028903234696857605,0.0,86.44635619244842,-1.3276037848548108,0.0,-5.227462713926954,0.0,0.0028903234696857605,0.0
sim_raptor_glider_3dof,raptor_glider_3dof,0.023,-14.725626851075086,0.0,-0.004574115210258878,11.866823754971017,0.0,-0.4596106119217242,0.0,0.0,0.0,-32.34069878678227,-0.5644516762250862,-0.02376494357159461,0.0,0.0,0.0,0.0,0.0,-0.010164509258477486,-0.5823834813324099,0.0,0.0,11.875720944268414,0.004574115210258878,0.03489882436824007,-0.03871136980029001,-2.21799810872681,0.0,0.0,0.028546860541812526,1.6356146273944003,-4.989469360569854,0.0,-15.63105485503943,11.870882372335572,0.0,-0.3389685063660565,0.0,0.4802777791026791,0.0,0.0,-0.5644516762250862,0.0,-0.07052747219138011,0.3490658503988659,1.0,0.14,0.14,0.75,0.08726646259971647,5.0,0.184,0.175,0.174,0.0,0.0,0.0,-0.01295613743905069,0.0,0.002343518629801256,0.0,6.077353553242659,0.0,-0.5207563178822047,0.0,0.14791622565636103,0.0,-3.7529244850844847,0.0,-0.029965105853531657,0.0,-0.006888949019160669,0.4502630802543204,-0.010350022018729015,0.09325126072748072,0.0,0.0,0.0,0.4300431652582785,0.09325126072748072,0.0,0.0,0.002136303387579381,0.0,0.0,-0.0033270921000232456,0.0,1.1277397500441613,0.0,5.200752975489268,0.0,0.0036169719544222765,0.0,86.38257398393553,-1.3281728483507367,0.0,-5.153211167882996,0.0,0.0036169719544222765,0.0
sim_raptor_glider_3dof,raptor_glider_3dof,0.024,-14.713758287285918,0.0,-0.00491753579221222,11.86183198256542,0.0,-0.4751040896235589,0.0,0.0,0.0,-32.31046920759253,-0.5639240705367329,-0.023751486079919008,0.0,0.0,0.0,0.0,0.0,-0.010728707147284446,-0.61470963917124,0.0,0.0,11.871342884382917,0.00491753579221222,0.03488595869518034,-0.040031781898151805,-2.293652149152306,0.0,0.0,0.02930307475086736,1.678942509981066,-4.993905817477216,0.0,-15.356624033241953,11.866246464953011,0.0,-0.34781706625620684,0.0,0.5744481115953672,0.0,0.0,-0.5639240705367329,0.0,-0.07052747219138011,0.3490658503988659,1.0,0.14,0.14,0.75,0.08726646259971647,5.0,0.184,0.175,0.174,0.0,0.0,0.0,-0.013019376956132181,0.0,0.00233153299173216,0.0,6.077413684707011,0.0,-0.5208995303176809,0.0,0.14637869253636282,0.0,-3.752145377017302,0.0,-0.029565118404137922,0.0,-0.006765731819814475,0.44465833947270894,-0.00991960052654065,0.09302696264855022,0.0,0.0,0.0,0.42444967455791704,0.09302696264855022,0.0,0.0,0.0025570634903475994,0.0,0.0,-0.003325208051188662,0.0,1.124197843764539,0.0,5.129323750225732,0.0,0.004326168728424711,0.0,86.31889475586655,-1.3285783067879628,0.0,-5.080222692883358,0.0,0.004326168728424711,0.0
sim_raptor_glider_3dof,raptor_glider_3dof,0.025,-14.70189435608625,0.0,-0.005269668636678399,11.856836181919874,0.0,-0.49032493556587176,0.0,0.0,0.0,-32.274912282417006,-0.5633034851205347,-0.023734090231441452,0.0,0.0,0.0,0.0,0.0,-0.011292328671913057,-0.6470027737751882,0.0,0.0,11.866970244646353,0.005269668636678399,0.03487310895014944,-0.041330225640667545,-2.368047495533629,0.0,0.0,0.030037896968754488,1.721044721758441,-4.997566114888638,0.0,-15.085642760588525,11.861617010374419,0.0,-0.35640522796134305,0.0,0.6663436088383091,0.0,0.0,-0.5633034851205347,0.0,-0.07052747219138011,0.3490658503988659,1.0,0.14,0.14,0.75,0.08726646259971647,5.0,0.184,0.175,0.174,0.0,0.0,0.0,-0.013081518786965144,0.0,0.0023195770946335464,0.0,6.077464852944219,0.0,-0.5210383185938959,0.0,0.14486612582662187,0.0,-3.7513728499004815,0.0,-0.029172020779731196,0.0,-0.0066457949319733535,0.4391423128842637,-0.00949665124028364,0.09281004489905051,0.0,0.0,0.0,0.41894827899651677,0.09281004489905051,0.0,0.0,0.002968307799300839,0.0,0.0,-0.0033227726324018035,0.0,1.120750388502215,0.0,5.05911237257126,0.0,0.005018233718161306,0.0,86.25531780078757,-1.32882803110671,0.0,-5.008484351116267,0.0,0.005018233718161306,0.0
sim_raptor_glider_3dof,raptor_glider_3dof,0.026000000000000002,-14.690035050996519,0.0,-0.00563026130510593,11.851837097420525,0.0,-0.5052765192018911,0.0,0.0,0.0,-32.234154381566256,-0.5625921255544877,-0.023712844960473208,0.0,0.0,0.0,0.0,0.0,-0.011855284050949122,-0.6792577410481423,0.0,0.0,11.862602873933282,0.00563026130510593,0.034860274689039586,-0.042606958424169304,-2.44119889559427,0.0,0.0,0.030751674373220184,1.7619411545461277,-5.000477885232991,0.0,-14.818097263128754,11.856994288940104,0.0,-0.3647374078592469,0.0,0.7560024112388056,0.0,0.0,-0.5625921255544877,0.0,-0.07052747219138011,0.3490658503988659,1.0,0.14,0.14,0.75,0.08726646259971647,5.0,0.184,0.175,0.174,0.0,0.0,0.0,-0.013142581189702658,0.0,0.002307658619369407,0.0,6.077507470728418,0.0,-0.5211728157329945,0.0,0.14337826158014308,0.0,-3.7506070684778523,0.0,-0.02878571942520816,0.0,-0.006529058379349844,0.4337143946007783,-0.009081075040352694,0.09260030168716438,0.0,0.0,0.0,0.41353829566484823,0.09260030168716438,0.0,0.0,0.0033701839087931385,0.0,0.0,-0.0033197982944662492,0.0,1.1173946650074,0.0,4.990107774305506,0.0,0.005693454159039445,0.0,86.19184083549153,-1.3289295778819925,0.0,-4.937984671260295,0.0,0.005693454159039445,0.0
sim_raptor_glider_3dof,raptor_glider_3dof,0.027,-14.678180365153727,0.0,-0.00599905989802856,11.846835464915124,0.0,-0.5199622690294542,0.0,0.0,0.0,-32.188322633761466,-0.5617922106533505,-0.023687839843761254,0.0,0.0,0.0,0.0,0.0,-0.012417483544506292,-0.7114693992733605,0.0,0.0,11.858240649185063,0.00599905989802856,0.034847455550222055,-0.043862242927306956,-2.513121399712234,0.0,0.0,0.03144475938280066,1.8016520004388734,-5.002668199530633,0.0,-14.553971557412208,11.852378578776133,0.0,-0.37281807809393536,0.0,0.8434628722233295,0.0,0.0,-0.5617922106533505,0.0,-0.07052747219138011,0.3490658503988659,1.0,0.14,0.14,0.75,0.08726646259971647,5.0,0.184,0.175,0.174,0.0,0.0,0.0,-0.013202582237163581,0.0,0.002295784767754507,0.0,6.077541937715904,0.0,-0.5213031516778902,0.0,0.14191482818735102,0.0,-3.749848184147234,0.0,-0.028406119952328175,0.0,-0.006415443158809547,0.42837392266999924,-0.008672771562065602,0.09239753038488965,0.0,0.0,0.0,0.4082189850609893,0.09239753038488965,0.0,0.0,0.003762840889364209,0.0,0.0,-0.003316297578126576,0.0,1.114128005693246,0.0,4.922298267254324,0.0,0.0063521188907138945,0.0,86.12846198781756,-1.3288902639419935,0.0,-4.868711545294618,0.0,0.0063521188907138945,0.0
sim_raptor_glider_3dof,raptor_glider_3dof,0.028,-14.666330291417013,0.0,-0.006375815098987346,11.841831992736045,0.0,-0.5343855963380629,0.0,0.0,0.0,-32.13754191912451,-0.5609059199864199,-0.023659162932782477,0.0,0.0,0.0,0.0,0.0,-0.012978839679153168,-0.743632736592404,0.0,0.0,11.85388345268168,0.006375815098987346,0.03483465118775656,-0.04509634076193473,-2.5838299971426393,0.0,0.0,0.03211750108278156,1.840197260550235,-5.00416344291683,0.0,-14.29324812576491,11.847770137045837,0.0,-0.38065166423567043,0.0,0.92876284295076,0.0,0.0,-0.5609059199864199,0.0,-0.07052747219138011,0.3490658503988659,1.0,0.14,0.14,0.75,0.08726646259971647,5.0,0.184,0.175,0.174,0.0,0.0,0.0,-0.013261539536763909,0.0,0.0022839623356656733,0.0,6.077568640459294,0.0,-0.5214294526953964,0.0,0.14047555382223254,0.0,-3.7490963389204905,0.0,-0.028033129031129016,0.0,-0.006304871822789721,0.42312020784189974,-0.008271641256238199,0.09220153258423507,0.0,0.0,0.0,0.40298958170392835,0.09220153258423507,0.0,0.0,0.004146426102412344,0.0,0.0,-0.003312282810589547,0.0,1.1109478028444857,0.0,4.8556718941106505,0.0,0.006994512970262173,0.0,86.06517946585623,-1.3287171598752936,0.0,-4.800652588237774,0.0,0.006994512970262173,0.0
sim_raptor_glider_3dof,raptor_glider_3dof,0.029,-14.65448482238492,0.0,-0.006760282225401028,11.836827361771979,0.0,-0.5485498933286679,0.0,0.0,0.0,-32.08193484966574,-0.5599353935369792,-0.023626900737501073,0.0,0.0,0.0,0.0,0.0,-0.013539267256178327,-0.7757428714786885,0.0,0.0,11.84953117122634,0.006760282225401028,0.03482186126899509,-0.04630951231957294,-2.653339607220621,0.0,0.0,0.03277024506339461,1.877596735741932,-5.004989318320808,0.0,-14.035908022365486,11.843169200232493,0.0,-0.3882425434301629,0.0,1.0119396643856728,0.0,0.0,-0.5599353935369792,0.0,-0.07052747219138011,0.3490658503988659,1.0,0.14,0.14,0.75,0.08726646259971647,5.0,0.184,0.175,0.174,0.0,0.0,0.0,-0.013319470246266053,0.0,0.0022721977298995433,0.0,6.077587952722489,0.0,-0.5215518414554781,0.0,0.13906016667422302,0.0,-3.748351665744164,0.0,-0.02766665440503909,0.0,-0.006197268479004595,0.417952535967812,-0.007877585429301736,0.09201211408789599,0.0,0.0,0.0,0.3978492965482751,0.09201211408789599,0.0,0.0,0.004521085153708047,0.0,0.0,-0.0033077661032501504,0.0,1.1078515081078848,0.0,4.790216457363721,0.0,0.007620917612488502,0.0,86.00199154596352,-1.328417094583732,0.0,-4.7337951682801895,0.0,0.007620917612488502,0.0
sim_raptor_glider_3dof,raptor_glider_3dof,0.03,-14.64264395044374,0.0,-0.007152220705174103,11.831822229031184,0.0,-0.5624585334291607,0.0,0.0,0.0,-32.02162203186617,-0.5588827362852213,-0.02359113841079778,0.0,0.0,0.0,0.0,0.0,-0.014098683077629121,-0.807795037040663,0.0,0.0,11.845183698922686,0.007152220705174103,0.0348090854827432,-0.04750201678877303,-2.7216650803562743,0.0,0.0,0.03340333371114391,1.9138700433156113,-5.00517086068664,0.0,-13.781931005939818,11.83857598781178,0.0,-0.39559504803531603,0.0,1.0930301958776647,0.0,0.0,-0.5588827362852213,0.0,-0.07052747219138011,0.3490658503988659,1.0,0.14,0.14,0.75,0.08726646259971647,5.0,0.184,0.175,0.174,0.0,0.0,0.0,-0.0133763910966843,0.0,0.002260496982924351,0.0,6.0776002357961625,0.0,-0.521670437126544,0.0,0.13766839497921335,0.0,-3.7476142887147192,0.0,-0.02730660485545026,0.0,-0.006092558773695587,0.4128701695933692,-0.007490506227871362,0.0918290848697728,0.0,0.0,0.0,0.3927973184218262,0.0918290848697728,0.0,0.0,0.0048869620074779765,0.0,0.0,-0.003302759377511689,0.0,1.1048366322956926,0.0,4.7259195392766085,0.0,0.008231610405154693,0.0,85.93889661293152,-1.3279966607896958,0.0,-4.668126427669921,0.0,0.008231610405154693,0.0
sim_raptor_glider_3dof,raptor_glider_3dof,0.03,-14.64264395044374,0.0,-0.007152220705174103,11.831822229031184,0.0,-0.5624585334291607,0.0,0.0,0.0,-32.02162203186617,-0.5588827362852213,-0.02359113841079778,0.0,0.0,0.0,0.0,0.0,-0.014098683077629121,-0.807795037040663,0.0,0.0,11.845183698922686,0.007152220705174103,0.0348090854827432,-0.04750201678877303,-2.7216650803562743,0.0,0.0,0.03340333371114391,1.9138700433156113,-5.010736542705613,0.0,-13.763992426840758,11.83857598781178,0.0,-0.39559504803531603,0.0,1.2980534426231372,0.0,0.0,-0.5588827362852213,0.0,-0.07211852991363626,0.3490658503988659,1.0,0.14,0.14,0.75,0.08726646259971647,5.0,0.184,0.175,0.174,0.0,0.0,0.0,-0.01337316384821881,0.0,0.0023233598683791807,0.0,6.077214985565898,0.0,-0.5216887049763003,0.0,0.1376604014471785,0.0,-3.746237546606578,0.0,-0.027305583023884833,0.0,-0.006119937031367199,0.4124653823332234,-0.006569295741685273,0.09197562425157439,0.0,0.0,0.0,0.392393803550491,0.09197562425157439,0.0,0.0,0.005803625445755986,0.0,0.0,-0.003302759377511689,0.0,1.1065997128852245,0.0,4.721064672083285,0.0,0.009775640476394846,0.0,85.93889661293152,-1.3295272233449136,0.0,-4.663193318417679,0.0,0.009775640476394846,0.0
sim_raptor_glider_3dof,raptor_glider_3dof,0.031,-14.630807681455373,0.0,-0.0075513842656933765,11.826811772615665,0.0,-0.5760956766841572,0.0,0.0,0.0,-31.94501296709061,-0.5575456558680141,-0.02354334288383836,0.0,0.0,0.0,0.0,0.0,-0.014656894121160962,-0.839778173912631,0.0,0.0,11.840834553931352,0.0075513842656933765,0.03479630478101428,-0.04867251544135081,-2.788729713074731,0.0,0.0,0.03401562132018985,1.9489515391621,-5.010175077729396,0.0,-13.511566598455106,11.833984921645134,0.0,-0.40269567647331184,0.0,1.375711102894565,0.0,0.0,-0.5575456558680141,0.0,-0.07211852991363626,0.3490658503988659,1.0,0.14,0.14,0.75,0.08726646259971647,5.0,0.184,0.175,0.174,0.0,0.0,0.0,-0.013428978410818318,0.0,0.002311832554247674,0.0,6.077216984951702,0.0,-0.5218035667923951,0.0,0.13629386898132267,0.0,-3.7454989449686233,0.0,-0.02695239987880291,0.0,-0.006018246807535413,0.4074747568539931,-0.006190065440860311,0.09179949415378556,0.0,0.0,0.0,0.3874438363981245,0.09179949415378556,0.0,0.0,0.006155353789682848,0.0,0.0,-0.0032960680037373707,0.0,1.103669707341274,0.0,4.658086947759777,0.0,0.01036048031589897,0.0,85.87580057065686,-1.328993963086971,0.0,-4.59887332744349,0.0,0.01036048031589897,0.0
sim_raptor_glider_3dof,raptor_glider_3dof,0.032,-14.618975988013178,0.0,-0.007957515956016731,11.821802176973868,0.0,-0.5894827083015839,0.0,0.0,0.0,-31.864023378412778,-0.55613212088575,-0.023492273418567165,0.0,0.0,0.0,0.0,0.0,-0.015213733014860202,-0.8716826923903314,0.0,0.0,11.836490044556733,0.007957515956016731,0.03478353770183294,-0.049822764715215434,-2.8546341418551613,0.0,0.0,0.03460903170035523,1.98295144946483,-5.009015960083673,0.0,-13.26249661941225,11.829401966539336,0.0,-0.40956768540248084,0.0,1.4513586773720268,0.0,0.0,-0.55613212088575,0.0,-0.07211852991363626,0.3490658503988659,1.0,0.14,0.14,0.75,0.08726646259971647,5.0,0.184,0.175,0.174,0.0,0.0,0.0,-0.013483812496304372,0.0,0.002300378702731768,0.0,6.077212722312648,0.0,-0.5219148557082988,0.0,0.1349505232579617,0.0,-3.7447681077336727,0.0,-0.02660548932585283,0.0,-0.005919311056237363,0.4025683193488324,-0.005817644108756768,0.09162938677311218,0.0,0.0,0.0,0.3825808633434815,0.09162938677311218,0.0,0.0,0.006498592169884609,0.0,0.0,-0.0032889182785994036,0.0,1.1008163285409343,0.0,4.596246642997018,0.0,0.010930182199288735,0.0,85.8127949143899,-1.328353314972805,0.0,-4.535720148228335,0.0,0.010930182199288735,0.0
sim_raptor_glider_3dof,raptor_glider_3dof,0.033,-14.607148873394607,0.0,-0.008370407190762371,11.81679402776,0.0,-0.6026223391765041,0.0,0.0,0.0,-31.77875618508689,-0.5546439276182787,-0.023438002616981018,0.0,0.0,0.0,0.0,0.0,-0.015769121059137508,-0.9035040833194459,0.0,0.0,11.83215004883639,0.008370407190762371,0.03477078388679182,-0.05095296889257877,-2.9193900712061356,0.0,0.0,0.035183847833441265,2.0158859878866897,-5.007282029077857,0.0,-13.016766259808682,11.824827276391368,0.0,-0.41621468221298963,0.0,1.525026966396156,0.0,0.0,-0.5546439276182787,0.0,-0.07211852991363626,0.3490658503988659,1.0,0.14,0.14,0.75,0.08726646259971647,5.0,0.184,0.175,0.174,0.0,0.0,0.0,-0.013537679214549703,0.0,0.0022890038369321867,0.0,6.077202524140403,0.0,-0.522022676402631,0.0,0.1336301529221611,0.0,-3.744045165384887,0.0,-0.026264778540917365,0.0,-0.005823064084447869,0.3977454898998449,-0.005451952707797958,0.09146513109846245,0.0,0.0,0.0,0.37780424148678315,0.09146513109846245,0.0,0.0,0.0068334589460160985,0.0,0.0,-0.003281320366377343,0.0,1.098037334081636,0.0,4.5355334556980225,0.0,0.011484978083929452,0.0,85.74987780234727,-1.327611188776654,0.0,-4.473723085555049,0.0,0.011484978083929452,0.0
sim_raptor_glider_3dof,raptor_glider_3dof,0.034,-14.595326330297791,0.0,-0.008789861707442096,11.811787821156818,0.0,-0.6155174957294006,0.0,0.0,0.0,-31.68931031812506,-0.553082802737494,-0.023380600352347587,0.0,0.0,0.0,0.0,0.0,-0.01632299334692496,-0.9352386277989221,0.0,0.0,11.827814393182601,0.008789861707442096,0.034758042825773904,-0.0520633510757089,-2.9830102839460144,0.0,0.0,0.035740357728783936,2.0477716561470922,-5.004995491423061,0.0,-12.774353892570725,11.820260930896897,0.0,-0.42264032591550293,0.0,1.5967475839603948,0.0,0.0,-0.553082802737494,0.0,-0.07211852991363626,0.3490658503988659,1.0,0.14,0.14,0.75,0.08726646259971647,5.0,0.184,0.175,0.174,0.0,0.0,0.0,-0.013590592278803508,0.0,0.0022777129824919757,0.0,6.077186706342002,0.0,-0.5221271325332887,0.0,0.13233252352383681,0.0,-3.743330228311407,0.0,-0.025930189575358736,0.0,-0.0057294398272619675,0.39300558597653196,-0.005092906510201915,0.0913065568047066,0.0,0.0,0.0,0.3731132276658705,0.0913065568047066,0.0,0.0,0.007160076617499633,0.0,0.0,-0.0032732840493286623,0.0,1.095330486899537,0.0,4.475935876128114,0.0,0.012025106054805734,0.0,85.6870466474129,-1.3267732841552382,0.0,-4.412870210553925,0.0,0.012025106054805734,0.0
sim_raptor_glider_3dof,raptor_glider_3dof,0.034999999999999996,-14.583508348976865,0.0,-0.009215624877173336,11.80678418903507,0.0,-0.6281720091363869,0.0,0.0,0.0,-31.595814203282245,-0.5514509876956641,-0.023320157958280022,0.0,0.0,0.0,0.0,0.0,-0.01687526621925781,-0.9668815325231618,0.0,0.0,11.823483114527248,0.009215624877173336,0.03474531462730979,-0.053154210451345,-3.0455119222122393,0.0,0.0,0.03627894423208719,2.0786303896890774,-5.002179119925239,0.0,-12.535228494036982,11.815703159512847,0.0,-0.42884939756179097,0.0,1.6665598729063604,0.0,0.0,-0.5514509876956641,0.0,-0.07211852991363626,0.3490658503988659,1.0,0.14,0.14,0.75,0.08726646259971647,5.0,0.184,0.175,0.174,0.0,0.0,0.0,-0.013642568585501245,0.0,0.0022665100519308396,0.0,6.07716557245905,0.0,-0.5222283316176781,0.0,0.13105731088030126,0.0,-3.742623349548611,0.0,-0.025601622121981013,0.0,-0.00563836684087592,0.3883475789813772,-0.0047403969271740095,0.09115348651087672,0.0,0.0,0.0,0.3685067144290059,0.09115348651087672,0.0,0.0,0.007478602549400886,0.0,0.0,-0.0032648221141592035,0.0,1.0926935109501352,0.0,4.41743822437425,0.0,0.0125508624028578,0.0,85.62430191534705,-1.3258451305205858,0.0,-4.353145330092955,0.0,0.0125508624028578,0.0
sim_raptor_glider_3dof,raptor_glider_3dof,0.036,-14.57169492108905,0.0,-0.009647490196658542,11.801783630001058,0.0,-0.6405890337354411,0.0,0.0,0.0,-31.49837216750842,-0.5497503033415648,-0.023256749391047844,0.0,0.0,0.0,0.0,0.0,-0.017425872601673966,-0.9984289544085738,0.0,0.0,11.81915611029413,0.009647490196658542,0.03473259898996189,-0.05422578995415833,-3.1069089051361702,0.0,0.0,0.03679991735248436,2.108479950727596,-4.998854201668069,0.0,-12.299364203438634,11.811154062370681,0.0,-0.43484580536966877,0.0,1.7344962271721023,0.0,0.0,-0.5497503033415648,0.0,-0.07211852991363626,0.3490658503988659,1.0,0.14,0.14,0.75,0.08726646259971647,5.0,0.184,0.175,0.174,0.0,0.0,0.0,-0.01369362061249646,0.0,0.0022553989943374193,0.0,6.077139413516411,0.0,-0.5223263699119621,0.0,0.1298042582396986,0.0,-3.741924611582859,0.0,-0.025278993540438523,0.0,-0.0055497769380627344,0.3837706603008826,-0.004394336821472712,0.09100575479059918,0.0,0.0,0.0,0.3639838291312371,0.09100575479059918,0.0,0.0,0.007789163588976011,0.0,0.0,-0.0032559449147466983,0.0,1.0901242542406453,0.0,4.360027574084053,0.0,0.013062491086833102,0.0,85.56164205133275,-1.3248320170226662,0.0,-4.2945350694957245,0.0,0.013062491086833102,0.0
sim_raptor_glider_3dof,raptor_glider_3dof,0.037,-14.559886037916058,0.0,-0.010085247264898452,11.796786641478535,0.0,-0.6527718130767726,0.0,0.0,0.0,-31.397090625293412,-0.5479826069584153,-0.023190450201710233,0.0,0.0,0.0,0.0,0.0,-0.01797474464129301,-1.0298770057714823,0.0,0.0,11.814833308367662,0.010085247264898452,0.03471989570180629,-0.05527834035709915,-3.1672156009494734,0.0,0.0,0.037303595715806145,2.137338595177991,-4.995041557986137,0.0,-12.06673340063189,11.806613747199522,0.0,-0.4406335540482877,0.0,1.8005893265922501,0.0,0.0,-0.5479826069584153,0.0,-0.07211852991363626,0.3490658503988659,1.0,0.14,0.14,0.75,0.08726646259971647,5.0,0.184,0.175,0.174,0.0,0.0,0.0,-0.013743760348984434,0.0,0.002244383292478371,0.0,6.077108508983615,0.0,-0.5224213403430501,0.0,0.128573099813149,0.0,-3.741234084443316,0.0,-0.02496221940630073,0.0,-0.005463601391913023,0.3792739690269675,-0.004054638113156969,0.09086319883191368,0.0,0.0,0.0,0.3595436455122511,0.09086319883191368,0.0,0.0,0.008091888268794348,0.0,0.0,-0.003246663028239433,0.0,1.087620608029407,0.0,4.303690420018512,0.0,0.013560238218566237,0.0,85.4990659436578,-1.3237390363449386,0.0,-4.2370254639340965,0.0,0.013560238218566237,0.0
sim_raptor_glider_3dof,raptor_glider_3dof,0.038,-14.548081690632856,0.0,-0.010528689163491306,11.791793702261586,0.0,-0.6647235682673113,0.0,0.0,0.0,-31.29207437249728,-0.546149727579016,-0.02312133484759734,0.0,0.0,0.0,0.0,0.0,-0.018521816129955973,-1.061221893163809,0.0,0.0,11.810514643270462,0.010528689163491306,0.03470720457042658,-0.0563121109231422,-3.2264462913685903,0.0,0.0,0.03779029479318623,2.165224398204781,-4.990761411363961,0.0,-11.837307801560874,11.80208231120454,0.0,-0.4462166048668668,0.0,1.864871516349859,0.0,0.0,-0.546149727579016,0.0,-0.07211852991363626,0.3490658503988659,1.0,0.14,0.14,0.75,0.08726646259971647,5.0,0.184,0.175,0.174,0.0,0.0,0.0,-0.013792999721337148,0.0,0.002233466200153056,0.0,6.07707312848998,0.0,-0.5225133334518286,0.0,0.12736357011431207,0.0,-3.740551830851844,0.0,-0.02465121619766848,0.0,-0.005379773370354281,0.3748566330278085,-0.003721213149746939,0.09072565972002442,0.0,0.0,0.0,0.35518522705020705,0.09072565972002442,0.0,0.0,0.008386904045681692,0.0,0.0,-0.0032369868786636283,0.0,1.0851805175930513,0.0,4.248413180143315,0.0,0.01404434738963079,0.0,85.43657257824404,-1.3225710846266756,0.0,-4.180602472262626,0.0,0.01404434738963079,0.0
sim_raptor_glider_3dof,raptor_glider_3dof,0.039,-14.536281870309764,0.0,-0.010977613436588268,11.786805268516687,0.0,-0.6764474881632346,0.0,0.0,0.0,-31.18342611690047,-0.5442534577923034,-0.023049476353325934,0.0,0.0,0.0,0.0,0.0,-0.019067022916512535,-1.0924599409953901,0.0,0.0,11.806200050912873,0.010977613436588268,0.03469452540748442,-0.05732734859649517,-3.2846151252543967,0.0,0.0,0.03826032567998264,2.192155184259007,-4.986033379181843,0.0,-11.611058561799798,11.797559837135118,0.0,-0.45159886114946185,0.0,1.9273747094420153,0.0,0.0,-0.5442534577923034,0.0,-0.07211852991363626,0.3490658503988659,1.0,0.14,0.14,0.75,0.08726646259971647,5.0,0.184,0.175,0.174,0.0,0.0,0.0,-0.013841350561579362,0.0,0.002222650760273121,0.0,6.077033532118535,0.0,-0.5226024373848115,0.0,0.12617540495895474,0.0,-3.7398779069731027,0.0,-0.024345901517693586,0.0,-0.0052982279649407505,0.370517773490231,-0.0033939749717037723,0.09059298249003776,0.0,0.0,0.0,0.3509076317926601,0.09059298249003776,0.0,0.0,0.008674336861650596,0.0,0.0,-0.003226926689465631,0.0,1.0828019816852517,0.0,4.1941822495506695,0.0,0.014515058936807818,0.0,85.37416096253246,-1.3213328660214598,0.0,-4.125252032441041,0.0,0.014515058936807818,0.0
sim_raptor_glider_3dof,raptor_glider_3dof,0.04,-14.524486567948134,0.0,-0.011431821206370926,11.781821778638216,0.0,-0.6879467345894147,0.0,0.0,0.0,-31.07124688904258,-0.5422955609138382,-0.02297494660299381,0.0,0.0,0.0,0.0,0.0,-0.01961030248755956,-1.1235875675120623,0.0,0.0,11.801889473013464,0.011431821206370926,0.0346818580417099,-0.058324298421822574,-3.3417361426319614,0.0,0.0,0.038713995934263015,2.218148575119899,-4.980876500005839,0.0,-11.387956331687246,11.793046398091661,0.0,-0.4567841784511893,0.0,1.9881304499688668,0.0,0.0,-0.5422955609138382,0.0,-0.07211852991363626,0.3490658503988659,1.0,0.14,0.14,0.75,0.08726646259971647,5.0,0.184,0.175,0.174,0.0,0.0,0.0,-0.013888824625879027,0.0,0.0022119398085602773,0.0,6.076989970648265,0.0,-0.5226887379794135,0.0,0.12500834104159397,0.0,-3.739212362366592,0.0,-0.02404619394934447,0.0,-0.005218902103445142,0.36625650416119154,-0.0030728371965487926,0.09046501601158144,0.0,0.0,0.0,0.34670991134963136,0.09046501601158144,0.0,0.0,0.00895431141421896,0.0,0.0,-0.003216492524419134,0.0,1.0804830517679878,0.0,4.14098399148351,0.0,0.014972610418715537,0.0,85.3118301893521,-1.32002889887426,0.0,-4.070960052495894,0.0,0.014972610418715537,0.0
sim_raptor_glider_3dof,raptor_glider_3dof,0.04,-14.524486567948134,0.0,-0.011431821206370926,11.781821778638216,0.0,-0.6879467345894147,0.0,0.0,0.0,-31.07124688904258,-0.5422955609138382,-0.02297494660299381,0.0,0.0,0.0,0.0,0.0,-0.01961030248755956,-1.1235875675120623,0.0,0.0,11.801889473013464,0.011431821206370926,0.0346818580417099,-0.058324298421822574,-3.3417361426319614,0.0,0.0,0.038713995934263015,2.218148575119899,-4.985567483800753,0.0,-11.373022780540765,11.793046398091661,0.0,-0.4567841784511893,0.0,2.1588935937993203,0.0,0.0,-0.5422955609138382,0.0,-0.07345982366451276,0.3490658503988659,1.0,0.14,0.14,0.75,0.08726646259971647,5.0,0.184,0.175,0.174,0.0,0.0,0.0,-0.013868324191940186,0.0,0.0022648745026951,0.0,6.076635290248324,0.0,-0.5227020300399988,0.0,0.1250015592579935,0.0,-3.7379644576096545,0.0,-0.024050618142213643,0.0,-0.005242453783987837,0.36591840230657097,-0.002299725715010474,0.09059288415854437,0.0,0.0,0.0,0.3463729503218657,0.09059288415854437,0.0,0.0,0.009723409019435404,0.0,0.0,-0.003216492524419134,0.0,1.0820102649576337,0.0,4.136959444806146,0.0,0.016258627654902682,0.0,85.3118301893521,-1.3213189194178612,0.0,-4.066853325930611,0.0,0.016258627654902682,0.0
sim_raptor_glider_3dof,raptor_glider_3dof,0.041,-14.512695797094755,0.0,-0.011891117646721412,11.77683907646061,0.0,-0.699207989735425,0.0,0.0,0.0,-30.945876836099423,-0.5401074407065806,-0.022890608232408287,0.0,0.0,0.0,0.0,0.0,-0.0201514941108781,-1.1545955634360485,0.0,0.0,11.79757731255699,0.011891117646721412,0.03466918602532249,-0.05930183441411116,-3.3977448293122303,0.0,0.0,0.039150340303233055,2.243149265876182,-4.979884609727475,0.0,-11.151560437324353,11.788537104068629,0.0,-0.46176118476615996,0.0,2.2167974834920767,0.0,0.0,-0.5401074407065806,0.0,-0.07345982366451276,0.3490658503988659,1.0,0.14,0.14,0.75,0.08726646259971647,5.0,0.184,0.175,0.174,0.0,0.0,0.0,-0.0139147995171318,0.0,0.002254350536931492,0.0,6.07658563608068,0.0,-0.5227855411840392,0.0,0.12385696379008146,0.0,-3.737301704515984,0.0,-0.023756888366086106,0.0,-0.005165442308873534,0.3617400040058931,-0.0019853737565077067,0.09046999469677952,0.0,0.0,0.0,0.34226646023982477,0.09046999469677952,0.0,0.0,0.009991501526506491,0.0,0.0,-0.0032046851525371605,0.0,1.0797530450268797,0.0,4.084926211095242,0.0,0.016694701848178832,0.0,85.24949930682975,-1.3199566729096706,0.0,-4.013751757393446,0.0,0.016694701848178832,0.0
sim_raptor_glider_3dof,raptor_glider_3dof,0.042,-14.500909510070766,0.0,-0.012355273377559475,11.77186222946032,0.0,-0.7102503739256587,0.0,0.0,0.0,-30.817252958362907,-0.5378625305433957,-0.022803792833796126,0.0,0.0,0.0,0.0,0.0,-0.020690479101134432,-1.185477128598636,0.0,0.0,11.793269094829306,0.012355273377559475,0.034656525595313716,-0.06026152916122276,-3.4527312879426,0.0,0.0,0.03957105006008833,2.2672541593439637,-4.973809171151681,0.0,-10.933208018957144,11.784036948254863,0.0,-0.4665502601223424,0.0,2.2730226807014753,0.0,0.0,-0.5378625305433957,0.0,-0.07345982366451276,0.3490658503988659,1.0,0.14,0.14,0.75,0.08726646259971647,5.0,0.184,0.175,0.174,0.0,0.0,0.0,-0.013960421374248964,0.0,0.002243934961807517,0.0,6.0765325510143775,0.0,-0.5228664124505389,0.0,0.12273299059908578,0.0,-3.736647568350857,0.0,-0.023468615605141876,0.0,-0.005090529687060134,0.3576375658673643,-0.0016769581283160972,0.09035151893566286,0.0,0.0,0.0,0.3382380473456032,0.09035151893566286,0.0,0.0,0.010252405057505245,0.0,0.0,-0.003192530996731458,0.0,1.0775516171602255,0.0,4.033899586811608,0.0,0.01711813380836281,0.0,85.1872481624895,-1.3185375273995574,0.0,-3.9616817329213285,0.0,0.01711813380836281,0.0
sim_raptor_glider_3dof,raptor_glider_3dof,0.043000000000000003,-14.489127718617551,0.0,-0.012824125695992358,11.766891645505206,0.0,-0.7210759506730333,0.0,0.0,0.0,-30.685455007452358,-0.5355622223526247,-0.022714556977229745,0.0,0.0,0.0,0.0,0.0,-0.021227191507740814,-1.2162284843094913,0.0,0.0,11.788964735026534,0.012824125695992358,0.03464387650247299,-0.06120353569345079,-3.5067042865130205,0.0,0.0,0.03997634418570998,2.2904758022035296,-4.967358204199232,0.0,-10.717948190126888,11.779545969493082,0.0,-0.4711541958834003,0.0,2.3275920955083644,0.0,0.0,-0.5355622223526247,0.0,-0.07345982366451276,0.3490658503988659,1.0,0.14,0.14,0.75,0.08726646259971647,5.0,0.184,0.175,0.174,0.0,0.0,0.0,-0.014005197107853072,0.0,0.0022336310628794653,0.0,6.076476264301368,0.0,-0.5229447160229928,0.0,0.12162948048393812,0.0,-3.7360021378052974,0.0,-0.023185747255064906,0.0,-0.005017664672722641,0.35361055337066566,-0.001374422002499774,0.09023732713902956,0.0,0.0,0.0,0.3342871280849896,0.09023732713902956,0.0,0.0,0.010506206677172506,0.0,0.0,-0.0031800379768121643,0.0,1.0754042995989992,0.0,3.983870380926991,0.0,0.017529096071273495,0.0,85.12507546921344,-1.3170655218472807,0.0,-3.9106337121730705,0.0,0.017529096071273495,0.0
sim_raptor_glider_3dof,raptor_glider_3dof,0.044,-14.477350414638074,0.0,-0.013297512551411896,11.761927649240148,0.0,-0.731687437764487,0.0,0.0,0.0,-30.550566068315053,-0.5332079662401565,-0.022622959831393265,0.0,0.0,0.0,0.0,0.0,-0.021761583040805024,-1.2468468637615961,0.0,0.0,11.78466412472338,0.013297512551411896,0.034631238428174144,-0.06212806307704151,-3.5596758036370413,0.0,0.0,0.04036648003623648,2.3128289398754447,-4.960548383584877,0.0,-10.505753058262595,11.775064151937787,0.0,-0.47557622973804864,0.0,2.3805328087187334,0.0,0.0,-0.5332079662401565,0.0,-0.07345982366451276,0.3490658503988659,1.0,0.14,0.14,0.75,0.08726646259971647,5.0,0.184,0.175,0.174,0.0,0.0,0.0,-0.014049136740974005,0.0,0.0022234413313222804,0.0,6.076416994487511,0.0,-0.5230205270545462,0.0,0.12054620756021299,0.0,-3.735365457020841,0.0,-0.022908214198377824,0.0,-0.004946793004579126,0.3496581805383936,-0.0010776905344396792,0.09012728559569233,0.0,0.0,0.0,0.3304128652764815,0.09012728559569233,0.0,0.0,0.010753012642126221,0.0,0.0,-0.0031672143763950573,0.0,1.0733093638532993,0.0,3.934826394636212,0.0,0.017927792582460782,0.0,85.0629796007239,-1.3155445044130885,0.0,-3.8605950840990184,0.0,0.017927792582460782,0.0
