name,vehicle,t,north,east,down,u,v,w,p_rad,p_deg,p_hat_div_b,q_deg,q_rad,q_hat_div_c,r_rad,r_deg,r_hat_div_b,phi_rad,phi_deg,theta_rad,theta_deg,psi_rad,psi_deg,speed,altitude,mach,alpha_rad,alpha_deg,beta_rad,beta_deg,gamma_rad,gamma_deg,u_dot,v_dot,w_dot,north_dot,east_dot,down_dot,p_rad_dot,q_rad_dot,r_rad_dot,phi_rad_dot,theta_rad_dot,psi_rad_dot,del_tail_alt_rad,del_tail_splay_rad,DIM_b,DIM_c_bar,DIM_S,DIM_wing_position,DIM_wing_incidence_rad,DIM_wing_incidence_deg,DIM_empennage_length,DIM_nose_length,DIM_tail_length,CDp,CDq,CDr,CYp,CYq,CYr,CLp,CLq,CLr,Clp,Clq,Clr,Cmp,Cmq,Cmr,Cnp,Cnq,Cnr,CL_0,Cm_0,CD_0,Cl_0,CY_0,Cn_0,CL,CD,CY,Cl,Cm,Cn,p_hat,q_hat,r_hat,drag_force_wind,side_force_wind,lift_force_wind,roll_moment_wind,pitch_moment_wind,yaw_moment_wind,qbar,X_total,Y_total,Z_total,L_total,M_total,N_total
sim_raptor_glider_3dof,raptor_glider_3dof,0.0,-15.0,0.0,0.0,12.0,0.0,0.0,0.0,0.0,0.0,0.0,0.0,0.0,0.0,0.0,0.0,0.0,0.0,0.0,0.0,0.0,0.0,12.0,-0.0,0.035264039495724236,0.0,0.0,0.0,0.0,0.0,0.0,-6.709006315681766,0.0,-22.0769320829039,12.0,0.0,0.0,0.0,-56.74455885247145,0.0,0.0,0.0,0.0,0.27641221525607884,0.3490658503988659,1.0,0.14,0.14,0.75,0.08726646259971647,5.0,0.184,0.175,0.174,0.0,0.0,0.0,-0.004168848993137214,0.0,0.02177625484833277,0.0,6.063839959755836,0.0,-0.5153458675088454,0.0,0.19484490572137586,0.0,-3.656346679832911,0.0,-0.045602005619904094,0.0,-0.018202483603438895,0.7100731666891135,-0.24720208837907676,0.1494149982121308,0.0,0.0,0.0,0.7100731666891135,0.1494149982121308,0.0,0.0,-0.24720208837907676,0.0,0.0,0.0,0.0,1.8449767368124856,0.0,8.767985072798574,0.0,-0.4273432727179625,0.0,88.20001620075907,-1.8449767368124856,0.0,-8.767985072798574,0.0,-0.4273432727179625,0.0
sim_raptor_glider_3dof,raptor_glider_3dof,0.001,-14.988003358243457,0.0,-0.000010960057451722335,11.993279178759154,0.0,-0.022179993603145265,0.0,0.0,0.0,-3.237554455243493,-0.05650598495661034,-0.0023557313844183047,0.0,0.0,0.0,0.0,0.0,-0.000028293058516598812,-0.0016210728425177815,0.0,0.0,11.99329968823318,0.000010960057451722335,0.035244349490826,-0.0018493664648508445,-0.1059608932089825,0.0,0.0,0.0018210734063342456,0.1043398203664647,-6.73279577475164,0.0,-22.281422773919907,11.993279801498717,0.0,-0.021840667044702486,0.0,-56.267776304834406,0.0,0.0,-0.05650598495661034,0.0,0.27641221525607884,0.3490658503988659,1.0,0.14,0.14,0.75,0.08726646259971647,5.0,0.184,0.175,0.174,0.0,0.0,0.0,-0.0042349998129899875,0.0,0.021731482588786863,0.0,6.065039055344113,0.0,-0.5156220683916142,0.0,0.19272966241727468,0.0,-3.657717292367599,0.0,-0.045044446001067565,0.0,-0.01796502672839416,0.7025930667592695,-0.2466053211574576,0.14879524048877146,0.0,0.0,0.0,0.7005928023602139,0.14879524048877146,0.0,0.0,-0.2453989972385232,0.0,0.0,-0.0003298023938185627,0.0,1.835272765952999,0.0,8.641263564417716,0.0,-0.42375262335170794,0.0,88.10154909738404,-1.8512504814344826,0.0,-8.63785469721334,0.0,-0.42375262335170794,0.0
sim_raptor_glider_3dof,raptor_glider_3dof,0.002,-14.976013447196022,0.0,-0.000043523480275459346,11.986534100396433,0.0,-0.04455965105548482,0.0,0.0,0.0,-6.447853773320593,-0.11253627803158445,-0.004694246872882364,0.0,0.0,0.0,0.0,0.0,-0.00011285375764175975,-0.0064660440150650965,0.0,0.0,11.986616924823648,0.000043523480275459346,0.03522471105475814,-0.0037174587264385763,-0.2129946955390085,0.0,0.0,0.0036046049687968166,0.2065286515239434,-6.757512862850036,0.0,-22.47630293739067,11.98653905279041,0.0,-0.04320692536027017,0.0,-55.793173846403896,0.0,0.0,-0.11253627803158445,0.0,0.27641221525607884,0.3490658503988659,1.0,0.14,0.14,0.75,0.08726646259971647,5.0,0.184,0.175,0.174,0.0,0.0,0.0,-0.004302088370251323,0.0,0.021689461606752655,0.0,6.0662331451973595,0.0,-0.515897707962094,0.0,0.19059286430097483,0.0,-3.659088594681498,0.0,-0.04448239230634714,0.0,-0.017727854411770622,0.6950074804405413,-0.24600525735191478,0.1481764851336183,0.0,0.0,0.0,0.6910207850044587,0.1481764851336183,0.0,0.0,-0.24360052422486914,0.0,0.0,-0.0006571945622035309,0.0,1.8256047181262587,0.0,8.513704480774154,0.0,-0.4201783922372678,0.0,88.00339466240531,-1.857241375789221,0.0,-8.506859058715817,0.0,-0.4201783922372678,0.0
sim_raptor_glider_3dof,raptor_glider_3dof,0.003,-14.96403028605406,0.0,-0.00009721484905647349,11.979763857642569,0.0,-0.06712946015535629,0.0,0.0,0.0,-9.631023014989195,-0.16809306194691262,-0.007015598343362346,0.0,0.0,0.0,0.0,0.0,-0.0002532078008541336,-0.014507738328730896,0.0,0.0,11.97995193852212,0.00009721484905647349,0.03520512485974351,-0.005603512585421149,-0.321057621593072,0.0,0.0,0.005350304784567015,0.30654988326434107,-6.78311737734462,0.0,-22.661759326362148,11.979780471308937,0.0,-0.06409608837464896,0.0,-55.32075908506185,0.0,0.0,-0.16809306194691262,0.0,0.27641221525607884,0.3490658503988659,1.0,0.14,0.14,0.75,0.08726646259971647,5.0,0.184,0.175,0.174,0.0,0.0,0.0,-0.004370076794825368,0.0,0.02165006529942285,0.0,6.067421352169978,0.0,-0.516172528474263,0.0,0.18843526728809287,0.0,-3.6604597279273228,0.0,-0.04391599813711417,0.0,-0.01749112528765096,0.6873194951006261,-0.24540197333218405,0.14755920816284077,0.0,0.0,0.0,0.681360172334479,0.14755920816284077,0.0,0.0,-0.24180672920373725,0.0,0.0,-0.0009821837680707285,0.0,1.8159783894264971,0.0,8.385348252952477,0.0,-0.4166206366696008,0.0,87.90555582186818,-1.8629370378008434,0.0,-8.375040801533268,0.0,-0.4166206366696008,0.0
sim_raptor_glider_3dof,raptor_glider_3dof,0.004,-14.952053891319698,0.0,-0.00017155579452255462,11.972967583284754,0.0,-0.08988009028364852,0.0,0.0,0.0,-12.787187622519717,-0.22317852608323485,-0.00931983805664651,0.0,0.0,0.0,0.0,0.0,-0.0004488827678109488,-0.02571908809171825,0.0,0.0,11.973304939782373,0.00017155579452255462,0.03518559152423631,-0.007506777359354603,-0.4301066604353797,0.0,0.0,0.007057894591543655,0.40438757234366146,-6.8095686024463316,0.0,-22.837979277025255,11.973006722656141,0.0,-0.08450562258121384,0.0,-54.85053450433365,0.0,0.0,-0.22317852608323485,0.0,0.27641221525607884,0.3490658503988659,1.0,0.14,0.14,0.75,0.08726646259971647,5.0,0.184,0.175,0.174,0.0,0.0,0.0,-0.00443892630946344,0.0,0.021613149032579427,0.0,6.068602837664192,0.0,-0.5164462761708839,0.0,0.18625760561653548,0.0,-3.661829866242419,0.0,-0.04334540527527971,0.0,-0.017254991621213828,0.6795322292065227,-0.24479552336216417,0.1469438717686641,0.0,0.0,0.0,0.6716140538117237,0.1469438717686641,0.0,0.0,-0.24001765077395223,0.0,0.0,-0.0013047773279305118,0.0,1.8063993736143658,0.0,8.256235469459156,0.0,-0.41307937535213674,0.0,87.8080352271321,-1.8683256164154234,0.0,-8.242442733510241,0.0,-0.41307937535213674,0.0
sim_raptor_glider_3dof,raptor_glider_3dof,0.005,-14.940084276819213,0.0,-0.00026606545529493636,11.966144451565864,0.0,-0.11280240082573216,0.0,0.0,0.0,-15.916473043993149,-0.2777948599226047,-0.011607018401861173,0.0,0.0,0.0,0.0,0.0,-0.0006994084573043374,-0.040073152759294364,0.0,0.0,11.966676122356306,0.00026606545529493636,0.03516611161760941,-0.009426516626544304,-0.540099618210887,0.0,0.0,0.008727108169239967,0.5000264654515927,-6.8368254438852105,0.0,-23.005150398756655,11.966220419760148,0.0,-0.10443315128741583,0.0,-54.382497625849886,0.0,0.0,-0.2777948599226047,0.0,0.27641221525607884,0.3490658503988659,1.0,0.14,0.14,0.75,0.08726646259971647,5.0,0.184,0.175,0.174,0.0,0.0,0.0,-0.0045085973062754196,0.0,0.02157855077125447,0.0,6.069776801781357,0.0,-0.5167187015165153,0.0,0.18406059130514632,0.0,-3.6631982170426087,0.0,-0.04277074375896446,0.0,-0.017019599263331416,0.6716488267519853,-0.24418594004014496,0.14633092409361778,0.0,0.0,0.0,0.6617855452073,0.14633092409361778,0.0,0.0,-0.23823330676406196,0.0,0.0,-0.0016249825762605645,0.0,1.7968730611168253,0.0,8.126406812402362,0.0,-0.4095545896202755,0.0,87.71083527904601,-1.8733958017878192,0.0,-8.109107759073785,0.0,-0.4095545896202755,0.0
sim_raptor_glider_3dof,raptor_glider_3dof,0.006,-14.92812145382276,0.0,-0.00038026070120269264,11.959293677538017,0.0,-0.13588743685549592,0.0,0.0,0.0,-19.019004440879748,-0.3319442479447748,-0.013877191701974155,0.0,0.0,0.0,0.0,0.0,-0.001004316832345326,-0.057543115787335064,0.0,0.0,11.960065662909043,0.00038026070120269264,0.03514668565902331,-0.011362007907487377,-0.6509950998932946,0.0,0.0,0.010357691075142051,0.5934519841059596,-6.86484654171148,0.0,-23.163460464089052,11.959424120171185,0.0,-0.12387645039974161,0.0,-53.9166412302177,0.0,0.0,-0.3319442479447748,0.0,0.27641221525607884,0.3490658503988659,1.0,0.14,0.14,0.75,0.08726646259971647,5.0,0.184,0.175,0.174,0.0,0.0,0.0,-0.004579049387388361,0.0,0.02154609176352332,0.0,6.070942482741328,0.0,-0.5169895592695695,0.0,0.18184491483745055,0.0,-3.6645640204953938,0.0,-0.042192132290526305,0.0,-0.016785087748279474,0.6636724558690216,-0.24357323510945328,0.14572079937725327,0.0,0.0,0.0,0.6518777872987691,0.14572079937725327,0.0,0.0,-0.23645369507113323,0.0,0.0,-0.0019428068382763817,0.0,1.7874046420010778,0.0,7.995903042082076,0.0,-0.4060462251047695,0.0,87.61395812303198,-1.878136829439079,0.0,-7.975078862464554,0.0,-0.4060462251047695,0.0
sim_raptor_glider_3dof,raptor_glider_3dof,0.007,-14.916165431079857,0.0,-0.0005136562623265502,11.952414517573397,0.0,-0.1591264306485729,0.0,0.0,0.0,-22.094906428732557,-0.38562886510144495,-0.016130410041142275,0.0,0.0,0.0,0.0,0.0,-0.0013631420291492118,-0.07810228514714888,0.0,0.0,11.953473721928294,0.0005136562623265502,0.035127314120098424,-0.013312542831701343,-0.7627525188436247,0.0,0.0,0.011949400802552131,0.6846502336964758,-6.893590386476269,0.0,-23.3130972148464,11.952620324706986,0.0,-0.1428334492747698,0.0,-53.452953556436434,0.0,0.0,-0.38562886510144495,0.0,0.27641221525607884,0.3490658503988659,1.0,0.14,0.14,0.75,0.08726646259971647,5.0,0.184,0.175,0.174,0.0,0.0,0.0,-0.004650241425178673,0.0,0.021515577240405367,0.0,6.072099156552787,0.0,-0.5172586086194629,0.0,0.17961124529820513,0.0,-3.665926549303809,0.0,-0.04160967851007712,0.0,-0.01655159033906821,0.6556063053386003,-0.24295740013972464,0.14511391796601067,0.0,0.0,0.0,0.6418939424498065,0.14511391796601067,0.0,0.0,-0.2346787943607874,0.0,0.0,-0.0022582574057599188,0.0,1.777999107639741,0.0,7.864764957572361,0.0,-0.4025541932335228,0.0,87.5174056631343,-1.8825384859209078,0.0,-7.840399065969315,0.0,-0.4025541932335228,0.0
sim_raptor_glider_3dof,raptor_glider_3dof,0.008,-14.904216214859098,0.0,-0.0006657648644314449,11.945506269700763,0.0,-0.18251080268318515,0.0,0.0,0.0,-25.14430282955984,-0.4388508724943458,-0.018366725098712566,0.0,0.0,0.0,0.0,0.0,-0.0017754203589593468,-0.10172409342997221,0.0,0.0,11.946900444573744,0.0006657648644314449,0.03510799742741116,-0.015277427261316003,-0.8753321038915148,0.0,0.0,0.013502006902356657,0.7736080104615427,-6.923015428996642,0.0,-23.4542481739155,11.945811476110903,0.0,-0.1613022311480521,0.0,-52.99141850694537,0.0,0.0,-0.4388508724943458,0.0,0.27641221525607884,0.3490658503988659,1.0,0.14,0.14,0.75,0.08726646259971647,5.0,0.184,0.175,0.174,0.0,0.0,0.0,-0.00472213162277694,0.0,0.021486797139680335,0.0,6.0732461366004475,0.0,-0.5175256133105138,0.0,0.1773602305656464,0.0,-3.66728510841579,0.0,-0.04102347929168431,0.0,-0.01631923408692865,0.6474535811645471,-0.24233840724438793,0.1445106863603204,0.0,0.0,0.0,0.6318371912498609,0.1445106863603204,0.0,0.0,-0.23290856480210542,0.0,0.0,-0.0025713415138197593,0.0,1.7686612527965533,0.0,7.733033358190998,0.0,-0.3990783727758056,0.0,87.42117957514151,-1.8865911132518431,0.0,-7.70511138903506,0.0,-0.3990783727758056,0.0
sim_raptor_glider_3dof,raptor_glider_3dof,0.009000000000000001,-14.892273809016999,0.0,-0.0008360973957430554,11.938568273476653,0.0,-0.20603216077863037,0.0,0.0,0.0,-28.16731641959718,-0.49161241297303143,-0.020586187978679386,0.0,0.0,0.0,0.0,0.0,-0.002240690285238662,-0.12838209654013993,0.0,0.0,11.940345961141093,0.0008360973957430554,0.035088735963857566,-0.017255981258751843,-0.9886948974833264,0.0,0.0,0.01501529097351318,0.8603128009431864,-6.953080181506263,0.0,-23.58710048054652,11.938999957421183,0.0,-0.17928103200114776,0.0,-52.53201586386291,0.0,0.0,-0.49161241297303143,0.0,0.27641221525607884,0.3490658503988659,1.0,0.14,0.14,0.75,0.08726646259971647,5.0,0.184,0.175,0.174,0.0,0.0,0.0,-0.0047946775703725875,0.0,0.021459526850814554,0.0,6.074382773091076,0.0,-0.5177903417378309,0.0,0.1750924976869791,0.0,-3.668639034587081,0.0,-0.04043362109392825,0.0,-0.016088139917075958,0.6392175037011347,-0.2417162098654027,0.14391149733071862,0.0,0.0,0.0,0.6217107297141521,0.14391149733071862,0.0,0.0,-0.23114294887453243,0.0,0.0,-0.002882066317015114,0.0,1.759395678421874,0.0,7.60074901155312,0.0,-0.3956186114707516,0.0,87.32528131402576,-1.8902856117184608,0.0,-7.569258814177611,0.0,-0.3956186114707516,0.0
sim_raptor_glider_3dof,raptor_glider_3dof,0.01,-14.88033821505881,0.0,-0.0010241630600056073,11.93159990987548,0.0,-0.22968229962606423,0.0,0.0,0.0,-31.16406869815147,-0.5439156071004461,-0.022788849052933973,0.0,0.0,0.0,0.0,0.0,-0.002758492403108321,-0.15804997251700698,0.0,0.0,11.933810387638228,0.0010241630600056073,0.03506953007034655,-0.01924753908649718,-1.1028027556693762,0.0,0.0,0.016489046683388856,0.9447527831523692,-6.983743313725281,0.0,-23.71184072136586,11.932188090535105,0.0,-0.19676823980077582,0.0,-52.07472150427881,0.0,0.0,-0.5439156071004461,0.0,0.27641221525607884,0.3490658503988659,1.0,0.14,0.14,0.75,0.08726646259971647,5.0,0.184,0.175,0.174,0.0,0.0,0.0,-0.004867836303861355,0.0,0.021433527974001054,0.0,6.075508452477112,0.0,-0.5180525670417138,0.0,0.17280865322043565,0.0,-3.6699876959346986,0.0,-0.039840180306910014,0.0,-0.015858422717103166,0.6309013045779396,-0.24109074356184387,0.14331673004173087,0.0,0.0,0.0,0.611517766271874,0.14331673004173087,0.0,0.0,-0.22938187217381456,0.0,0.0,-0.003190438867410756,0.0,1.7502067945528677,0.0,7.467952619398881,0.0,-0.39217472764872374,0.0,87.22971212299416,-1.8936134419129778,0.0,-7.432884250537749,0.0,-0.39217472764872374,0.0
sim_raptor_glider_3dof,raptor_glider_3dof,0.01,-14.88033821505881,0.0,-0.0010241630600056073,11.93159990987548,0.0,-0.22968229962606423,0.0,0.0,0.0,-31.16406869815147,-0.5439156071004461,-0.022788849052933973,0.0,0.0,0.0,0.0,0.0,-0.002758492403108321,-0.15804997251700698,0.0,0.0,11.933810387638228,0.0010241630600056073,0.03506953007034655,-0.01924753908649718,-1.1028027556693762,0.0,0.0,0.016489046683388856,0.9447527831523692,-4.857028541819648,0.0,-19.318994908656123,11.932188090535105,0.0,-0.19676823980077582,0.0,-0.5184858511727948,0.0,0.0,-0.5439156071004461,0.0,-0.07471453889463936,0.3490658503988659,1.0,0.14,0.14,0.75,0.08726646259971647,5.0,0.184,0.175,0.174,0.0,0.0,0.0,-0.01196779891991688,0.0,0.002655384494471406,0.0,6.074717764932174,0.0,-0.518434753086983,0.0,0.17048040927059288,0.0,-3.760586036105807,0.0,-0.03589786822594258,0.0,-0.008915929684311277,0.5310749154724703,-0.014281777583690189,0.09733894829613021,0.0,0.0,0.0,0.5116938998066801,0.09733894829613021,0.0,0.0,-0.0022838577298560734,0.0,0.0,-0.003190438867410756,0.0,1.1887187813517033,0.0,6.24888762053205,0.0,-0.0039047169451823177,0.0,87.22971212299416,-1.3087668796389287,0.0,-6.224851652042574,0.0,-0.0039047169451823177,0.0
sim_raptor_glider_3dof,raptor_glider_3dof,0.011,-14.868408376480762,0.0,-0.0012272937415597125,11.926734341145155,0.0,-0.24884050683246686,0.0,0.0,0.0,-31.190229648585603,-0.5443722018209727,-0.0228165455638154,0.0,0.0,0.0,0.0,0.0,-0.0033026436998301926,-0.18922754523574115,0.0,0.0,11.929329974566542,0.0012272937415597125,0.03505636361505346,-0.0208610673736713,-1.1952511166494262,0.0,0.0,0.017558423673841108,1.006023571413685,-4.873958312813137,0.0,-18.99797577545033,11.92749112608092,0.0,-0.2094494673009615,0.0,-0.3950934602884003,0.0,0.0,-0.5443722018209727,0.0,-0.07471453889463936,0.3490658503988659,1.0,0.14,0.14,0.75,0.08726646259971647,5.0,0.184,0.175,0.174,0.0,0.0,0.0,-0.012046060959563683,0.0,0.002644446558968361,0.0,6.074925063441753,0.0,-0.5186480726398052,0.0,0.16861366422050025,0.0,-3.7597164989979306,0.0,-0.03540445591809766,0.0,-0.008743811523355042,0.5243494221908535,-0.013751362993228673,0.097002255781416,0.0,0.0,0.0,0.5049441895599038,0.097002255781416,0.0,0.0,-0.001741639000330598,0.0,0.0,-0.0031943163789341566,0.0,1.1837177111507786,0.0,6.1618296967403685,0.0,-0.002975448849431943,0.0,87.16422561628414,-1.3119931742959976,0.0,-6.135797156191219,0.0,-0.002975448849431943,0.0
sim_raptor_glider_3dof,raptor_glider_3dof,0.012,-14.85648323391527,0.0,-0.0014429486593274122,11.92185242303813,0.0,-0.2676794542385636,0.0,0.0,0.0,-31.209400097928437,-0.544706789281092,-0.02283913272518824,0.0,0.0,0.0,0.0,0.0,-0.0038471924451691534,-0.22042789008280786,0.0,0.0,11.924857126478354,0.0014429486593274122,0.035043219390750106,-0.02244906886864766,-1.2862369001720368,0.0,0.0,0.018601876423478506,1.0658090100892288,-4.889698199386135,0.0,-18.680454366895137,11.922794007969237,0.0,-0.22181192586164666,0.0,-0.2745078007315904,0.0,0.0,-0.544706789281092,0.0,-0.07471453889463936,0.3490658503988659,1.0,0.14,0.14,0.75,0.08726646259971647,5.0,0.184,0.175,0.174,0.0,0.0,0.0,-0.012122932492799337,0.0,0.0026333982429134735,0.0,6.075117092747797,0.0,-0.5188548845964678,0.0,0.16677541911696458,0.0,-3.7588512141231587,0.0,-0.03491929098527527,0.0,-0.008576136239627701,0.5177175629510171,-0.013229831140343385,0.09667592741595105,0.0,0.0,0.0,0.4982925061666914,0.09667592741595105,0.0,0.0,-0.0012109848920402542,0.0,0.0,-0.003197478581526354,0.0,1.1788510217488755,0.0,6.076100283962643,0.0,-0.0020673182473096075,0.0,87.09887420923853,-1.3149453240098046,0.0,-6.048107405388402,0.0,-0.0020673182473096075,0.0
sim_raptor_glider_3dof,raptor_glider_3dof,0.013000000000000001,-14.844562788263236,0.0,-0.001670815921473142,11.916955317153128,0.0,-0.2862025593875261,0.0,0.0,0.0,-31.221737175574336,-0.5449221119060871,-0.02285672023693972,0.0,0.0,0.0,0.0,0.0,-0.0043920187070601345,-0.2516441354570504,0.0,0.0,11.920391601622162,0.001670815921473142,0.03503009668700861,-0.02401180038996616,-1.3757748208556453,0.0,0.0,0.019619781682906026,1.1241306853985948,-4.90428473063429,0.0,-18.366450013514864,11.91809738228039,0.0,-0.23386047657851167,0.0,-0.1566841433406144,0.0,0.0,-0.5449221119060871,0.0,-0.07471453889463936,0.3490658503988659,1.0,0.14,0.14,0.75,0.08726646259971647,5.0,0.184,0.175,0.174,0.0,0.0,0.0,-0.012198440260162959,0.0,0.0026222534739370187,0.0,6.075294461905215,0.0,-0.5190553775251794,0.0,0.16496543524322177,0.0,-3.75799049225202,0.0,-0.03444226650642854,0.0,-0.008412804602044412,0.5111793616788303,-0.012717073713237917,0.09635970411834546,0.0,0.0,0.0,0.49173877885663875,0.09635970411834546,0.0,0.0,-0.0006917264864101848,0.0,0.0,-0.003199940833171561,0.0,1.1741152040256095,0.0,5.9916952002620985,0.0,-0.001179988283498167,0.0,87.03365424733411,-1.3176343068134497,0.0,-5.961778066875369,0.0,-0.001179988283498167,0.0
sim_raptor_glider_3dof,raptor_glider_3dof,0.014,-14.832647038710782,0.0,-0.0019105720132724735,11.912044204575945,0.0,-0.3044134784581949,0.0,0.0,0.0,-31.22740394722835,-0.5450210157294083,-0.022869422196913382,0.0,0.0,0.0,0.0,0.0,-0.004936999971670853,-0.28286926183294686,0.0,0.0,11.915933228146187,0.0019105720132724735,0.035016994998813326,-0.02554953894668541,-1.463880750150197,0.0,0.0,0.02061253897501456,1.18101148831725,-4.917754252957269,0.0,-18.055976598837134,11.913401916203696,0.0,-0.24560024558715424,0.0,-0.041576096810183906,0.0,0.0,-0.5450210157294083,0.0,-0.07471453889463936,0.3490658503988659,1.0,0.14,0.14,0.75,0.08726646259971647,5.0,0.184,0.175,0.174,0.0,0.0,0.0,-0.012272611094294597,0.0,0.0026110254257050093,0.0,6.075457764681509,0.0,-0.5192497376030234,0.0,0.1631834481508475,0.0,-3.7571346198080877,0.0,-0.03397327072516059,0.0,-0.008253716767317875,0.5047346925088974,-0.01221297652233909,0.09605332684455106,0.0,0.0,0.0,0.485282783296495,0.09605332684455106,0.0,0.0,-0.00018368682039477703,0.0,0.0,-0.003201719107567874,0.0,1.1695067743554404,0.0,5.908608490591908,0.0,-0.000313109585077495,0.0,86.96856310186678,-1.3200708795503133,0.0,-5.8768029797944825,0.0,-0.000313109585077495,0.0
sim_raptor_glider_3dof,raptor_glider_3dof,0.015,-14.820735983803145,0.0,-0.0021619155319712855,11.907120166026653,0.0,-0.32231569441684405,0.0,0.0,0.0,-31.226552241326925,-0.5450061506571697,-0.02287734477508688,0.0,0.0,0.0,0.0,0.0,-0.005482023052839232,-0.3140967841211111,0.0,0.0,11.911481774114671,0.0021619155319712855,0.035003913644581594,-0.027062547456231927,-1.5505697521145914,0.0,0.0,0.021580524403392694,1.2364729679934803,-4.930142095409068,0.0,-17.749045575004345,11.908708179870299,0.0,-0.257036070924353,0.0,0.07086039753403608,0.0,0.0,-0.5450061506571697,0.0,-0.07471453889463936,0.3490658503988659,1.0,0.14,0.14,0.75,0.08726646259971647,5.0,0.184,0.175,0.174,0.0,0.0,0.0,-0.012345470304367797,0.0,0.002599726779283,0.0,6.075607575908991,0.0,-0.5194381443034497,0.0,0.16142920743455333,0.0,-3.756283877902165,0.0,-0.033512197466451746,0.0,-0.00809877588671962,0.4983834262636338,-0.011717430737329917,0.09575654359157768,0.0,0.0,0.0,0.47892429857112584,0.09575654359157768,0.0,0.0,0.0003133014513716278,0.0,0.0,-0.003202828268512163,0.0,1.1650223340531598,0.0,5.826834211308991,0.0,0.0005336496538288258,0.0,86.9035972713581,-1.322265469689336,0.0,-5.793175984949083,0.0,0.0005336496538288258,0.0
sim_raptor_glider_3dof,raptor_glider_3dof,0.016,-14.808829621550307,0.0,-0.002424544804201842,11.902184266959251,0.0,-0.3399127535952476,0.0,0.0,0.0,-31.21933395044318,-0.5448801677148817,-0.022880594307954614,0.0,0.0,0.0,0.0,0.0,-0.006026975414679986,-0.34532025449027237,0.0,0.0,11.907037037177176,0.002424544804201842,0.03499085202967227,-0.028551094428921717,-1.6358572112566918,0.0,0.0,0.02252411901424173,1.2905369567664193,-4.941483057547708,0.0,-17.44566479226434,11.904016730974641,0.0,-0.26817284237007943,0.0,0.1806694907593377,0.0,0.0,-0.5448801677148817,0.0,-0.07471453889463936,0.3490658503988659,1.0,0.14,0.14,0.75,0.08726646259971647,5.0,0.184,0.175,0.174,0.0,0.0,0.0,-0.012417042668027796,0.0,0.002588369602005854,0.0,6.07574445408219,0.0,-0.5196207730379367,0.0,0.1597024540101644,0.0,-3.7554385317394963,0.0,-0.03305894007723815,0.0,-0.00794788605276547,0.4921253511445649,-0.011230326411991627,0.09546910542449953,0.0,0.0,0.0,0.4726630209883925,0.09546910542449953,0.0,0.0,0.0007994067570552751,0.0,0.0,-0.003203283203113646,0.0,1.16065853834954,0.0,5.746365472190571,0.0,0.0013606219349085722,0.0,86.83875369110386,-1.324228240496918,0.0,-5.710889943756411,0.0,0.0013606219349085722,0.0
sim_raptor_glider_3dof,raptor_glider_3dof,0.017,-14.796927949403646,0.0,-0.0026981631608013583,11.897237537453123,0.0,-0.35720820886740645,0.0,0.0,0.0,-31.205898384337285,-0.5446456728494645,-0.02287927539926584,0.0,0.0,0.0,0.0,0.0,-0.006571747221010371,-0.3765333797907217,0.0,0.0,11.902598822402858,0.0026981631608013583,0.03497780958124793,-0.0300154492533747,-1.7197585624074683,0.0,0.0,0.02344370203236433,1.3432251826167465,-4.951811274803889,0.0,-17.145838962919957,11.899328095410873,0.0,-0.2790154204185781,0.0,0.28789485861334074,0.0,0.0,-0.5446456728494645,0.0,-0.07471453889463936,0.3490658503988659,1.0,0.14,0.14,0.75,0.08726646259971647,5.0,0.184,0.175,0.174,0.0,0.0,0.0,-0.012487352242240023,0.0,0.00257696539843575,0.0,6.0758689411219065,0.0,-0.5197977946497916,0.0,0.15800292564484542,0.0,-3.754598833416206,0.0,-0.03261339281859373,0.0,-0.007800952803092797,0.4859601953247747,-0.010751554017467206,0.09519076746265201,0.0,0.0,0.0,0.4664985882936464,0.09519076746265201,0.0,0.0,0.0012747960838216214,0.0,0.0,-0.0032030985558972177,0.0,1.1564121037398385,0.0,5.667194710789349,0.0,0.0021681361802170693,0.0,86.77402940915877,-1.3259690758977063,0.0,-5.629937020379336,0.0,0.0021681361802170693,0.0
sim_raptor_glider_3dof,raptor_glider_3dof,0.018000000000000002,-14.785030964271428,0.0,-0.0029824790747634026,11.89228097168293,0.0,-0.3742056167522313,0.0,0.0,0.0,-31.186392210687337,-0.5443052258948071,-0.022873490874659407,0.0,0.0,0.0,0.0,0.0,-0.0071162313793163645,-0.4077300240733881,0.0,0.0,11.898166940880465,0.0029824790747634026,0.03496478574416076,-0.03145588196610047,-1.802289277519235,0.0,0.0,0.024339650586784105,1.3945592534458469,-4.961160202081262,0.0,-16.849569824290914,11.894642767222349,0.0,-0.2895686330144739,0.0,0.3925796858461818,0.0,0.0,-0.5443052258948071,0.0,-0.07471453889463936,0.3490658503988659,1.0,0.14,0.14,0.75,0.08726646259971647,5.0,0.184,0.175,0.174,0.0,0.0,0.0,-0.012556422389670793,0.0,0.0025655251294633705,0.0,6.075981562671143,0.0,-0.5199693754884092,0.0,0.156330357293858,0.0,-3.753765022265651,0.0,-0.03217545088974213,0.0,-0.007657883150167257,0.47988763068978707,-0.010281004503313743,0.09492128894343746,0.0,0.0,0.0,0.46043058345381704,0.09492128894343746,0.0,0.0,0.0017396348942235254,0.0,0.0,-0.0032022887224523178,0.0,1.1522798081980365,0.0,5.589313738742213,0.0,0.002956517614107595,0.0,86.70942156571333,-1.3274975809632488,0.0,-5.550308730062687,0.0,0.002956517614107595,0.0
sim_raptor_glider_3dof,raptor_glider_3dof,0.019000000000000003,-14.773138662614965,0.0,-0.003277205543611891,11.88731553276595,0.0,-0.39090853359804684,0.0,0.0,0.0,-31.160959785590986,-0.543861346340109,-0.02286334201202093,0.0,0.0,0.0,0.0,0.0,-0.007660323179845601,-0.43890418791138724,0.0,0.0,11.893741213645871,0.003277205543611891,0.034951779992494256,-0.032872662929051645,-1.883464847190818,0.0,0.0,0.025212339749206045,1.444560659279431,-4.969562609375032,0.0,-16.556856405417378,11.88996121377235,0.0,-0.2998372761474234,0.0,0.4947666768628422,0.0,0.0,-0.543861346340109,0.0,-0.07471453889463936,0.3490658503988659,1.0,0.14,0.14,0.75,0.08726646259971647,5.0,0.184,0.175,0.174,0.0,0.0,0.0,-0.012624275799346194,0.0,0.002554059231889447,0.0,6.07608282839065,0.0,-0.5201356774735141,0.0,0.15468448154300635,0.0,-3.752937325264932,0.0,-0.031745010481238234,0.0,-0.0075185856169951255,0.47390727686217315,-0.009818569388397844,0.09466043329519384,0.0,0.0,0.0,0.45445853849033235,0.09466043329519384,0.0,0.0,0.0021940871580117243,0.0,0.0,-0.003200867881682931,0.0,1.14825849253651,0.0,5.512713793522742,0.0,0.0037260878434540647,0.0,86.64492745013892,-1.328823083942538,0.0,-5.47199599292247,0.0,0.0037260878434540647,0.0
sim_raptor_glider_3dof,raptor_glider_3dof,0.02,-14.76125104044024,0.0,-0.0035820603559553778,11.882342151308883,0.0,-0.4073205135097015,0.0,0.0,0.0,-31.12974302608424,-0.543316511104913,-0.022848928448341098,0.0,0.0,0.0,0.0,0.0,-0.008203920418333226,-0.4700500154316946,0.0,0.0,11.88932146934793,0.0035820603559553778,0.03493879182270396,-0.0342660626678027,-1.963300771395885,0.0,0.0,0.026062142249469476,1.4932507559641905,-4.977050569626749,0.0,-16.267695149627542,11.88528387472382,0.0,-0.3098261104678202,0.0,0.5944980395583329,0.0,0.0,-0.543316511104913,0.0,-0.07471453889463936,0.3490658503988659,1.0,0.14,0.14,0.75,0.08726646259971647,5.0,0.184,0.175,0.174,0.0,0.0,0.0,-0.012690934513718244,0.0,0.002542577636473597,0.0,6.076173232273251,0.0,-0.5202968581793675,0.0,0.153065028863378,0.0,-3.7521159573548317,0.0,-0.03132196878050137,0.0,-0.0073829702538531685,0.4680187044469337,-0.009364140799118348,0.09440796817209068,0.0,0.0,0.0,0.44858193780758254,0.09440796817209068,0.0,0.0,0.0026383152664087688,0.0,0.0,-0.0031988499827677536,0.0,1.1443450600869416,0.0,5.4373855778636315,0.0,0.004477164735913805,0.0,86.58054446670847,-1.3299546378323341,0.0,-5.394989175171074,0.0,0.004477164735913805,0.0
sim_raptor_glider_3dof,raptor_glider_3dof,0.02,-14.76125104044024,0.0,-0.0035820603559553778,11.882342151308883,0.0,-0.4073205135097015,0.0,0.0,0.0,-31.12974302608424,-0.543316511104913,-0.022848928448341098,0.0,0.0,0.0,0.0,0.0,-0.008203920418333226,-0.4700500154316946,0.0,0.0,11.88932146934793,0.0035820603559553778,0.03493879182270396,-0.0342660626678027,-1.963300771395885,0.0,0.0,0.026062142249469476,1.4932507559641905,-4.9814045346962,0.0,-16.253839571425473,11.88528387472382,0.0,-0.3098261104678202,0.0,0.7528788641977698,0.0,0.0,-0.543316511104913,0.0,-0.07592730492104244,0.3490658503988659,1.0,0.14,0.14,0.75,0.08726646259971647,5.0,0.184,0.175,0.174,0.0,0.0,0.0,-0.012649653371479021,0.0,0.0025874005927563055,0.0,6.075900605869605,0.0,-0.5203039019586279,0.0,0.15305791340539757,0.0,-3.7511074402450713,0.0,-0.031331902028503764,0.0,-0.007403063307993118,0.4677070542584659,-0.008658038462799006,0.09451745956419631,0.0,0.0,0.0,0.44827115971008136,0.09451745956419631,0.0,0.0,0.0033411915077889327,0.0,0.0,-0.0031988499827677536,0.0,1.1456722354949507,0.0,5.433618550699035,0.0,0.005669930726273405,0.0,86.58054446670847,-1.3311519782264332,0.0,-5.391178891165506,0.0,0.005669930726273405,0.0
sim_raptor_glider_3dof,raptor_glider_3dof,0.021,-14.749368100304562,0.0,-0.0038967557319392067,11.877357448794053,0.0,-0.4234304247197864,0.0,0.0,0.0,-31.08383881755476,-0.5425153315255515,-0.022823717749420387,0.0,0.0,0.0,0.0,0.0,-0.008746838606480538,-0.5011569362334252,0.0,0.0,11.884902746383831,0.0038967557319392067,0.034925806654276734,-0.03563512999964644,-2.041742551379768,0.0,0.0,0.026888291393165897,1.5405856151463424,-4.987929473530203,0.0,-15.966829076190265,11.88060673045533,0.0,-0.31952622312021856,0.0,0.8491188192999891,0.0,0.0,-0.5425153315255515,0.0,-0.07592730492104244,0.3490658503988659,1.0,0.14,0.14,0.75,0.08726646259971647,5.0,0.184,0.175,0.174,0.0,0.0,0.0,-0.012714868412340865,0.0,0.0025760430153579116,0.0,6.075977647417695,0.0,-0.5204600272570762,0.0,0.1514660570001459,0.0,-3.75028539540837,0.0,-0.030916617510940218,0.0,-0.007271225356326505,0.46191521966006466,-0.008212267600522903,0.0942737558548822,0.0,0.0,0.0,0.4425005238173618,0.0942737558548822,0.0,0.0,0.0037710961477174683,0.0,0.0,-0.003195320484918855,0.0,1.141869000005615,0.0,5.359684952099262,0.0,0.006394713828148218,0.0,86.516200282211,-1.3320967185206825,0.0,-5.31560024187669,0.0,0.006394713828148218,0.0
sim_raptor_glider_3dof,raptor_glider_3dof,0.022,-14.737489829929961,0.0,-0.00422101258068128,11.872366636114918,0.0,-0.43925532805354883,0.0,0.0,0.0,-31.032491015458604,-0.5416191433153111,-0.02279447894764496,0.0,0.0,0.0,0.0,0.0,-0.009288911267799486,-0.5322154119164253,0.0,0.0,11.880489669435265,0.00422101258068128,0.03491283807762575,-0.03698125903699178,-2.118870063899664,0.0,0.0,0.027692347769192292,1.5866546519832387,-4.993599687209564,0.0,-15.683388755029359,11.87593458800346,0.0,-0.3289566035530797,0.0,0.9429864428140308,0.0,0.0,-0.5416191433153111,0.0,-0.07592730492104244,0.3490658503988659,1.0,0.14,0.14,0.75,0.08726646259971647,5.0,0.184,0.175,0.174,0.0,0.0,0.0,-0.012778930723454976,0.0,0.002564687530454921,0.0,6.076044830136234,0.0,-0.5206113247774325,0.0,0.14990019487934644,0.0,-3.749470281602016,0.0,-0.03050855635672961,0.0,-0.0071429005183273,0.4562146017418415,-0.007774319226202295,0.09403799745628019,0.0,0.0,0.0,0.4368245631066732,0.09403799745628019,0.0,0.0,0.004191091769629366,0.0,0.0,-0.003191227052670295,0.0,1.1381677160169759,0.0,5.287007685615409,0.0,0.007101630900832466,0.0,86.45196218582726,-1.3328651557223574,0.0,-5.241311524246667,0.0,0.007101630900832466,0.0
sim_raptor_glider_3dof,raptor_glider_3dof,0.023,-14.725616228836182,0.0,-0.004554558792395103,11.867370592587639,0.0,-0.4547986835928827,0.0,0.0,0.0,-30.975836069108148,-0.5406303279639549,-0.02276130807715096,0.0,0.0,0.0,0.0,0.0,-0.009830038445426771,-0.5632197153742948,0.0,0.0,11.876082124354467,0.004554558792395103,0.034899885757308374,-0.03830471321927587,-2.19469840292348,0.0,0.0,0.0284746747738491,1.6314786875491853,-4.998445397253548,0.0,-15.403509820862011,11.871267843781446,0.0,-0.33812187981895664,0.0,1.0345221874435442,0.0,0.0,-0.5406303279639549,0.0,-0.07592730492104244,0.3490658503988659,1.0,0.14,0.14,0.75,0.08726646259971647,5.0,0.184,0.175,0.174,0.0,0.0,0.0,-0.012841860216514294,0.0,0.0025533426322403817,0.0,6.076102603344212,0.0,-0.5207579392379965,0.0,0.14836006043385688,0.0,-3.748662283277934,0.0,-0.030107620747843337,0.0,-0.007018003851700616,0.4506046703184201,-0.0073440892554824545,0.09380996518972098,0.0,0.0,0.0,0.4312426642615866,0.09380996518972098,0.0,0.0,0.004601334739481475,0.0,0.0,-0.003186583130801135,0.0,1.134565484835607,0.0,5.215576420588597,0.0,0.007790986593637331,0.0,86.38782842534488,-1.3334655481953053,0.0,-5.168302029695654,0.0,0.007790986593637331,0.0
sim_raptor_glider_3dof,raptor_glider_3dof,0.024,-14.713747292132995,0.0,-0.004897160296931528,11.862370037855541,0.0,-0.47006365693467167,0.0,0.0,0.0,-30.913991906303533,-0.539550943699875,-0.02272428796729562,0.0,0.0,0.0,0.0,0.0,-0.010370138632312693,-0.5941651765970851,0.0,0.0,11.871679862453487,0.004897160296931528,0.03488694896251281,-0.039605731984163714,-2.2692412872188767,0.0,0.0,0.02923559335185102,1.6750761106217915,-5.002495488978954,0.0,-15.127182539333477,11.866606743187225,0.0,-0.34702616490283744,0.0,1.1237628913614308,0.0,0.0,-0.539550943699875,0.0,-0.07592730492104244,0.3490658503988659,1.0,0.14,0.14,0.75,0.08726646259971647,5.0,0.184,0.175,0.174,0.0,0.0,0.0,-0.01290367513035952,0.0,0.0025420165982789704,0.0,6.076151401272404,0.0,-0.5209000088219341,0.0,0.14684541333706277,0.0,-3.7478615887647857,0.0,-0.029713721018862303,0.0,-0.00689645415775914,0.44508495799313974,-0.00692148202328749,0.09358944808757325,0.0,0.0,0.0,0.4257542880085836,0.09358944808757325,0.0,0.0,0.0050019660173645005,0.0,0.0,-0.003181400315421387,0.0,1.1310594901816708,0.0,5.145381640535491,0.0,0.008463058334842935,0.0,86.32379529453844,-1.333905841558393,0.0,-5.0965618806158055,0.0,0.008463058334842935,0.0
sim_raptor_glider_3dof,raptor_glider_3dof,0.025,-14.701883013423076,0.0,-0.0052485319582682875,11.857365836587745,0.0,-0.485054148321938,0.0,0.0,0.0,-30.8471022355745,-0.5383834987100785,-0.022683520135495617,0.0,0.0,0.0,0.0,0.0,-0.010909113190397175,-0.6250461440402546,0.0,0.0,11.867282844420727,0.0052485319582682875,0.03487402757771526,-0.040884616405791115,-2.342515967063156,0.0,0.0,0.02997550321539394,1.7174698230229013,-5.005779340772164,0.0,-14.85438920921492,11.861951684090398,0.0,-0.3556745053942304,0.0,1.2107518201625367,0.0,0.0,-0.5383834987100785,0.0,-0.07592730492104244,0.3490658503988659,1.0,0.14,0.14,0.75,0.08726646259971647,5.0,0.184,0.175,0.174,0.0,0.0,0.0,-0.012964396128102029,0.0,0.002530716756435737,0.0,6.076191646525348,0.0,-0.5210376746087496,0.0,0.14535593989749515,0.0,-3.7470683377360436,0.0,-0.02932674969390544,0.0,-0.006778165982746079,0.4396546988471874,-0.006506382453543487,0.09337622889156726,0.0,0.0,0.0,0.4203585806686351,0.09337622889156726,0.0,0.0,0.005393155558792424,0.0,0.0,-0.003175692818969387,0.0,1.1276468883410897,0.0,5.07641025028878,0.0,0.009118171957644064,0.0,86.25986213644563,-1.3341938291696254,0.0,-5.026077532253957,0.0,0.009118171957644064,0.0
sim_raptor_glider_3dof,raptor_glider_3dof,0.026000000000000002,-14.690023386635954,0.0,-0.005608425856571667,11.85235872281104,0.0,-0.49977360665608844,0.0,0.0,0.0,-30.775292040673026,-0.537130174372549,-0.022639092698722937,0.0,0.0,0.0,0.0,0.0,-0.011446877193248533,-0.6558577517776986,0.0,0.0,11.862890918831926,0.005608425856571667,0.03486112115792978,-0.04214163029953049,-2.4145375579637283,0.0,0.0,0.030694753106281957,1.7586798061860298,-5.008324900665764,0.0,-14.58511395546005,11.85730294026291,0.0,-0.3640713322104806,0.0,1.2955276481883786,0.0,0.0,-0.537130174372549,0.0,-0.07592730492104244,0.3490658503988659,1.0,0.14,0.14,0.75,0.08726646259971647,5.0,0.184,0.175,0.174,0.0,0.0,0.0,-0.013024041623924433,0.0,0.002519450351290485,0.0,6.076223746309903,0.0,-0.5211710697741108,0.0,0.1438913682202595,0.0,-3.746282681997964,0.0,-0.028946611403510236,0.0,-0.006663058906295946,0.4343132497805392,-0.006098688183450227,0.09317010096864825,0.0,0.0,0.0,0.4150548228094144,0.09317010096864825,0.0,0.0,0.0057750535444218935,0.0,0.0,-0.003169472977821211,0.0,1.124324951057189,0.0,5.008650720452423,0.0,0.00975661871850668,0.0,86.19602666582648,-1.3343369828049045,0.0,-4.956837041035082,0.0,0.00975661871850668,0.0
sim_raptor_glider_3dof,raptor_glider_3dof,0.027,-14.678168405329265,0.0,-0.005976592567689894,11.847349422002125,0.0,-0.514225541755419,0.0,0.0,0.0,-30.698687084602383,-0.5357931656657706,-0.022591094430980938,0.0,0.0,0.0,0.0,0.0,-0.011983345784518942,-0.6865951378988219,0.0,0.0,11.858503962760553,0.005976592567689894,0.03484822934191587,-0.0433770429348795,-2.485321487926361,0.0,0.0,0.031393697150360556,1.7987263500275392,-5.010159531788691,0.0,-14.319338690346665,11.852660784077754,0.0,-0.37222113372707577,0.0,1.3781292515308237,0.0,0.0,-0.5357931656657706,0.0,-0.07592730492104244,0.3490658503988659,1.0,0.14,0.14,0.75,0.08726646259971647,5.0,0.184,0.175,0.174,0.0,0.0,0.0,-0.013082629840320893,0.0,0.00250822419025068,0.0,6.076248094565437,0.0,-0.5213003244043973,0.0,0.14245141855245125,0.0,-3.7455047596000184,0.0,-0.028573209911537646,0.0,-0.00655105350722681,0.4290599113321937,-0.005698295665271879,0.09297086095009299,0.0,0.0,0.0,0.40984223810353826,0.09297086095009299,0.0,0.0,0.006147811574941883,0.0,0.0,-0.0031627532203373316,0.0,1.1210910031109687,0.0,4.942090899635587,0.0,0.010378691393278634,0.0,86.13228701477408,-1.3343425332300203,0.0,-4.888827824901439,0.0,0.010378691393278634,0.0
sim_raptor_glider_3dof,raptor_glider_3dof,0.028,-14.66631806278869,0.0,-0.006352787262827091,11.842338631855588,0.0,-0.5284134441018506,0.0,0.0,0.0,-30.61741085376246,-0.534374627834003,-0.02253961255867275,0.0,0.0,0.0,0.0,0.0,-0.012518436347753297,-0.7172535688294285,0.0,0.0,11.854121858638322,0.006352787262827091,0.034835351784179146,-0.044591122349687325,-2.5548831143885624,0.0,0.0,0.032072686001934025,1.8376295455591338,-5.011309886478699,0.0,-14.057043842768357,11.848025467431611,0.0,-0.3801283500855935,0.0,1.4585949651678045,0.0,0.0,-0.534374627834003,0.0,-0.07592730492104244,0.3490658503988659,1.0,0.14,0.14,0.75,0.08726646259971647,5.0,0.184,0.175,0.174,0.0,0.0,0.0,-0.013140178515852757,0.0,0.0024970447147522543,0.0,6.076265072026661,0.0,-0.5214255648610647,0.0,0.1410358111204474,0.0,-3.7447346991766604,0.0,-0.028206450105729693,0.0,-0.006442071975734716,0.4238939578649656,-0.005305102323126898,0.0927783098366562,0.0,0.0,0.0,0.4047200253911468,0.0927783098366562,0.0,0.0,0.006511579372497487,0.0,0.0,-0.0031555457582141855,0.0,1.1179424310111656,0.0,4.8767183823596385,0.0,0.010984678682678736,0.0,86.06864139592498,-1.3342174632502313,0.0,-4.822037040572965,0.0,0.010984678682678736,0.0
sim_raptor_glider_3dof,raptor_glider_3dof,0.029,-14.654472352044195,0.0,-0.006736769769088239,11.837327022307207,0.0,-0.5423407829215406,0.0,0.0,0.0,-30.53158453458016,-0.5328766759794042,-0.02248473274162573,0.0,0.0,0.0,0.0,0.0,-0.013052068519062078,-0.7478284400578238,0.0,0.0,11.849744493357836,0.006736769769088239,0.03482248815233429,-0.04578413519317135,-2.6232377152250983,0.0,0.0,0.03273206667410927,1.8754092751672746,-5.011801911037594,0.0,-13.798208463974357,11.843397221942501,0.0,-0.3877973712506996,0.0,1.5369625758952352,0.0,0.0,-0.5328766759794042,0.0,-0.07592730492104244,0.3490658503988659,1.0,0.14,0.14,0.75,0.08726646259971647,5.0,0.184,0.175,0.174,0.0,0.0,0.0,-0.013196704922099348,0.0,0.0024859180147420615,0.0,6.076275046550416,0.0,-0.5215469138621951,0.0,0.1396442663664586,0.0,-3.7439726202874097,0.0,-0.027846238012178993,0.0,-0.006336038110999098,0.4188146399812003,-0.004919006588356848,0.09259225298371143,0.0,0.0,0.0,0.3996873611131189,0.09259225298371143,0.0,0.0,0.006866504737920878,0.0,0.0,-0.0031478625838276026,0.0,1.1148766823948872,0.0,4.81252053809891,0.0,0.011574865159067017,0.0,86.0050880892821,-1.333968512517059,0.0,-4.756451613775196,0.0,0.011574865159067017,0.0
sim_raptor_glider_3dof,raptor_glider_3dof,0.03,-14.642631265918016,0.0,-0.007128304031850085,11.832315239217094,0.0,-0.5560110068179303,0.0,0.0,0.0,-30.44132728674375,-0.5313013898308704,-0.022426539265457894,0.0,0.0,0.0,0.0,0.0,-0.013584163909851413,-0.7783152602484168,0.0,0.0,11.845371761152613,0.007128304031850085,0.03480963813556852,-0.04695634676943697,-2.690400491241496,0.0,0.0,0.033372182859585556,1.9120852309930791,-5.011660861533395,0.0,-13.54281035741407,11.838776262707414,0.0,-0.39523254100242855,0.0,1.6132693553753015,0.0,0.0,-0.5313013898308704,0.0,-0.07592730492104244,0.3490658503988659,1.0,0.14,0.14,0.75,0.08726646259971647,5.0,0.184,0.175,0.174,0.0,0.0,0.0,-0.013252225889014363,0.0,0.002474849840946679,0.0,6.076278373441317,0.0,-0.5216644905831066,0.0,0.1382765049496542,0.0,-3.7432186336277042,0.0,-0.027492480750452866,0.0,-0.006232877299753874,0.4138211860049569,-0.0045399078702124925,0.09241250005179262,0.0,0.0,0.0,0.39474340063078006,0.09241250005179262,0.0,0.0,0.007212733683061859,0.0,0.0,-0.0031397154971641054,0.0,1.111891265727218,0.0,4.749484529894074,0.0,0.012149531515331395,0.0,85.94162548387919,-1.3336021833401712,0.0,-4.692058258706294,0.0,0.012149531515331395,0.0
sim_raptor_glider_3dof,raptor_glider_3dof,0.03,-14.642631265918016,0.0,-0.007128304031850085,11.832315239217094,0.0,-0.5560110068179303,0.0,0.0,0.0,-30.44132728674375,-0.5313013898308704,-0.022426539265457894,0.0,0.0,0.0,0.0,0.0,-0.013584163909851413,-0.7783152602484168,0.0,0.0,11.845371761152613,0.007128304031850085,0.03480963813556852,-0.04695634676943697,-2.690400491241496,0.0,0.0,0.033372182859585556,1.9120852309930791,-5.015317142384131,0.0,-13.531251919337407,11.838776262707414,0.0,-0.39523254100242855,0.0,1.7452544619814174,0.0,0.0,-0.5313013898308704,0.0,-0.07695070461658776,0.3490658503988659,1.0,0.14,0.14,0.75,0.08726646259971647,5.0,0.184,0.175,0.174,0.0,0.0,0.0,-0.013206621748671314,0.0,0.002513198074573553,0.0,6.076023883583687,0.0,-0.521669346052734,0.0,0.1382705419898989,0.0,-3.7422971785013677,0.0,-0.027504130290826618,0.0,-0.006250346524640338,0.4135604205946112,-0.003946925190871765,0.09250837643952096,0.0,0.0,0.0,0.39448343424618426,0.09250837643952096,0.0,0.0,0.007802823255462485,0.0,0.0,-0.0031397154971641054,0.0,1.1130448338921837,0.0,4.746356659181208,0.0,0.013143511353182055,0.0,85.94162548387919,-1.3346076605741235,0.0,-4.688879688235212,0.0,0.013143511353182055,0.0
sim_raptor_glider_3dof,raptor_glider_3dof,0.031,-14.630794809768847,0.0,-0.00752715196937523,11.827300336119645,0.0,-0.5694150550425254,0.0,0.0,0.0,-30.33921823845831,-0.5295192507422116,-0.022359567505231184,0.0,0.0,0.0,0.0,0.0,-0.014114569974944598,-0.8087052892063975,0.0,0.0,11.840999398094949,0.00752715196937523,0.0347967892036056,-0.048106982050121705,-2.756327036583582,0.0,0.0,0.03399241207517711,1.9476217473771846,-5.014489227183683,0.0,-13.27811633041912,11.834159013655817,0.0,-0.40242662088103626,0.0,1.8186501036373897,0.0,0.0,-0.5295192507422116,0.0,-0.07695070461658776,0.3490658503988659,1.0,0.14,0.14,0.75,0.08726646259971647,5.0,0.184,0.175,0.174,0.0,0.0,0.0,-0.013260928676641187,0.0,0.0025022939404942533,0.0,6.076018911364503,0.0,-0.5217831825253617,0.0,0.136927520773485,0.0,-3.7415465826939958,0.0,-0.027157115692859633,0.0,-0.006150127513231475,0.40865670307601165,-0.0035753385843130593,0.09233518945780385,0.0,0.0,0.0,0.38963670137437145,0.09233518945780385,0.0,0.0,0.008136972290246824,0.0,0.0,-0.0031303394507323657,0.0,1.110141073559225,0.0,4.684581344358331,0.0,0.013696253930493183,0.0,85.87819165601361,-1.334130887553108,0.0,-4.625776729370981,0.0,0.013696253930493183,0.0
sim_raptor_glider_3dof,raptor_glider_3dof,0.032,-14.618962955547362,0.0,-0.007933063479676794,11.822286553383185,0.0,-0.5825683086404823,0.0,0.0,0.0,-30.232971455573956,-0.5276648945612281,-0.02228948728851288,0.0,0.0,0.0,0.0,0.0,-0.014643162052954555,-0.8389913843604181,0.0,0.0,11.8366314965254,0.007933063479676794,0.03478395338248376,-0.04923729891030386,-2.821089422184498,0.0,0.0,0.0345941368573493,1.9820980378240802,-5.013075998671686,0.0,-13.028390858797195,11.829549433008975,0.0,-0.40939638070469564,0.0,1.8900620711760965,0.0,0.0,-0.5276648945612281,0.0,-0.07695070461658776,0.3490658503988659,1.0,0.14,0.14,0.75,0.08726646259971647,5.0,0.184,0.175,0.174,0.0,0.0,0.0,-0.013314264422809042,0.0,0.002491457396438268,0.0,6.076008012673643,0.0,-0.5218934722464045,0.0,0.13560777706091937,0.0,-3.740804411419893,0.0,-0.026816384493719,0.0,-0.00605263810024577,0.40383743631895097,-0.00321056097476735,0.09216793623365051,0.0,0.0,0.0,0.3848770818480762,0.09216793623365051,0.0,0.0,0.008462724758034577,0.0,0.0,-0.0031205282203918033,0.0,1.1073128147662372,0.0,4.623943447749789,0.0,0.014234057458027184,0.0,85.8148459381751,-1.333549356388949,0.0,-4.563840574758101,0.0,0.014234057458027184,0.0
sim_raptor_glider_3dof,raptor_glider_3dof,0.033,-14.607135706996859,0.0,-0.00834583443995735,11.817274464979763,0.0,-0.5954735324233159,0.0,0.0,0.0,-30.122688986414005,-0.5257401023671578,-0.02221637074195675,0.0,0.0,0.0,0.0,0.0,-0.015169864570728574,-0.8691692156877836,0.0,0.0,11.832267935965591,0.00834583443995735,0.03477113031815684,-0.05034750606289665,-2.884699606413302,0.0,0.0,0.03517764149216808,2.0155303907255187,-5.011100373558189,0.0,-12.782057860456202,11.82494767353003,0.0,-0.4161454394273272,0.0,1.959521434173602,0.0,0.0,-0.5257401023671578,0.0,-0.07695070461658776,0.3490658503988659,1.0,0.14,0.14,0.75,0.08726646259971647,5.0,0.184,0.175,0.174,0.0,0.0,0.0,-0.013366642080570843,0.0,0.0024806937518669636,0.0,6.075991507828453,0.0,-0.5220003194226105,0.0,0.1343110938456371,0.0,-3.7400707840323424,0.0,-0.026481862766382442,0.0,-0.005957812713505493,0.3991020147197869,-0.002852511430410331,0.09200644640108087,0.0,0.0,0.0,0.38020390752498123,0.09200644640108087,0.0,0.0,0.008780200449080943,0.0,0.0,-0.003110291903873945,0.0,1.1045578247574128,0.0,4.564432357591068,0.0,0.014757155920761397,0.0,85.75158651247014,-1.3328688736961394,0.0,-4.50306021509697,0.0,0.014757155920761397,0.0
sim_raptor_glider_3dof,raptor_glider_3dof,0.034,-14.595313057205754,0.0,-0.008765272378829795,11.812264556150494,0.0,-0.6081336986653465,0.0,0.0,0.0,-30.008468412978818,-0.5237465772871979,-0.022140286903272504,0.0,0.0,0.0,0.0,0.0,-0.015694616323682426,-0.8992352764241309,0.0,0.0,11.827908544621978,0.008765272378829795,0.034758319505780295,-0.05143783036288178,-2.9471705871030056,0.0,0.0,0.03574321403919935,2.0479353106788745,-5.008584607297579,0.0,-12.539094365343004,11.820353814959619,0.0,-0.42267745280671765,0.0,2.0270599630306454,0.0,0.0,-0.5237465772871979,0.0,-0.07695070461658776,0.3490658503988659,1.0,0.14,0.14,0.75,0.08726646259971647,5.0,0.184,0.175,0.174,0.0,0.0,0.0,-0.013418075303553708,0.0,0.002470007858669505,0.0,6.075969706447035,0.0,-0.5221038271842087,0.0,0.13303723183271807,0.0,-3.73934579978087,0.0,-0.026153471670034175,0.0,-0.005865585485409611,0.39444973345044376,-0.002501103631195765,0.09185055044741212,0.0,0.0,0.0,0.37561641369815757,0.09185055044741212,0.0,0.0,0.009089522806081598,0.0,0.0,-0.003099640166458151,0.0,1.1018738781110933,0.0,4.50603629948557,0.0,0.015265788581583792,0.0,85.6884108201365,-1.3320950375500038,0.0,-4.443423453428656,0.0,0.015265788581583792,0.0
sim_raptor_glider_3dof,raptor_glider_3dof,0.034999999999999996,-14.583494996942859,0.0,-0.009191127647993283,11.807257444343985,0.0,-0.6205526977190042,0.0,0.0,0.0,-29.890436378182102,-0.5216865296571667,-0.022061325976406376,0.0,0.0,0.0,0.0,0.0,-0.016217338501801716,-0.9291850510882519,0.0,0.0,11.823553357923446,0.009191127647993283,0.03474552104946794,-0.052508575908855916,-3.008519787819755,0.0,0.0,0.0362912374070542,2.0793347367315027,-5.005551486807098,0.0,-12.299467724057347,11.815768083843464,0.0,-0.42899719869590885,0.0,2.0927172561546845,0.0,0.0,-0.5216865296571667,0.0,-0.07695070461658776,0.3490658503988659,1.0,0.14,0.14,0.75,0.08726646259971647,5.0,0.184,0.175,0.174,0.0,0.0,0.0,-0.01346858110920377,0.0,0.0024594035219875302,0.0,6.075942905578827,0.0,-0.5222041030286374,0.0,0.13178586036313514,0.0,-3.7386294979459533,0.0,-0.025831109648709473,0.0,-0.005775885388363769,0.38987953725897007,-0.0021562268489107397,0.09170007168391231,0.0,0.0,0.0,0.3711134672714089,0.09170007168391231,0.0,0.0,0.009390850519376447,0.0,0.0,-0.0030885856366968927,0.0,1.0992587085841343,0.0,4.448739278821298,0.0,0.01576025365610093,0.0,85.62531930752695,-1.3312332811153658,0.0,-4.384913776869087,0.0,0.01576025365610093,0.0
sim_raptor_glider_3dof,raptor_glider_3dof,0.036,-14.57168151829681,0.0,-0.00962319789709296,11.802253616110614,0.0,-0.6327337311487022,0.0,0.0,0.0,-29.76869569481441,-0.5195617538987726,-0.02197956096589009,0.0,0.0,0.0,0.0,0.0,-0.016737968035363336,-0.9590149260511974,0.0,0.0,11.819202273991651,0.00962319789709296,0.03473273464983294,-0.05355998953149479,-3.0687613509195226,0.0,0.0,0.03682202149613145,2.1097464248683253,-5.002022316344938,0.0,-12.063150720360637,11.811190579996385,0.0,-0.4351085801660125,0.0,2.156526266668607,0.0,0.0,-0.5195617538987726,0.0,-0.07695070461658776,0.3490658503988659,1.0,0.14,0.14,0.75,0.08726646259971647,5.0,0.184,0.175,0.174,0.0,0.0,0.0,-0.013518172926324583,0.0,0.0024488848242143284,0.0,6.075911391625496,0.0,-0.5223012449549165,0.0,0.1305567156417338,0.0,-3.737921947852409,0.0,-0.0255146930533107,0.0,-0.005688646542854234,0.38539059554291094,-0.0018177904957950828,0.09155484557508367,0.0,0.0,0.0,0.3666941744631299,0.09155484557508367,0.0,0.0,0.00968431317160341,0.0,0.0,-0.003077138535224613,0.0,1.0967101766146807,0.0,4.39252811047807,0.0,0.016240799314281282,0.0,85.56231043229664,-1.330288794777029,0.0,-4.3275175488172115,0.0,0.016240799314281282,0.0
sim_raptor_glider_3dof,raptor_glider_3dof,0.037,-14.559872612995953,0.0,-0.010061277015961321,11.797253556390869,0.0,-0.644680090303148,0.0,0.0,0.0,-29.643351188469705,-0.5173740795637705,-0.02189506641796396,0.0,0.0,0.0,0.0,0.0,-0.01725644119377502,-0.9887212498190047,0.0,0.0,11.814855220975426,0.010061277015961321,0.034719960095728426,-0.05459232596028893,-3.127909871327035,0.0,0.0,0.03733588476651391,2.13918862150803,-4.998017921283399,0.0,-11.830114371096226,11.806621410742466,0.0,-0.44101559610503116,0.0,2.2185198239827986,0.0,0.0,-0.5173740795637705,0.0,-0.07695070461658776,0.3490658503988659,1.0,0.14,0.14,0.75,0.08726646259971647,5.0,0.184,0.175,0.174,0.0,0.0,0.0,-0.013566862767911306,0.0,0.0024384555035482274,0.0,6.075875438445101,0.0,-0.5223953461706434,0.0,0.12934952620613,0.0,-3.7372232068216515,0.0,-0.025204136670523663,0.0,-0.005603801032286323,0.38098202548765336,-0.0014857048586890552,0.09141471025636687,0.0,0.0,0.0,0.36235758800956896,0.09141471025636687,0.0,0.0,0.009970040187807231,0.0,0.0,-0.0030653092985149545,0.0,1.0942261865041079,0.0,4.337389032537263,0.0,0.016707672794414458,0.0,85.49938308892506,-1.3292665741282785,0.0,-4.271220544728535,0.0,0.016707672794414458,0.0
sim_raptor_glider_3dof,raptor_glider_3dof,0.038,-14.548068272662697,0.0,-0.010505162376817038,11.792257731480086,0.0,-0.656395042872223,0.0,0.0,0.0,-29.51450606121998,-0.5151253078681117,-0.02180791578049077,0.0,0.0,0.0,0.0,0.0,-0.01777269587007264,-1.0183004639247508,0.0,0.0,11.810512133601959,0.010505162376817038,0.03470719719533915,-0.05560583832133013,-3.1859798520990346,0.0,0.0,0.03783314245125749,2.167679388174284,-4.993558518157869,0.0,-11.600329067276943,11.80206067316157,0.0,-0.44672220111850514,0.0,2.2787302956863753,0.0,0.0,-0.5151253078681117,0.0,-0.07695070461658776,0.3490658503988659,1.0,0.14,0.14,0.75,0.08726646259971647,5.0,0.184,0.175,0.174,0.0,0.0,0.0,-0.013614662323590642,0.0,0.002428119052630124,0.0,6.075835309690428,0.0,-0.5224864969679084,0.0,0.12816402149966322,0.0,-3.7365333252543707,0.0,-0.02489935625196404,0.0,-0.0055212823612859644,0.376652933846403,-0.0011598812242302485,0.09127950782627424,0.0,0.0,0.0,0.3581027511842225,0.09127950782627424,0.0,0.0,0.010248159345309973,0.0,0.0,-0.003053108209268708,0.0,1.0918046973378546,0.0,4.283308216523955,0.0,0.017161117856814092,0.0,85.43653626865738,-1.328171419361199,0.0,-4.216008474334781,0.0,0.017161117856814092,0.0
sim_raptor_glider_3dof,raptor_glider_3dof,0.039,-14.536268488814843,0.0,-0.010954655806667867,11.787266585056159,0.0,-0.6678818228117998,0.0,0.0,0.0,-29.382261425912695,-0.5128172035639005,-0.021718181066195233,0.0,0.0,0.0,0.0,0.0,-0.018286671982883158,-1.0477491259593332,0.0,0.0,11.806172947929566,0.010954655806667867,0.034694445760761604,-0.056600777305242905,-3.2429856567502715,0.0,0.0,0.03831410532235975,2.1952365307909383,-4.988663709066766,0.0,-11.373764682900646,11.797508450156586,0.0,-0.452232290872539,0.0,2.337189607084894,0.0,0.0,-0.5128172035639005,0.0,-0.07695070461658776,0.3490658503988659,1.0,0.14,0.14,0.75,0.08726646259971647,5.0,0.184,0.175,0.174,0.0,0.0,0.0,-0.013661583203722207,0.0,0.0024178787357334603,0.0,6.075791259456772,0.0,-0.5225747852044484,0.0,0.12699993243182214,0.0,-3.735852347158619,0.0,-0.024600268687495402,0.0,-0.0054410259702812385,0.3724024215878268,-0.0008402316184995647,0.09114908439447092,0.0,0.0,0.0,0.35392870273076643,0.09114908439447092,0.0,0.0,0.010518796861203022,0.0,0.0,-0.0030405453492673325,0.0,1.0894437223803615,0.0,4.230271822496202,0.0,0.017601374930956336,0.0,85.37376898343783,-1.3270079398302286,0.0,-4.161867038249402,0.0,0.017601374930956336,0.0
sim_raptor_glider_3dof,raptor_glider_3dof,0.04,-14.524473252900895,0.0,-0.011409562702800975,11.782280543045404,0.0,-0.6791436358872991,0.0,0.0,0.0,-29.246716718071273,-0.5104515021284138,-0.021625933146141467,0.0,0.0,0.0,0.0,0.0,-0.01879831106276271,-1.0770638858703885,0.0,0.0,11.801837605779555,0.011409562702800975,0.03468170562102781,-0.05757739161377058,-3.2989415348409943,0.0,0.0,0.03877908055100787,2.221877648970606,-4.983352508588056,0.0,-11.150390624353188,11.792964815251398,0.0,-0.45754971252869187,0.0,2.393929306871122,0.0,0.0,-0.5104515021284138,0.0,-0.07695070461658776,0.3490658503988659,1.0,0.14,0.14,0.75,0.08726646259971647,5.0,0.184,0.175,0.174,0.0,0.0,0.0,-0.013707636957900105,0.0,0.0024077375934271126,0.0,6.075743532527818,0.0,-0.5226602963944142,0.0,0.12585699092216768,0.0,-3.735180310077128,0.0,-0.02430679185280181,0.0,-0.00536296914467361,0.3682295830076686,-0.0005266686825437584,0.0910232899588644,0.0,0.0,0.0,0.3498344757250119,0.0910232899588644,0.0,0.0,0.010782077671887913,0.0,0.0,-0.0030276306404598058,0.0,1.087141328220703,0.0,4.178265988506438,0.0,0.01802868161004642,0.0,85.31108032994382,-1.3257805603520088,0.0,-4.108781917311732,0.0,0.01802868161004642,0.0
sim_raptor_glider_3dof,raptor_glider_3dof,0.04,-14.524473252900895,0.0,-0.011409562702800975,11.782280543045404,0.0,-0.6791436358872991,0.0,0.0,0.0,-29.246716718071273,-0.5104515021284138,-0.021625933146141467,0.0,0.0,0.0,0.0,0.0,-0.01879831106276271,-1.0770638858703885,0.0,0.0,11.801837605779555,0.011409562702800975,0.03468170562102781,-0.05757739161377058,-3.2989415348409943,0.0,0.0,0.03877908055100787,2.221877648970606,-4.98628656156677,0.0,-11.141205447373624,11.792964815251398,0.0,-0.45754971252869187,0.0,2.4988533855060435,0.0,0.0,-0.5104515021284138,0.0,-0.0777739253693091,0.3490658503988659,1.0,0.14,0.14,0.75,0.08726646259971647,5.0,0.184,0.175,0.174,0.0,0.0,0.0,-0.013663538964486948,0.0,0.002439018027778461,0.0,6.075523202254913,0.0,-0.5226633145675996,0.0,0.12585227700167528,0.0,-3.7343937153879168,0.0,-0.024318360429368996,0.0,-0.005377410997953232,0.3680216654750237,-0.00005171700021883972,0.09110290474264299,0.0,0.0,0.0,0.3496272252710522,0.09110290474264299,0.0,0.0,0.011254647836030151,0.0,0.0,-0.0030276306404598058,0.0,1.088092211470717,0.0,4.175790682088775,0.0,0.018818864846246015,0.0,85.31108032994382,-1.326587424921155,0.0,-4.1062559936423515,0.0,0.018818864846246015,0.0
sim_raptor_glider_3dof,raptor_glider_3dof,0.041,-14.512682578032265,0.0,-0.011869696190541023,11.777297170443488,0.0,-0.6901732524094097,0.0,0.0,0.0,-29.101971111878363,-0.5079252147225525,-0.02152681087039804,0.0,0.0,0.0,0.0,0.0,-0.019307488026570122,-1.1062375769218387,0.0,0.0,11.797502606877336,0.011869696190541023,0.034668966489986,-0.058535061411524564,-3.353811972419445,0.0,0.0,0.039227573384954445,2.2475743954976064,-4.980507137222431,0.0,-10.920086756150127,11.788426757461956,0.0,-0.46266871866659187,0.0,2.553207835957718,0.0,0.0,-0.5079252147225525,0.0,-0.0777739253693091,0.3490658503988659,1.0,0.14,0.14,0.75,0.08726646259971647,5.0,0.184,0.175,0.174,0.0,0.0,0.0,-0.013708566364925056,0.0,0.0024290482245496172,0.0,6.075470775924284,0.0,-0.5227460598622431,0.0,0.1247312499587,0.0,-3.733727670978388,0.0,-0.024030718122599822,0.0,-0.005301596476684101,0.36392947911223766,0.0002553737933764467,0.09098190937974306,0.0,0.0,0.0,0.34561950766436433,0.09098190937974306,0.0,0.0,0.01150790871143774,0.0,0.0,-0.0030137535218557254,0.0,1.0858489589329317,0.0,4.124892356543795,0.0,0.019228208212597575,0.0,85.24841966116128,-1.3253022072662919,0.0,-4.054303759476373,0.0,0.019228208212597575,0.0
sim_raptor_glider_3dof,raptor_glider_3dof,0.042,-14.500896415957238,0.0,-0.012334832465927556,11.772319742886301,0.0,-0.7009843480890591,0.0,0.0,0.0,-28.954173224065876,-0.5053456549527314,-0.021425350259618302,0.0,0.0,0.0,0.0,0.0,-0.01981412346604255,-1.1352656493553646,0.0,0.0,11.793171379447365,0.012334832465927556,0.03465623844205638,-0.05947490775150932,-3.407661201091389,0.0,0.0,0.039660784285466766,2.272395551736024,-4.97434775835315,0.0,-10.702104684898025,11.783897396744882,0.0,-0.46760381521716055,0.0,2.6059115416062943,0.0,0.0,-0.5053456549527314,0.0,-0.0777739253693091,0.3490658503988659,1.0,0.14,0.14,0.75,0.08726646259971647,5.0,0.184,0.175,0.174,0.0,0.0,0.0,-0.013752752806539583,0.0,0.002419181661062339,0.0,6.075415167050433,0.0,-0.5228261946844465,0.0,0.12363082651330638,0.0,-3.7330706914956515,0.0,-0.023748520982209493,0.0,-0.005227858686124242,0.35991309669245863,0.0005565571145503237,0.0908652465041901,0.0,0.0,0.0,0.3416895909827272,0.0908652465041901,0.0,0.0,0.0117540857098397,0.0,0.0,-0.0029995490363465623,0.0,1.0836604844870186,0.0,4.074995908269932,0.0,0.019625119819837004,0.0,85.18583649793096,-1.3239616015033366,0.0,-4.003378245407252,0.0,0.019625119819837004,0.0
sim_raptor_glider_3dof,raptor_glider_3dof,0.043000000000000003,-14.489114778876813,0.0,-0.012804813361678139,11.767348656059042,0.0,-0.7115790196169427,0.0,0.0,0.0,-28.80340222885779,-0.5027142046698417,-0.021321607592472674,0.0,0.0,0.0,0.0,0.0,-0.02031815342436965,-1.164144438715662,0.0,0.0,11.788843840445658,0.012804813361678139,0.03464352123320009,-0.06039708649268445,-3.460498150917411,0.0,0.0,0.0400789330683148,2.296353712201749,-4.967825375211745,0.0,-10.487241094204128,11.779376774827757,0.0,-0.47235779983182885,0.0,2.656987452444059,0.0,0.0,-0.5027142046698417,0.0,-0.0777739253693091,0.3490658503988659,1.0,0.14,0.14,0.75,0.08726646259971647,5.0,0.184,0.175,0.174,0.0,0.0,0.0,-0.013796105487115637,0.0,0.0024094217221434697,0.0,6.07535659903826,0.0,-0.5229037905003665,0.0,0.12255084368160932,0.0,-3.7324228563016444,0.0,-0.023471715863252845,0.0,-0.005156146934329742,0.35597196899038697,0.000851890533351923,0.09075278805368056,0.0,0.0,0.0,0.3378368772759223,0.09075278805368056,0.0,0.0,0.01199326630492548,0.0,0.0,-0.002985025062946175,0.0,1.0815251283037641,0.0,4.026091978854271,0.0,0.02000977250435621,0.0,85.12332958095526,-1.322569546196544,0.0,-3.953469744518179,0.0,0.02000977250435621,0.0
sim_raptor_glider_3dof,raptor_glider_3dof,0.044,-14.477337659079655,0.0,-0.01327948038200533,11.76238422358753,0.0,-0.7219600071882184,0.0,0.0,0.0,-28.64973979471727,-0.5000322892574607,-0.02121564112146681,0.0,0.0,0.0,0.0,0.0,-0.020819532699050878,-1.1928713550902268,0.0,0.0,11.784519883104277,0.01327948038200533,0.034630814549661396,-0.06130180861632828,-3.512334910234315,0.0,0.0,0.040482275917277405,2.3194635551440888,-4.960956543118846,0.0,-10.275467332561124,11.774864879782715,0.0,-0.47693389284011073,0.0,2.70646253886323,0.0,0.0,-0.5000322892574607,0.0,-0.0777739253693091,0.3490658503988659,1.0,0.14,0.14,0.75,0.08726646259971647,5.0,0.184,0.175,0.174,0.0,0.0,0.0,-0.013838634223560776,0.0,0.0023997710172404263,0.0,6.075295284446901,0.0,-0.5229789217148296,0.0,0.12149107291113284,0.0,-3.731784199930998,0.0,-0.023200233372885327,0.0,-0.0050864075554148,0.3521052996614051,0.0011414492834744198,0.09064440208475008,0.0,0.0,0.0,0.334060519836758,0.09064440208475008,0.0,0.0,0.01222555648946389,0.0,0.0,-0.0029701897570053536,0.0,1.0794411848474241,0.0,3.9781682602549067,0.0,0.020382369380178986,0.0,85.06089731026833,-1.3211297959648736,0.0,-3.904565538015488,0.0,0.020382369380178986,0.0
