name,vehicle,t,north,east,down,u,v,w,p_rad,p_deg,p_hat_div_b,q_deg,q_rad,q_hat_div_c,r_rad,r_deg,r_hat_div_b,phi_rad,phi_deg,theta_rad,theta_deg,psi_rad,psi_deg,speed,altitude,mach,alpha_rad,alpha_deg,beta_rad,beta_deg,gamma_rad,gamma_deg,u_dot,v_dot,w_dot,north_dot,east_dot,down_dot,p_rad_dot,q_rad_dot,r_rad_dot,phi_rad_dot,theta_rad_dot,psi_rad_dot,del_tail_alt_rad,del_tail_splay_rad,DIM_b,DIM_c_bar,DIM_S,DIM_wing_position,DIM_wing_incidence_rad,DIM_wing_incidence_deg,DIM_empennage_length,DIM_nose_length,DIM_tail_length,CDp,CDq,CDr,CYp,CYq,CYr,CLp,CLq,CLr,Clp,Clq,Clr,Cmp,Cmq,Cmr,Cnp,Cnq,Cnr,CL_0,Cm_0,CD_0,Cl_0,CY_0,Cn_0,CL,CD,CY,Cl,Cm,Cn,p_hat,q_hat,r_hat,drag_force_wind,side_force_wind,lift_force_wind,roll_moment_wind,pitch_moment_wind,yaw_moment_wind,qbar,X_total,Y_total,Z_total,L_total,M_total,N_total
sim_raptor_glider_3dof,raptor_glider_3dof,0.0,-15.0,0.0,0.0,12.0,0.0,0.0,0.0,0.0,0.0,0.0,0.0,0.0,0.0,0.0,0.0,0.0,0.0,0.0,0.0,0.0,0.0,12.0,-0.0,0.035264039495724236,0.0,0.0,0.0,0.0,0.0,0.0,-7.487178041450953,0.0,-25.024054441263395,12.0,0.0,0.0,0.0,-89.41363838472799,0.0,0.0,0.0,0.0,0.4363323129985824,0.3490658503988659,1.0,0.14,0.14,0.75,0.08726646259971647,5.0,0.184,0.175,0.174,0.0,0.0,0.0,-0.053153656886407115,0.0,0.055671173493162154,0.0,6.024209384397437,0.0,-0.5269202128147928,0.0,0.19813275846416445,0.0,-3.4552995296441478,0.0,-0.03588346466142729,0.0,-0.029845922084054996,0.7757079658211316,-0.38952171953159265,0.1667455120831285,0.0,0.0,0.0,0.7757079658211316,0.1667455120831285,0.0,0.0,-0.38952171953159265,0.0,0.0,0.0,0.0,2.0589739613990123,0.0,9.578443721347433,0.0,-0.6733741106753866,0.0,88.20001620075907,-2.0589739613990123,0.0,-9.578443721347433,0.0,-0.6733741106753866,0.0
sim_raptor_glider_3dof,raptor_glider_3dof,0.001,-14.988003746590733,0.0,-0.000012415174634177188,11.992502827180262,0.0,-0.02526770405029525,0.0,0.0,0.0,-5.103039651887635,-0.0890648437852645,-0.0037133468875430262,0.0,0.0,0.0,0.0,0.0,-0.000044590487564095195,-0.0025548467438532376,0.0,0.0,11.992529446150822,0.000012415174634177188,0.03524208600355821,-0.002106955238988487,-0.12071964281701804,0.0,0.0,0.002062364751424392,0.1181647960731648,-7.507675599275719,0.0,-25.508550485583747,11.99250394195709,0.0,-0.024732952477174667,0.0,-88.71856693472195,0.0,0.0,-0.0890648437852645,0.0,0.4363323129985824,0.3490658503988659,1.0,0.14,0.14,0.75,0.08726646259971647,5.0,0.184,0.175,0.174,0.0,0.0,0.0,-0.053430186057496054,0.0,0.0554080780660455,0.0,6.0240249874908525,0.0,-0.5274002219771142,0.0,0.1957017793236076,0.0,-3.453669819760639,0.0,-0.03525814560644711,0.0,-0.029499655008724115,0.7671435812705255,-0.38877083359862435,0.165760584735996,0.0,0.0,0.0,0.7640118800492363,0.165760584735996,0.0,0.0,-0.386975379228011,0.0,0.0,-0.0005198685642560238,0.0,2.0442643995802876,0.0,9.422277857722193,0.0,-0.6681395275853911,0.0,88.09023322213056,-2.064112165078258,0.0,-9.417949773357746,0.0,-0.6681395275853911,0.0
sim_raptor_glider_3dof,raptor_glider_3dof,0.002,-14.976014997218163,0.0,-0.000049270492086499364,11.984983638081903,0.0,-0.051011581957007696,0.0,0.0,0.0,-10.166686259086081,-0.1774421492383174,-0.0074026192836820276,0.0,0.0,0.0,0.0,0.0,-0.00017790069037163533,-0.010192958730758345,0.0,0.0,11.985092197667264,0.000049270492086499364,0.03522023038486956,-0.004256265628603735,-0.24386605700559036,0.0,0.0,0.0040783649382321,0.233673098274832,-7.5312069778045,0.0,-25.97647568606275,11.984992523423195,0.0,-0.04887944429772272,0.0,-88.03854836579413,0.0,0.0,-0.1774421492383174,0.0,0.4363323129985824,0.3490658503988659,1.0,0.14,0.14,0.75,0.08726646259971647,5.0,0.184,0.175,0.174,0.0,0.0,0.0,-0.05371000072613438,0.0,0.05518325282971427,0.0,6.023796383437123,0.0,-0.5278990096560925,0.0,0.1932332307470952,0.0,-3.4519868033346692,0.0,-0.03462545852853912,0.0,-0.029153229463314653,0.758374006898808,-0.388063512765844,0.16478068235403653,0.0,0.0,0.0,0.7521311449211472,0.16478068235403653,0.0,0.0,-0.38448598859501065,0.0,0.0,-0.001036366699715484,0.0,2.0296598650783366,0.0,9.264255835778041,0.0,-0.6630183077427956,0.0,87.98100758981425,-2.069072495287059,0.0,-9.25553317577674,0.0,-0.6630183077427956,0.0
sim_raptor_glider_3dof,raptor_glider_3dof,0.003,-14.964033765483153,0.0,-0.00010997650410396534,11.977439408842296,0.0,-0.07721526894416839,0.0,0.0,0.0,-15.191799193026208,-0.2651469152201249,-0.011068367643203196,0.0,0.0,0.0,0.0,0.0,-0.0003992506169425001,-0.022875375318799577,0.0,0.0,11.97768829909372,0.00010997650410396534,0.035198472770559576,-0.006446636600632963,-0.3693650692708328,0.0,0.0,0.006047385983690463,0.3464896939520332,-7.557751963901034,0.0,-26.428240508352538,11.977469282477013,0.0,-0.07243326284374174,0.0,-87.37346069275941,0.0,0.0,-0.2651469152201249,0.0,0.4363323129985824,0.3490658503988659,1.0,0.14,0.14,0.75,0.08726646259971647,5.0,0.184,0.175,0.174,0.0,0.0,0.0,-0.0539933342342998,0.0,0.0549956890768542,0.0,6.023523849844041,0.0,-0.5284156910211553,0.0,0.1907277346999606,0.0,-3.450251759098094,0.0,-0.033984927296559594,0.0,-0.028807107836358457,0.7494038488665931,-0.387399686775176,0.16380724554970857,0.0,0.0,0.0,0.7400699681597184,0.16380724554970857,0.0,0.0,-0.38205327508479314,0.0,0.0,-0.0015495714700484477,0.0,2.015177614704102,0.0,9.104435082498677,0.0,-0.6580095324771711,0.0,87.87233904709669,-2.0738283182350847,0.0,-9.09125486919839,0.0,-0.6580095324771711,0.0
sim_raptor_glider_3dof,raptor_glider_3dof,0.004,-14.95206006146447,0.0,-0.00019393750269191865,11.969867139046595,0.0,-0.10386280993339823,0.0,0.0,0.0,-20.179227607931264,-0.35219396226773997,-0.01471113674262299,0.0,0.0,0.0,0.0,0.0,-0.0007079751977142588,-0.040563990828967035,0.0,0.0,11.970317740549529,0.00019393750269191865,0.03517681313159225,-0.008676805031272569,-0.49714430794979647,0.0,0.0,0.00796882983355831,0.4565803171208294,-7.587282867422961,0.0,-26.864252771312174,11.96993767151242,0.0,-0.09538841555743248,0.0,-86.72306067972036,0.0,0.0,-0.35219396226773997,0.0,0.4363323129985824,0.3490658503988659,1.0,0.14,0.14,0.75,0.08726646259971647,5.0,0.184,0.175,0.174,0.0,0.0,0.0,-0.054280487125545326,0.0,0.054843901706905056,0.0,6.023207997132767,0.0,-0.5289492506950555,0.0,0.18818569052618506,0.0,-3.4484661334741316,0.0,-0.033335929119057396,0.0,-0.028461722112779208,0.7402377623774763,-0.38677875516894367,0.16284159593212236,0.0,0.0,0.0,0.727832609270965,0.16284159593212236,0.0,0.0,-0.37967643521108574,0.0,0.0,-0.0020595591439672187,0.0,2.000833340210975,0.0,8.942873240625298,0.0,-0.6531113699789741,0.0,87.76422654166264,-2.078352616244555,0.0,-8.925175978978858,0.0,-0.6531113699789741,0.0
sim_raptor_glider_3dof,raptor_glider_3dof,0.005,-14.94009389182307,0.0,-0.0003005518855746,11.962263859629724,0.0,-0.13093865674169305,0.0,0.0,0.0,-25.12980322664479,-0.4385978066832464,-0.01833146045868009,0.0,0.0,0.0,0.0,0.0,-0.0011034240774344013,-0.06322154265010774,0.0,0.0,11.962980463882431,0.0003005518855746,0.035155251297077285,-0.010945539172903748,-0.6271331991024985,0.0,0.0,0.009842115095469346,0.5639116564523908,-7.619764933048298,0.0,-27.284916404279006,11.96240105817221,0.0,-0.11773912974501546,0.0,-86.08698535636344,0.0,0.0,-0.4385978066832464,0.0,0.4363323129985824,0.3490658503988659,1.0,0.14,0.14,0.75,0.08726646259971647,5.0,0.184,0.175,0.174,0.0,0.0,0.0,-0.05457182683161292,0.0,0.05472593032343835,0.0,6.022849768199583,0.0,-0.529498543215881,0.0,0.18560727572066893,0.0,-3.446631540314975,0.0,-0.03267769521599154,0.0,-0.028117473742245224,0.7308804509402165,-0.3861995880247053,0.16188493539638366,0.0,0.0,0.0,0.7154233824078116,0.16188493539638366,0.0,0.0,-0.37735413745313595,0.0,0.0,-0.002566404464215213,0.0,1.9866411722863777,0.0,8.779628219436473,0.0,-0.6483210867187731,0.0,87.65666831823584,-2.0826180146542357,0.0,-8.757357879177162,0.0,-0.6483210867187731,0.0
sim_raptor_glider_3dof,raptor_glider_3dof,0.006,-14.92813525992473,0.0,-0.0004292124397594923,11.954626639550906,0.0,-0.15842765930436845,0.0,0.0,0.0,-30.04433358782197,-0.5243725426750143,-0.02192985685369944,0.0,0.0,0.0,0.0,0.0,-0.0015849610904613313,-0.09081158117588696,0.0,0.0,11.955676367913814,0.0004292124397594923,0.03513378696968413,-0.01325163807797221,-0.7592629335026617,0.0,0.0,0.01166667698751088,0.6684513523267749,-7.65515672930522,0.0,-27.690630360815796,11.954862725505864,0.0,-0.13947985016959272,0.0,-85.46475387002384,0.0,0.0,-0.5243725426750143,0.0,0.4363323129985824,0.3490658503988659,1.0,0.14,0.14,0.75,0.08726646259971647,5.0,0.184,0.175,0.174,0.0,0.0,0.0,-0.05486778710977721,0.0,0.05463934182373924,0.0,6.022450437086101,0.0,-0.5300622937916623,0.0,0.18299244783751023,0.0,-3.444749760445701,0.0,-0.03200931203935526,0.0,-0.02777473367758559,0.7213366671206888,-0.3856605284654083,0.16093834608201854,0.0,0.0,0.0,0.7028466604815571,0.16093834608201854,0.0,0.0,-0.37508452678533377,0.0,0.0,-0.003070179959517922,0.0,1.9726136922696764,0.0,8.61475825857789,0.0,-0.6436350613951496,0.0,87.54966199755503,-2.0865968109073574,0.0,-8.58786227075033,0.0,-0.6436350613951496,0.0
sim_raptor_glider_3dof,raptor_glider_3dof,0.007,-14.916184165882276,0.0,-0.0005793064854676666,11.946952592434664,0.0,-0.18631506489291877,0.0,0.0,0.0,-34.923595341205655,-0.6095317253381911,-0.025506823267053384,0.0,0.0,0.0,0.0,0.0,-0.00215196395569408,-0.12329845232554847,0.0,0.0,11.94840531406963,0.0005793064854676666,0.03511241974218939,-0.015593931681301612,-0.8934664713539263,0.0,0.0,0.013441967725607532,0.7701680190283778,-7.693410528399182,0.0,-28.081787400130356,11.947325872576652,0.0,-0.1606052419691676,0.0,-84.85576962259707,0.0,0.0,-0.6095317253381911,0.0,0.4363323129985824,0.3490658503988659,1.0,0.14,0.14,0.75,0.08726646259971647,5.0,0.184,0.175,0.174,0.0,0.0,0.0,-0.05516886739682447,0.0,0.05458123429015566,0.0,6.022011606567932,0.0,-0.5306390995932566,0.0,0.18034094615955698,0.0,-3.442822740123928,0.0,-0.031329722669104235,0.0,-0.027433842397851762,0.7116112100401488,-0.3851593965008954,0.16000279048359145,0.0,0.0,0.0,0.6901068760336266,0.16000279048359145,0.0,0.0,-0.3728652305367967,0.0,0.0,-0.0035709552573874744,0.0,1.9587619456352325,0.0,8.448321951825605,0.0,-0.6390488010277785,0.0,87.4432046606849,-2.090261009781001,0.0,-8.416751218395161,0.0,-0.6390488010277785,0.0
sim_raptor_glider_3dof,raptor_glider_3dof,0.008,-14.904240606651282,0.0,-0.0007502161182813057,11.939238882633015,0.0,-0.21458650998107728,0.0,0.0,0.0,-39.768327695755914,-0.6940882563029905,-0.02906283149078703,0.0,0.0,0.0,0.0,0.0,-0.0028038236298313884,-0.16064726048838937,0.0,0.0,11.941167131685324,0.0007502161182813057,0.035091149113066274,-0.017971280258754233,-1.0296785112733915,0.0,0.0,0.015167456628922844,0.8690312507850021,-7.734472659743328,0.0,-28.458772998507442,11.939793614875626,0.0,-0.18111019026309105,0.0,-84.25932271685393,0.0,0.0,-0.6940882563029905,0.0,0.4363323129985824,0.3490658503988659,1.0,0.14,0.14,0.75,0.08726646259971647,5.0,0.184,0.175,0.174,0.0,0.0,0.0,-0.05547563193059443,0.0,0.054548242134604644,0.0,6.021535204946049,0.0,-0.5312274312413525,0.0,0.17765229454057654,0.0,-3.440852589499303,0.0,-0.030637728722487007,0.0,-0.027095110104628704,0.7017089249620452,-0.38469349440195466,0.1590791122370665,0.0,0.0,0.0,0.6772085241452388,0.1590791122370665,0.0,0.0,-0.37069336574289874,0.0,0.0,-0.004068796408710184,0.0,1.9450954633896698,0.0,8.280378294547667,0.0,-0.634556959380627,0.0,87.33729292823296,-2.0935823601488033,0.0,-8.244087212286694,0.0,-0.634556959380627,0.0
sim_raptor_glider_3dof,raptor_glider_3dof,0.009000000000000001,-14.892304576113405,0.0,-0.0009413184291606596,11.931482731000013,0.0,-0.24322801242629782,0.0,0.0,0.0,-44.57922600410458,-0.7780542717623,-0.03259832301805841,0.0,0.0,0.0,0.0,0.0,-0.0035399435977275817,-0.2028238278641469,0.0,0.0,11.933961623290918,0.0009413184291606596,0.03506997450201568,-0.020382573901800104,-1.1678354601866447,0.0,0.0,0.01684263030407252,0.9650116323224979,-7.778283843616755,0.0,-28.821964269395146,11.932268984822977,0.0,-0.20098980076623565,0.0,-83.67459264387269,0.0,0.0,-0.7780542717623,0.0,0.4363323129985824,0.3490658503988659,1.0,0.14,0.14,0.75,0.08726646259971647,5.0,0.184,0.175,0.174,0.0,0.0,0.0,-0.055788708736007504,0.0,0.0545365423304085,0.0,6.021023482042527,0.0,-0.531825634606743,0.0,0.17492580464570248,0.0,-3.4388415806117196,0.0,-0.029931992558805562,0.0,-0.02675881698380161,0.6916347024036031,-0.3842596132891834,0.15816803727685969,0.0,0.0,0.0,0.6641561648322319,0.15816803727685969,0.0,0.0,-0.3685655476778038,0.0,0.0,-0.004563765222528177,0.0,1.9316222876944662,0.0,8.110986723910683,0.0,-0.6301533572010052,0.0,87.23192303897322,-2.096532395351765,0.0,-8.0699332223392,0.0,-0.6301533572010052,0.0
sim_raptor_glider_3dof,raptor_glider_3dof,0.01,-14.88037606515921,0.0,-0.0011519857253842968,11.923681420343334,0.0,-0.27222596258209436,0.0,0.0,0.0,-49.356935507178044,-0.8614410332947542,-0.03611370438294382,0.0,0.0,0.0,0.0,0.0,-0.004359739052099519,-0.24979464746366856,0.0,0.0,11.926788569792983,0.0011519857253842968,0.03504889526519434,-0.022826731891997996,-1.3078753974881616,0.0,0.0,0.01846699283989848,1.058080750024493,-7.824779502619,0.0,-29.171728920063018,11.924754932281528,0.0,-0.22023940058925584,0.0,-83.10065118556057,0.0,0.0,-0.8614410332947542,0.0,0.4363323129985824,0.3490658503988659,1.0,0.14,0.14,0.75,0.08726646259971647,5.0,0.184,0.175,0.174,0.0,0.0,0.0,-0.05610878847395166,0.0,0.05454186162840115,0.0,6.020479004498773,0.0,-0.5324319328652451,0.0,0.17216057968112747,0.0,-3.4367921450673697,0.0,-0.02921103978427371,0.0,-0.02642521354291394,0.6813934773072167,-0.3838540408424605,0.15727017538811427,0.0,0.0,0.0,0.6509544254455103,0.15727017538811427,0.0,0.0,-0.3664778994650984,0.0,0.0,-0.0050559186136121355,0.0,1.9183490019530007,0.0,7.940207158086878,0.0,-0.6258310040784566,0.0,87.12709092666549,-2.099082476605616,0.0,-7.894352751368246,0.0,-0.6258310040784566,0.0
sim_raptor_glider_3dof,raptor_glider_3dof,0.01,-14.88037606515921,0.0,-0.0011519857253842968,11.923681420343334,0.0,-0.27222596258209436,0.0,0.0,0.0,-49.356935507178044,-0.8614410332947542,-0.03611370438294382,0.0,0.0,0.0,0.0,0.0,-0.004359739052099519,-0.24979464746366856,0.0,0.0,11.926788569792983,0.0011519857253842968,0.03504889526519434,-0.022826731891997996,-1.3078753974881616,0.0,0.0,0.01846699283989848,1.058080750024493,-7.612166702297808,0.0,-16.05037440971801,11.924754932281528,0.0,-0.22023940058925584,0.0,66.12533730633037,0.0,0.0,-0.8614410332947542,0.0,-0.4363323129985824,0.3490658503988659,1.0,0.14,0.14,0.75,0.08726646259971647,5.0,0.184,0.175,0.174,0.0,0.0,0.0,-0.7053507282225941,0.0,0.14024112382929724,0.0,5.983684139745125,0.0,-0.6093857227888235,0.0,0.17540147379810928,0.0,-3.3636131955025412,0.0,0.16958039102989914,0.0,-0.053779545377791824,0.38535334696349544,0.27460978793110297,0.15923011282214325,0.0,0.0,0.0,0.35510032694338234,0.15923011282214325,0.0,0.0,0.29161594249523565,0.0,0.0,-0.0050559186136121355,0.0,1.9422559125365313,0.0,4.33144018631586,0.0,0.497989915253974,0.0,87.12709092666549,-2.040613956517288,0.0,-4.2859802610233695,0.0,0.497989915253974,0.0
sim_raptor_glider_3dof,raptor_glider_3dof,0.011,-14.868454984811294,0.0,-0.0013750998963309728,11.916077614215562,0.0,-0.28779860179719613,0.0,0.0,0.0,-45.57820310447498,-0.7954897113157895,-0.03336910953143795,0.0,0.0,0.0,0.0,0.0,-0.00518817417417885,-0.29726048355921936,0.0,0.0,11.919552581502614,0.0013750998963309728,0.03502763108378916,-0.02414743094454653,-1.383545879206119,0.0,0.0,0.01895925677036768,1.0862853956468999,-7.595231621538993,0.0,-15.097083638041603,11.917410383718163,0.0,-0.22597231965911088,0.0,65.77765024940312,0.0,0.0,-0.7954897113157895,0.0,-0.4363323129985824,0.3490658503988659,1.0,0.14,0.14,0.75,0.08726646259971647,5.0,0.184,0.175,0.174,0.0,0.0,0.0,-0.7087172812812736,0.0,0.13962979498068814,0.0,5.97935278742316,0.0,-0.6103273647254828,0.0,0.17398641397127093,0.0,-3.352957067435901,0.0,0.1708132668545285,0.0,-0.05332050375109557,0.38004285708487673,0.2747710060117205,0.15896827032984123,0.0,0.0,0.0,0.3521092621521882,0.15896827032984123,0.0,0.0,0.29043493284096733,0.0,0.0,-0.004671675334401313,0.0,1.936709866140612,0.0,4.289745875417145,0.0,0.495371484028255,0.0,87.02140290198241,-2.0397215230954577,0.0,-4.241733241198219,0.0,0.495371484028255,0.0
sim_raptor_glider_3dof,raptor_glider_3dof,0.012,-14.85654123980352,0.0,-0.00160387021993988,11.908491915793192,0.0,-0.3024279123378293,0.0,0.0,0.0,-41.81932877868518,-0.7298849781620754,-0.030635689439055595,0.0,0.0,0.0,0.0,0.0,-0.005950848099427122,-0.34095848062062134,0.0,0.0,11.912331524545177,0.00160387021993988,0.035006410780643496,-0.02539052988744338,-1.454770202151283,0.0,0.0,0.01943968178801626,1.1138117215306615,-7.5759964214671145,0.0,-14.163018649735536,11.910080753071442,0.0,-0.23155734924638144,0.0,65.4319641521821,0.0,0.0,-0.7298849781620754,0.0,-0.4363323129985824,0.3490658503988659,1.0,0.14,0.14,0.75,0.08726646259971647,5.0,0.184,0.175,0.174,0.0,0.0,0.0,-0.71188072879581,0.0,0.13904441935374293,0.0,5.975269446724542,0.0,-0.61121526562615,0.0,0.17265090857197696,0.0,-3.3429280562925743,0.0,0.17196912377217163,0.0,-0.052886262520920796,0.3750427188656649,0.2749211513979678,0.15872666815821246,0.0,0.0,0.0,0.34941480899383065,0.15872666815821246,0.0,0.0,0.2892589582029237,0.0,0.0,-0.004288996521467784,0.0,1.9314241237664413,0.0,4.251763103974727,0.0,0.4927681220300834,0.0,86.91599690469486,-2.0387445021228094,0.0,-4.201358053445552,0.0,0.4927681220300834,0.0
sim_raptor_glider_3dof,raptor_glider_3dof,0.013000000000000001,-14.84463481844049,0.0,-0.001838167227408414,11.900926338527592,0.0,-0.3161313067461401,0.0,0.0,0.0,-38.08021566669826,-0.6646251432534122,-0.027913406090325915,0.0,0.0,0.0,0.0,0.0,-0.006648065725390059,-0.3809061079904285,0.0,0.0,11.90512438902529,0.001838167227408414,0.03498523138800814,-0.026557342897946087,-1.5216236631340416,0.0,0.0,0.019909277172556028,1.1407175551436133,-7.5547048451350935,0.0,-13.24788845671096,11.902764994421199,0.0,-0.2370067630809313,0.0,65.08810654577846,0.0,0.0,-0.6646251432534122,0.0,-0.4363323129985824,0.3490658503988659,1.0,0.14,0.14,0.75,0.08726646259971647,5.0,0.184,0.175,0.174,0.0,0.0,0.0,-0.7148453428745692,0.0,0.13848655854922673,0.0,5.971431500285224,0.0,-0.6120499035658734,0.0,0.1713940006591184,0.0,-3.333515258652601,0.0,0.17305016934149886,0.0,-0.052477208682966514,0.37034817872777953,0.2750603680901631,0.15850398356521903,0.0,0.0,0.0,0.34701255979065593,0.15850398356521903,0.0,0.0,0.2880873352073926,0.0,0.0,-0.003907876852645629,0.0,1.9263813491542967,0.0,4.217424118100814,0.0,0.49017853039625764,0.0,86.81085781047153,-2.0376924709933877,0.0,-4.164783390281518,0.0,0.49017853039625764,0.0
sim_raptor_glider_3dof,raptor_glider_3dof,0.014,-14.832735705815033,0.0,-0.002077848448390954,11.893383034461346,0.0,-0.3289293518264635,0.0,0.0,0.0,-34.36075241872689,-0.5997082631693895,-0.025202208652010397,0.0,0.0,0.0,0.0,0.0,-0.007280203418315716,-0.41712492986620553,0.0,0.0,11.89793068238784,0.002077848448390954,0.03496409145842616,-0.02764945224519281,-1.584196919498066,0.0,0.0,0.020369248826877094,1.1670719896318607,-7.531594724119629,0.0,-12.35134763368357,11.895462504542868,0.0,-0.24233515205316136,0.0,64.74594022006437,0.0,0.0,-0.5997082631693895,0.0,-0.4363323129985824,0.3490658503988659,1.0,0.14,0.14,0.75,0.08726646259971647,5.0,0.184,0.175,0.174,0.0,0.0,0.0,-0.7176160058098014,0.0,0.13795735441709228,0.0,5.967835157210356,0.0,-0.6128320360257293,0.0,0.1702144595522874,0.0,-3.324705667668265,0.0,0.174058731421612,0.0,-0.052093436918633475,0.36595329465701143,0.27518891780635846,0.15829898665380174,0.0,0.0,0.0,0.34489692690041684,0.15829898665380174,0.0,0.0,0.28691950743839206,0.0,0.0,-0.0035283092112814557,0.0,1.9215655851787885,0.0,4.186647553311099,0.0,0.4876016757973048,0.0,86.70597807161099,-2.036574883754798,0.0,-4.131923859009075,0.0,0.4876016757973048,0.0
sim_raptor_glider_3dof,raptor_glider_3dof,0.015,-14.82084388938958,0.0,-0.002322802579058901,11.885863658071663,0.0,-0.34084004691783776,0.0,0.0,0.0,-30.660848174657197,-0.5351327521018615,-0.022502061207921094,0.0,0.0,0.0,0.0,0.0,-0.00784759547539516,-0.4496341000661035,0.0,0.0,11.890749633048861,0.002322802579058901,0.03494298872446695,-0.028668229461340212,-1.6425685542473996,0.0,0.0,0.020820633985945053,1.192934454181296,-7.50689283991108,0.0,-11.473089182624243,11.888172413306688,0.0,-0.24755505922010723,0.0,64.40534352463473,0.0,0.0,-0.5351327521018615,0.0,-0.4363323129985824,0.3490658503988659,1.0,0.14,0.14,0.75,0.08726646259971647,5.0,0.184,0.175,0.174,0.0,0.0,0.0,-0.7201969947504068,0.0,0.13745778967243655,0.0,5.964477067585702,0.0,-0.6135623446960756,0.0,0.16911128578863008,0.0,-3.3164880270693913,0.0,0.17499682800802388,0.0,-0.05173494934944305,0.361852879535955,0.27530710337109604,0.15811061592510745,0.0,0.0,0.0,0.3430630556092273,0.15811061592510745,0.0,0.0,0.28575499769235946,0.0,0.0,-0.0031502885691089533,0.0,1.9169629039227793,0.0,4.1593611375266,0.0,0.4850366420840242,0.0,86.60134609407119,-2.035400399954803,0.0,-4.10270362800513,0.0,0.4850366420840242,0.0
sim_raptor_glider_3dof,raptor_glider_3dof,0.016,-14.808959357188973,0.0,-0.002572927638988157,11.878369688568672,0.0,-0.35188149500092675,0.0,0.0,0.0,-26.980416176003168,-0.47089709582959316,-0.019812929834317893,0.0,0.0,0.0,0.0,0.0,-0.008350582077878256,-0.4784531095400094,0.0,0.0,11.883580564999384,0.002572927638988157,0.03492192119956326,-0.02961505875414294,-1.6968178766443522,0.0,0.0,0.02126447667626468,1.2183647671043427,-7.480817263150468,0.0,-10.612802267829498,11.880893919580398,0.0,-0.2526790780982875,0.0,64.06621336014618,0.0,0.0,-0.47089709582959316,0.0,-0.4363323129985824,0.3490658503988659,1.0,0.14,0.14,0.75,0.08726646259971647,5.0,0.184,0.175,0.174,0.0,0.0,0.0,-0.7225925522847823,0.0,0.1369886122510987,0.0,5.961353624443259,0.0,-0.6142415836381853,0.0,0.16808346220737477,0.0,-3.3088510208649096,0.0,0.1758663875909697,0.0,-0.05140160587402089,0.35804161750400565,0.27541527887436074,0.15793792010842078,0.0,0.0,0.0,0.3415059541529945,0.15793792010842078,0.0,0.0,0.2845934035095658,0.0,0.0,-0.0027738101768045053,0.0,1.9125608106743428,0.0,4.135491363167205,0.0,0.48248265281526087,0.0,86.49695170289573,-2.034177082595004,0.0,-4.077045654147513,0.0,0.48248265281526087,0.0
sim_raptor_glider_3dof,raptor_glider_3dof,0.017,-14.797082097960116,0.0,-0.0028281331885893633,11.870902406838681,0.0,-0.3620715317121964,0.0,0.0,0.0,-23.319374709078065,-0.40699986817970707,-0.017134783481103193,0.0,0.0,0.0,0.0,0.0,-0.008789502442870665,-0.5036013939964161,0.0,0.0,11.876422851463516,0.0028281331885893633,0.0349008870418276,-0.030491305884108054,-1.7470231390018047,0.0,0.0,0.02170180344123739,1.2434217450053886,-7.453576978463193,0.0,-9.7701785925238,11.87362625204771,0.0,-0.2577195635729379,0.0,63.728460623858396,0.0,0.0,-0.40699986817970707,0.0,-0.4363323129985824,0.3490658503988659,1.0,0.14,0.14,0.75,0.08726646259971647,5.0,0.184,0.175,0.174,0.0,0.0,0.0,-0.7248068095852592,0.0,0.13655037695328717,0.0,5.958461098121986,0.0,-0.614870546870691,0.0,0.16712997995527712,0.0,-3.3017835174299957,0.0,0.17666923177683297,0.0,-0.05109316017490148,0.3545142024254324,0.2755138313132126,0.15778005076027893,0.0,0.0,0.0,0.3402206307138669,0.15778005076027893,0.0,0.0,0.28343437970738194,0.0,0.0,-0.002398869687354447,0.0,1.9083481306097534,0.0,4.1149651143421355,0.0,0.4799390369582776,0.0,86.39278546369668,-2.0329123036957486,0.0,-4.054873369827591,0.0,0.4799390369582776,0.0
sim_raptor_glider_3dof,raptor_glider_3dof,0.018000000000000002,-14.785212101320061,0.0,-0.003088342607482395,11.863462862075345,0.0,-0.3714276465673044,0.0,0.0,0.0,-19.67764754736684,-0.34343973874853817,-0.014467594427581866,0.0,0.0,0.0,0.0,0.0,-0.009164694222060404,-0.5250982994519925,0.0,0.0,11.8692758657163,0.003088342607482395,0.03487988440952217,-0.0312983115805495,-1.7932611594509151,0.0,0.0,0.022133617358489094,1.2681628599989228,-7.425371798997924,0.0,-8.944914087255327,11.866368622984181,0.0,-0.26268856071777646,0.0,63.39200652766464,0.0,0.0,-0.34343973874853817,0.0,-0.4363323129985824,0.3490658503988659,1.0,0.14,0.14,0.75,0.08726646259971647,5.0,0.184,0.175,0.174,0.0,0.0,0.0,-0.7268437721256449,0.0,0.13614347286463743,0.0,5.955795686412966,0.0,-0.6154500546654423,0.0,0.16624983937547963,0.0,-3.295274616440452,0.0,0.1774070796088846,0.0,-0.050809284094494055,0.35126537603532737,0.2756031672053001,0.1576362514381299,0.0,0.0,0.0,0.33920213092748835,0.1576362514381299,0.0,0.0,0.2822776247402433,0.0,0.0,-0.0020254632198614614,0.0,1.9043148540923165,0.0,4.097710079832167,0.0,0.4774052011598424,0.0,86.28883796530114,-2.031612680782069,0.0,-4.036111108128749,0.0,0.4774052011598424,0.0
sim_raptor_glider_3dof,raptor_glider_3dof,0.019000000000000003,-14.773349357614872,0.0,-0.003353490299232846,11.856051923444632,0.0,-0.3799670488070559,0.0,0.0,0.0,-16.055162332167914,-0.2802154446385016,-0.011811337066882744,0.0,0.0,0.0,0.0,0.0,-0.009476493880935535,-0.5429631039591563,0.0,0.0,11.86213902167709,0.003353490299232846,0.03485891158034937,-0.03203739690320927,-1.8356076291393846,0.0,0.0,0.02256090302227373,1.2926445251802283,-7.396392506506426,0.0,-8.136708231733925,11.859120268882467,0.0,-0.2675978657899245,0.0,63.056780384221916,0.0,0.0,-0.2802154446385016,0.0,-0.4363323129985824,0.3490658503988659,1.0,0.14,0.14,0.75,0.08726646259971647,5.0,0.184,0.175,0.174,0.0,0.0,0.0,-0.7287073356376152,0.0,0.13576814226428052,0.0,5.953353521917451,0.0,-0.6159809495098776,0.0,0.16544203898765558,0.0,-3.2893136002151353,0.0,0.17808156176460896,0.0,-0.05054958500306644,0.3482899165177397,0.2756837023505268,0.15750584600007367,0.0,0.0,0.0,0.33844552740014444,0.15750584600007367,0.0,0.0,0.281122869181642,0.0,0.0,-0.0016535871893635843,0.0,1.9004520013646429,0.0,4.083654646699372,0.0,0.47488061307357526,0.0,86.18510040953173,-2.030284063155592,0.0,-4.02068398483351,0.0,0.47488061307357526,0.0
sim_raptor_glider_3dof,raptor_glider_3dof,0.02,-14.761493857941932,0.0,-0.0036235222700987785,11.848670274951056,0.0,-0.3877066507509921,0.0,0.0,0.0,-12.451850550668714,-0.21732579007543806,-0.0091659879615066,0.0,0.0,0.0,0.0,0.0,-0.00972523666149849,-0.5572150154697623,0.0,0.0,11.855011755858586,0.0036235222700987785,0.03483796689840602,-0.03270986180283118,-1.874137029758409,0.0,0.0,0.022984625141332694,1.3169220142886466,-7.366820914843116,0.0,-7.345264676273084,11.85188043389624,0.0,-0.27245901007818857,0.0,62.72271714395866,0.0,0.0,-0.21732579007543806,0.0,-0.4363323129985824,0.3490658503988659,1.0,0.14,0.14,0.75,0.08726646259971647,5.0,0.184,0.175,0.174,0.0,0.0,0.0,-0.7304012848690851,0.0,0.13542450052882019,0.0,5.951130698752534,0.0,-0.6164640881920406,0.0,0.16470557281287354,0.0,-3.2838899406082938,0.0,0.17869422750512892,0.0,-0.05031362300399432,0.34558265311460584,0.27575585244018,0.15738822933954338,0.0,0.0,0.0,0.3379459341867093,0.15738822933954338,0.0,0.0,0.279969865832934,0.0,0.0,-0.0012832383146109242,0.0,1.8967514987939265,0.0,4.072728055139922,0.0,0.4723647828111527,0.0,86.08156434720898,-2.0289315060796707,0.0,-4.008518055708131,0.0,0.4723647828111527,0.0
sim_raptor_glider_3dof,raptor_glider_3dof,0.02,-14.761493857941932,0.0,-0.0036235222700987785,11.848670274951056,0.0,-0.3877066507509921,0.0,0.0,0.0,-12.451850550668714,-0.21732579007543806,-0.0091659879615066,0.0,0.0,0.0,0.0,0.0,-0.00972523666149849,-0.5572150154697623,0.0,0.0,11.855011755858586,0.0036235222700987785,0.03483796689840602,-0.03270986180283118,-1.874137029758409,0.0,0.0,0.022984625141332694,1.3169220142886466,-7.188723119617329,0.0,-7.719247227457073,11.85188043389624,0.0,-0.27245901007818857,0.0,58.61474598837492,0.0,0.0,-0.21732579007543806,0.0,-0.4206317402539674,0.3490658503988659,1.0,0.14,0.14,0.75,0.08726646259971647,5.0,0.184,0.175,0.174,0.0,0.0,0.0,-0.619738788891342,0.0,0.11876882536049788,0.0,5.954677403389954,0.0,-0.601557669472355,0.0,0.16290180452873435,0.0,-3.295405078970366,0.0,0.1464509368432929,0.0,-0.04532393220658701,0.3539835970227454,0.2574046868916426,0.15304731750049852,0.0,0.0,0.0,0.34634232682756755,0.15304731750049852,0.0,0.0,0.2616334769511408,0.0,0.0,-0.0012832383146109242,0.0,1.8444373513421644,0.0,4.173916501015708,0.0,0.4414276520384515,0.0,86.08156434720898,-1.9799546123925793,0.0,-4.1113632572837275,0.0,0.4414276520384515,0.0
sim_raptor_glider_3dof,raptor_glider_3dof,0.021,-14.7496455037871,0.0,-0.0038985775608897343,11.841495358518657,0.0,-0.3950562145153567,0.0,0.0,0.0,-9.10221797240266,-0.15886367285262876,-0.006704192849127646,0.0,0.0,0.0,0.0,0.0,-0.00991332355491792,-0.5679916006444227,0.0,0.0,11.848083462672184,0.0038985775608897343,0.03481760693135909,-0.0333496514831244,-1.9107942782152347,0.0,0.0,0.023436327928206484,1.3428026775708122,-7.161116312016969,0.0,-6.980082204871277,11.844829763753404,0.0,-0.27765015063494736,0.0,58.30957030109106,0.0,0.0,-0.15886367285262876,0.0,-0.4206317402539674,0.3490658503988659,1.0,0.14,0.14,0.75,0.08726646259971647,5.0,0.184,0.175,0.174,0.0,0.0,0.0,-0.6211079953759224,0.0,0.11849006330613239,0.0,5.9528740034721395,0.0,-0.6019579435587397,0.0,0.16219498998905024,0.0,-3.290918163921002,0.0,0.14697420487211663,0.0,-0.04512496437526969,0.3513941479843471,0.25748695994870147,0.1529416713597098,0.0,0.0,0.0,0.3458068578387301,0.1529416713597098,0.0,0.0,0.26057577295172873,0.0,0.0,-0.0009385869988778707,0.0,1.8410104349293195,0.0,4.162593674381236,0.0,0.4391293739375168,0.0,85.9809783579599,-1.9787820615570597,0.0,-4.098893396073788,0.0,0.4391293739375168,0.0
sim_raptor_glider_3dof,raptor_glider_3dof,0.022,-14.737804196212902,0.0,-0.004178803916681896,11.83434822052242,0.0,-0.401674381521554,0.0,0.0,0.0,-5.770053789732408,-0.1007064366480071,-0.004252387921506284,0.0,0.0,0.0,0.0,0.0,-0.010043108617491057,-0.5754277369737046,0.0,0.0,11.841162954429471,0.004178803916681896,0.03479726984169229,-0.03392837823291768,-1.943952878469713,0.0,0.0,0.023885269615426623,1.3685251414960085,-7.133159138315084,0.0,-6.256253113710908,11.837785387135407,0.0,-0.28280247784686185,0.0,58.00490203350586,0.0,0.0,-0.1007064366480071,0.0,-0.4206317402539674,0.3490658503988659,1.0,0.14,0.14,0.75,0.08726646259971647,5.0,0.184,0.175,0.174,0.0,0.0,0.0,-0.6223454825456917,0.0,0.11823664006581601,0.0,5.951242109281295,0.0,-0.6023199751773536,0.0,0.16155464199043132,0.0,-3.286859312885833,0.0,0.14744691358769718,0.0,-0.04494532913777511,0.34905175225584056,0.2575605625000756,0.1528468173597582,0.0,0.0,0.0,0.34550877364695515,0.1528468173597582,0.0,0.0,0.25951734261792847,0.0,0.0,-0.0005953343090108798,0.0,1.837719925279132,0.0,4.1541483732387965,0.0,0.43683491721433265,0.0,85.88056409414601,-1.9775787729832337,0.0,-4.089418715086119,0.0,0.43683491721433265,0.0
sim_raptor_glider_3dof,raptor_glider_3dof,0.023,-14.725969930201131,0.0,-0.004464168382760911,11.827229142650049,0.0,-0.40757625684235,0.0,0.0,0.0,-2.4553320115907256,-0.042853627831873735,-0.0018105764483566456,0.0,0.0,0.0,0.0,0.0,-0.010114888659418874,-0.5795404304294407,0.0,0.0,11.834249769118964,0.004464168382760911,0.03477695427170638,-0.03444720887647281,-1.9736796846274784,0.0,0.0,0.024332320217053935,1.3941392541980377,-7.104996082168883,0.0,-5.547499313816587,11.830746638310986,0.0,-0.28792634124984967,0.0,57.700715420156264,0.0,0.0,-0.042853627831873735,0.0,-0.4206317402539674,0.3490658503988659,1.0,0.14,0.14,0.75,0.08726646259971647,5.0,0.184,0.175,0.174,0.0,0.0,0.0,-0.6234540526873558,0.0,0.1180084533336674,0.0,5.949778656416202,0.0,-0.6026444917981125,0.0,0.16097975012557286,0.0,-3.283220385529874,0.0,0.14787021285016516,0.0,-0.04478459878787793,0.346951734816265,0.25762586211117416,0.15276233782325982,0.0,0.0,0.0,0.3454435807411111,0.15276233782325982,0.0,0.0,0.25845809512184686,0.0,0.0,-0.0002534807027699304,0.0,1.834560196934967,0.0,4.148516267455546,0.0,0.43454408782919685,0.0,85.78031466001235,-1.9763483966601645,0.0,-4.082872194000219,0.0,0.43454408782919685,0.0
sim_raptor_glider_3dof,raptor_glider_3dof,0.024,-14.714142701120474,0.0,-0.004754649654554241,11.820138248421335,0.0,-0.412774939250724,0.0,0.0,0.0,0.8419707799188304,0.014695162315168145,0.0006212368173690163,0.0,0.0,0.0,0.0,0.0,-0.010128929941018381,-0.5803449366040471,0.0,0.0,11.827343377202949,0.004754649654554241,0.03475665866526477,-0.03490714409076059,-2.0000320312556132,0.0,0.0,0.024778214149742205,1.4196870946515658,-7.076764066371029,0.0,-4.853591256645494,11.823712805703183,0.0,-0.29303046004980665,0.0,57.39697949949131,0.0,0.0,0.014695162315168145,0.0,-0.4206317402539674,0.3490658503988659,1.0,0.14,0.14,0.75,0.08726646259971647,5.0,0.184,0.175,0.174,0.0,0.0,0.0,-0.6244361156499255,0.0,0.11780540732300988,0.0,5.948480999930993,0.0,-0.6029321242146265,0.0,0.16046946032133252,0.0,-3.2799944061275634,0.0,0.14824508599080616,0.0,-0.04464238746074989,0.3450900768457646,0.25768318992826106,0.1526878779850378,0.0,0.0,0.0,0.3456074350024054,0.1526878779850378,0.0,0.0,0.25739791846824195,0.0,0.0,0.00008697315443166229,0.0,1.8315263837630538,0.0,4.145641055366609,0.0,0.4322566526106691,0.0,85.68022219730635,-1.9750937341957162,0.0,-4.079195189679229,0.0,0.4322566526106691,0.0
sim_raptor_glider_3dof,raptor_glider_3dof,0.025,-14.702322503431795,0.0,-0.00505022886672253,11.813075575092746,0.0,-0.4172876387405516,0.0,0.0,0.0,4.121884336030144,0.07194045305010635,0.0030430522049699864,0.0,0.0,0.0,0.0,0.0,-0.010085586821573927,-0.5778615587889485,0.0,0.0,11.820443456837754,0.00505022886672253,0.03473638207657514,-0.03530953493366245,-2.0230873282686015,0.0,0.0,0.025223948112088522,1.445225769479653,-7.048592680747151,0.0,-4.174235010658034,11.816683292066323,0.0,-0.2981266363462667,0.0,57.09367372625383,0.0,0.0,0.07194045305010635,0.0,-0.4206317402539674,0.3490658503988659,1.0,0.14,0.14,0.75,0.08726646259971647,5.0,0.184,0.175,0.174,0.0,0.0,0.0,-0.6252947933682962,0.0,0.11762719290525062,0.0,5.9473454659727345,0.0,-0.6031837270654254,0.0,0.16002250093754475,0.0,-3.277171939237239,0.0,0.1485727743597021,0.0,-0.0445181973916444,0.34346132902203125,0.2577329022042651,0.15262305820290498,0.0,0.0,0.0,0.34599506060478374,0.15262305820290498,0.0,0.0,0.25633673746285845,0.0,0.0,0.00042602730869579814,0.0,1.8286134077916212,0.0,4.145449673865464,0.0,0.42997245683241764,0.0,85.58028187329373,-1.973817088588072,0.0,-4.078311672065326,0.0,0.42997245683241764,0.0
sim_raptor_glider_3dof,raptor_glider_3dof,0.026000000000000002,-14.690509333385664,0.0,-0.005350904083819819,11.806040991900447,0.0,-0.421128159046845,0.0,0.0,0.0,7.384431343389608,0.12888264032961666,0.005454865188886745,0.0,0.0,0.0,0.0,0.0,-0.009985150013184707,-0.572106953560482,0.0,0.0,11.813549544009872,0.005350904083819819,0.034716123142054925,-0.03565544813800506,-2.0429066949552794,0.0,0.0,0.02567029812482035,1.4707997413947973,-7.020604205909998,0.0,-3.509190427760746,11.809657404602055,0.0,-0.30322403384919683,0.0,56.79076754875725,0.0,0.0,0.12888264032961666,0.0,-0.4206317402539674,0.3490658503988659,1.0,0.14,0.14,0.75,0.08726646259971647,5.0,0.184,0.175,0.174,0.0,0.0,0.0,-0.6260325660246882,0.0,0.117473574702503,0.0,5.94636915006758,0.0,-0.6033999798088245,0.0,0.15963788631069503,0.0,-3.274745540350941,0.0,0.14885426300023372,0.0,-0.044411620152750644,0.34206118395609675,0.25777529882576783,0.1525675731968935,0.0,0.0,0.0,0.34660231384687307,0.1525675731968935,0.0,0.0,0.2552744374626947,0.0,0.0,0.0007636811264441443,0.0,1.8258170599362626,0.0,4.147882832338903,0.0,0.4276912704096909,0.0,85.48048680885556,-1.9725198787742175,0.0,-4.080159954585929,0.0,0.4276912704096909,0.0
sim_raptor_glider_3dof,raptor_glider_3dof,0.027,-14.678703187696561,0.0,-0.005656681250291007,11.799034257655629,0.0,-0.42431068800741684,0.0,0.0,0.0,10.62963381902577,0.18552210842333874,0.007856671123750091,0.0,0.0,0.0,0.0,0.0,-0.009827922412215343,-0.5630984756019705,0.0,0.0,11.806661211929834,0.005656681250291007,0.03469588060751075,-0.03594598595284609,-2.059553285534624,0.0,0.0,0.026118063540630752,1.4964548099326538,-6.992914007652558,0.0,-2.8582118611454916,11.802634464724507,0.0,-0.3083320699922672,0.0,56.48823008748003,0.0,0.0,0.18552210842333874,0.0,-0.4206317402539674,0.3490658503988659,1.0,0.14,0.14,0.75,0.08726646259971647,5.0,0.184,0.175,0.174,0.0,0.0,0.0,-0.6266519569702377,0.0,0.11734425649222453,0.0,5.945549021303133,0.0,-0.6035815850888382,0.0,0.15931456219665674,0.0,-3.2727075117372695,0.0,0.14909054426399976,0.0,-0.044322241491065395,0.3408851843672084,0.2578106619567743,0.15252113685170404,0.0,0.0,0.0,0.3474248956306802,0.15252113685170404,0.0,0.0,0.25421089983222184,0.0,0.0,0.0010999339573250127,0.0,1.8231333904719271,0.0,4.152879666254866,0.0,0.4254128607888121,0.0,85.38083067906447,-1.9712028778583581,0.0,-4.0846767431670425,0.0,0.4254128607888121,0.0
sim_raptor_glider_3dof,raptor_glider_3dof,0.028,-14.666904063713307,0.0,-0.005967575029294887,11.792055026101421,0.0,-0.42684918596939725,0.0,0.0,0.0,13.857512064452477,0.2418592116595324,0.010248464449478885,0.0,0.0,0.0,0.0,0.0,-0.0096142065777199,-0.5508534602702652,0.0,0.0,11.79977804732642,0.005967575029294887,0.03467565325847489,-0.03618223442085667,-2.073089325668062,0.0,0.0,0.02656802784313677,1.5222358653977965,-6.965630747158932,0.0,-2.2210578855178795,11.795613796006577,0.0,-0.31345995218813777,0.0,56.186028298034714,0.0,0.0,0.2418592116595324,0.0,-0.4206317402539674,0.3490658503988659,1.0,0.14,0.14,0.75,0.08726646259971647,5.0,0.184,0.175,0.174,0.0,0.0,0.0,-0.6271554239117584,0.0,0.1172389093820113,0.0,5.944882073562907,0.0,-0.603729235059442,0.0,0.15905146342278004,0.0,-3.2710502645885198,0.0,0.1492825780220126,0.0,-0.04424966031301993,0.33992893467260427,0.2578392486296784,0.15248348782663532,0.0,0.0,0.0,0.3484585624348198,0.15248348782663532,0.0,0.0,0.25314599470080523,0.0,0.0,0.0014347850229270442,0.0,1.8205587671639913,0.0,4.160380247567102,0.0,0.4231369791124994,0.0,85.28130736892165,-1.9698662118405628,0.0,-4.09179974296068,0.0,0.4231369791124994,0.0
sim_raptor_glider_3dof,raptor_glider_3dof,0.029,-14.655111959562399,0.0,-0.006283610483560761,11.785102829919229,0.0,-0.4287573401756287,0.0,0.0,0.0,17.06808416944106,0.29789426576426825,0.012630238331263739,0.0,0.0,0.0,0.0,0.0,-0.00934430468414139,-0.5353892208856275,0.0,0.0,11.792899625135655,0.006283610483560761,0.03465543984582461,-0.03636525950369436,-2.0835758904596937,0.0,0.0,0.02702095481955297,1.548186669574066,-6.9388565894629455,0.0,-1.5974921117463268,11.788594700384715,0.0,-0.3186166326262094,0.0,55.88412650340104,0.0,0.0,0.29789426576426825,0.0,-0.4206317402539674,0.3490658503988659,1.0,0.14,0.14,0.75,0.08726646259971647,5.0,0.184,0.175,0.174,0.0,0.0,0.0,-0.6275453522983122,0.0,0.11715717813659111,0.0,5.944365340793036,0.0,-0.6038436079502555,0.0,0.15884751877931472,0.0,-3.2697663457762824,0.0,0.14943129057518478,0.0,-0.04419349205911315,0.33918811842813384,0.2578612898379409,0.15245438777477652,0.0,0.0,0.0,0.3496991435656586,0.15245438777477652,0.0,0.0,0.2520795798850829,0.0,0.0,0.0017682333663769235,0.0,1.8180898443529487,0.0,4.170325766122934,0.0,0.4208633566971133,0.0,85.18191060710863,-1.9685093819844213,0.0,-4.101467845877556,0.0,0.4208633566971133,0.0
sim_raptor_glider_3dof,raptor_glider_3dof,0.03,-14.643326874014814,0.0,-0.006604820738737587,11.778177112310413,0.0,-0.4300486240867446,0.0,0.0,0.0,20.261366256340015,0.35362755212561064,0.01500198481159341,0.0,0.0,0.0,0.0,0.0,-0.009018518639795197,-0.5167230555203287,0.0,0.0,11.78602553484557,0.006604820738737587,0.03463523916320071,-0.03649611194405778,-2.091073183031505,0.0,0.0,0.027477593304262582,1.574350127511176,-6.912687464084733,0.0,-0.9872823692739807,11.781576483280267,0.0,-0.3238108655513859,0.0,55.582486716874016,0.0,0.0,0.35362755212561064,0.0,-0.4206317402539674,0.3490658503988659,1.0,0.14,0.14,0.75,0.08726646259971647,5.0,0.184,0.175,0.174,0.0,0.0,0.0,-0.6278240672993494,0.0,0.1170986828978286,0.0,5.943995886711532,0.0,-0.6039253703723613,0.0,0.15870164641521356,0.0,-3.268848403499933,0.0,0.1495375803672556,0.0,-0.04415336869106973,0.33865847997960585,0.2578769911172694,0.15243361852296128,0.0,0.0,0.0,0.35114252302137267,0.15243361852296128,0.0,0.0,0.2510115011431704,0.0,0.0,0.0021002778736230773,0.0,1.8157235357732784,0.0,4.182658324578692,0.0,0.41859170746477825,0.0,85.08263434682148,-1.9671313098968257,0.0,-4.113620914492735,0.0,0.41859170746477825,0.0
sim_raptor_glider_3dof,raptor_glider_3dof,0.03,-14.643326874014814,0.0,-0.006604820738737587,11.778177112310413,0.0,-0.4300486240867446,0.0,0.0,0.0,20.261366256340015,0.35362755212561064,0.01500198481159341,0.0,0.0,0.0,0.0,0.0,-0.009018518639795197,-0.5167230555203287,0.0,0.0,11.78602553484557,0.006604820738737587,0.03463523916320071,-0.03649611194405778,-2.091073183031505,0.0,0.0,0.027477593304262582,1.574350127511176,-6.595673696951685,0.0,-1.6560244034532836,11.781576483280267,0.0,-0.3238108655513859,0.0,48.197980696532895,0.0,0.0,0.35362755212561064,0.0,-0.3901388925702834,0.3490658503988659,1.0,0.14,0.14,0.75,0.08726646259971647,5.0,0.184,0.175,0.174,0.0,0.0,0.0,-0.4428138681762949,0.0,0.08947081997230666,0.0,5.955300444083052,0.0,-0.5787870353171594,0.0,0.15572002713941474,0.0,-3.30388205541915,0.0,0.09570811570413926,0.0,-0.03589932160808856,0.35379651977021337,0.22460201065513236,0.1445563164163909,0.0,0.0,0.0,0.3663043055236987,0.1445563164163909,0.0,0.0,0.21766294027707517,0.0,0.0,0.0021002778736230773,0.0,1.7218925097050901,0.0,4.363258940115493,0.0,0.36297899262558925,0.0,85.08263434682148,-1.8799525239352375,0.0,-4.297524973892043,0.0,0.36297899262558925,0.0
sim_raptor_glider_3dof,raptor_glider_3dof,0.031,-14.631548648720505,0.0,-0.006931582666325241,11.771592450678742,0.0,-0.4314381778038878,0.0,0.0,0.0,23.015517497971818,0.40169655938997556,0.017050668250648972,0.0,0.0,0.0,0.0,0.0,-0.008640831943990667,-0.4950832018724877,0.0,0.0,11.779496072674055,0.006931582666325241,0.03461605122887553,-0.036634393717642724,-2.0989961450415056,0.0,0.0,0.02799356177365206,1.603912943169018,-6.573671930039285,0.0,-1.1236380476275816,11.774880934858668,0.0,-0.3297069851327782,0.0,47.94029679985722,0.0,0.0,0.40169655938997556,0.0,-0.3901388925702834,0.3490658503988659,1.0,0.14,0.14,0.75,0.08726646259971647,5.0,0.184,0.175,0.174,0.0,0.0,0.0,-0.44302268105000164,0.0,0.08942728177385507,0.0,5.955020848773274,0.0,-0.5788521200647541,0.0,0.15556442169290222,0.0,-3.3031520746986986,0.0,0.09579960077042894,0.0,-0.03586583797015442,0.3532313878037588,0.2246242490230651,0.14453615928897512,0.0,0.0,0.0,0.36744657969229716,0.14453615928897512,0.0,0.0,0.21673931599406684,0.0,0.0,0.0023870935550908564,0.0,1.719745343055627,0.0,4.372016991154042,0.0,0.36103837519972476,0.0,84.98838884310369,-1.8787218234855163,0.0,-4.306095786888678,0.0,0.36103837519972476,0.0
sim_raptor_glider_3dof,raptor_glider_3dof,0.032,-14.619777116301018,0.0,-0.007264253893704422,11.765029500375139,0.0,-0.43230133094870715,0.0,0.0,0.0,25.754905001066458,0.4495078908069634,0.01909067642550137,0.0,0.0,0.0,0.0,0.0,-0.008215229725784881,-0.4706979910178903,0.0,0.0,11.772969191560696,0.007264253893704422,0.034596870879428414,-0.03672807865924108,-2.1043638967990215,0.0,0.0,0.0285128489334562,1.633665905781131,-6.5522282315885185,0.0,-0.6026692135862515,11.768183906487444,0.0,-0.33563541012120196,0.0,47.682366014001,0.0,0.0,0.4495078908069634,0.0,-0.3901388925702834,0.3490658503988659,1.0,0.14,0.14,0.75,0.08726646259971647,5.0,0.184,0.175,0.174,0.0,0.0,0.0,-0.44316412710753217,0.0,0.08939776212838704,0.0,5.954831403944624,0.0,-0.578896207657813,0.0,0.15545897510672493,0.0,-3.302657502034532,0.0,0.09586156914074007,0.0,-0.0358431681939582,0.3528485090730195,0.2246392913563691,0.1445225222752632,0.0,0.0,0.0,0.3687639554031764,0.1445225222752632,0.0,0.0,0.21581229615618566,0.0,0.0,0.0026726946995701923,0.0,1.7176780109132217,0.0,4.3828306304188915,0.0,0.3590958984514415,0.0,84.89423278962636,-1.8774563685460943,0.0,-4.316802018661335,0.0,0.3590958984514415,0.0
sim_raptor_glider_3dof,raptor_glider_3dof,0.033,-14.608012281945088,0.0,-0.007602873393343999,11.75848768229931,0.0,-0.4326491309763103,0.0,0.0,0.0,28.479507009435874,0.49706116665945976,0.021121977996621084,0.0,0.0,0.0,0.0,0.0,-0.0077419452024127654,-0.4435807853198073,0.0,0.0,11.766444571123392,0.007602873393343999,0.03457769717336211,-0.036778032565200076,-2.107226044780665,0.0,0.0,0.02903608736278731,1.6636452594608577,-6.531407523220634,0.0,-0.09293246748991457,11.761484808017913,0.0,-0.3416035071291518,0.0,47.424185570389916,0.0,0.0,0.49706116665945976,0.0,-0.3901388925702834,0.3490658503988659,1.0,0.14,0.14,0.75,0.08726646259971647,5.0,0.184,0.175,0.174,0.0,0.0,0.0,-0.44323954012930145,0.0,0.08938201442017839,0.0,5.954730382893009,0.0,-0.5789197133876842,0.0,0.15540274148552138,0.0,-3.30239378488046,0.0,0.09589460741427376,0.0,-0.03583108546187111,0.35264435180284,0.2246473041410088,0.14451525721154365,0.0,0.0,0.0,0.3702529475800988,0.14451525721154365,0.0,0.0,0.21488187170054954,0.0,0.0,0.002957076919526952,0.0,1.7156884012374223,0.0,4.395651365428294,0.0,0.35715154153060646,0.0,84.80016150652479,-1.876155158213077,0.0,-4.329593449602712,0.0,0.35715154153060646,0.0
sim_raptor_glider_3dof,raptor_glider_3dof,0.034,-14.596254147689232,0.0,-0.007947478466645784,11.751966425719742,0.0,-0.4324913457192968,0.0,0.0,0.0,31.18931079442733,0.5443561647905651,0.023144548422779302,0.0,0.0,0.0,0.0,0.0,-0.007221204463765756,-0.4137445387748086,0.0,0.0,11.759921923013186,0.007947478466645784,0.03455852926331419,-0.03678501444530025,-2.1076260770434714,0.0,0.0,0.029563809981534496,1.693881538268663,-6.511270896842303,0.0,0.40573891130838824,11.754783100535098,0.0,-0.34761745459713256,0.0,47.16574677035467,0.0,0.0,0.5443561647905651,0.0,-0.3901388925702834,0.3490658503988659,1.0,0.14,0.14,0.75,0.08726646259971647,5.0,0.184,0.175,0.174,0.0,0.0,0.0,-0.4432500799146086,0.0,0.08937981300541212,0.0,5.954716263161334,0.0,-0.5789229985726008,0.0,0.15539488145315397,0.0,-3.302356925779963,0.0,0.09589922483619703,0.0,-0.03582939698307527,0.35261581736439557,0.22464842361720608,0.1445142421506278,0.0,0.0,0.0,0.3719105080099264,0.1445142421506278,0.0,0.0,0.21394800524828397,0.0,0.0,0.0032402367791891026,0.0,1.713774730720067,0.0,4.4104361011860735,0.0,0.3552052389275411,0.0,84.70617078566417,-1.8748167450104023,0.0,-4.34442546292702,0.0,0.3552052389275411,0.0
sim_raptor_glider_3dof,raptor_glider_3dof,0.034999999999999996,-14.584502716814153,0.0,-0.00829812547100684,11.745464915172406,0.0,-0.4318407901103044,0.0,0.0,0.0,33.88429913365564,0.591392584612953,0.025158360121393754,0.0,0.0,0.0,0.0,0.0,-0.0066533084771316945,-0.3812064955382591,0.0,0.0,11.753400892573563,0.00829812547100684,0.03453936610706621,-0.03675004488291367,-2.105622468707301,0.0,0.0,0.030096736405781973,1.7244159731690416,-6.491873768010249,0.0,0.8935580485694015,11.748078099531766,0.0,-0.3536856073565081,0.0,46.90704970713383,0.0,0.0,0.591392584612953,0.0,-0.3901388925702834,0.3490658503988659,1.0,0.14,0.14,0.75,0.08726646259971647,5.0,0.184,0.175,0.174,0.0,0.0,0.0,-0.4431972891217148,0.0,0.08939083803096533,0.0,5.954786982557688,0.0,-0.578906544025893,0.0,0.15543424821405896,0.0,-3.302541538177865,0.0,0.0958760973967427,0.0,-0.03583785462075487,0.35275873518432027,0.22464281550056833,0.14451932706641987,0.0,0.0,0.0,0.37373250973379263,0.14451932706641987,0.0,0.0,0.2130107013939007,0.0,0.0,0.0035221704169951257,0.0,1.7119348711633124,0.0,4.427129082926135,0.0,0.3532569913444249,0.0,84.61225547345063,-1.8734395336853515,0.0,-4.361240332017965,0.0,0.3532569913444249,0.0
sim_raptor_glider_3dof,raptor_glider_3dof,0.036,-14.57275799283761,0.0,-0.008654870425389885,11.738982409922658,0.0,-0.43070777187571674,0.0,0.0,0.0,36.564457603454585,0.6381701743861576,0.027163387676678703,0.0,0.0,0.0,0.0,0.0,-0.006038505525696543,-0.3459808811888384,0.0,0.0,11.746881169281817,0.008654870425389885,0.034520206792094436,-0.036673933235653614,-2.101261592547511,0.0,0.0,0.030635427709957072,1.7552807113586728,-6.473268757040778,0.0,1.3706990651572433,11.741369203547466,0.0,-0.3598144399754272,0.0,46.648085408588855,0.0,0.0,0.6381701743861576,0.0,-0.3901388925702834,0.3490658503988659,1.0,0.14,0.14,0.75,0.08726646259971647,5.0,0.184,0.175,0.174,0.0,0.0,0.0,-0.4430823803269507,0.0,0.08941482531344229,0.0,5.954940896063179,0.0,-0.5788707278147794,0.0,0.15551992066407408,0.0,-3.3029433429812762,0.0,0.09582575557241839,0.0,-0.03585626873917905,0.3530697952584232,0.22463059997779092,0.14453040192076586,0.0,0.0,0.0,0.37571568679962936,0.14453040192076586,0.0,0.0,0.21206992170786013,0.0,0.0,0.003802874274735019,0.0,1.710167188883845,0.0,4.445685000349859,0.0,0.35130673121208267,0.0,84.51841106271631,-1.8720214593471347,0.0,-4.379991163463052,0.0,0.35130673121208267,0.0
sim_raptor_glider_3dof,raptor_glider_3dof,0.037,-14.56101997996739,0.0,-0.00901777733087373,11.732518093344638,0.0,-0.4291028773846606,0.0,0.0,0.0,39.22977064914618,0.6846886626298341,0.0291596050146721,0.0,0.0,0.0,0.0,0.0,-0.005377054515479951,-0.308082529948763,0.0,0.0,11.740362434356065,0.00901777733087373,0.034501050381604115,-0.03655751463495788,-2.0945912980708266,0.0,0.0,0.031180460119477928,1.786508768122064,-6.45550454316437,0.0,1.8373398598091892,11.734655782721854,0.0,-0.3660105887425444,0.0,46.388845066353014,0.0,0.0,0.6846886626298341,0.0,-0.3901388925702834,0.3490658503988659,1.0,0.14,0.14,0.75,0.08726646259971647,5.0,0.184,0.175,0.174,0.0,0.0,0.0,-0.4429065945644027,0.0,0.08945149222909125,0.0,5.955176297051032,0.0,-0.57881593705722,0.0,0.15565093745478645,0.0,-3.3035579179300307,0.0,0.09574874140893484,0.0,-0.035884450249927945,0.35354557962373906,0.22461189058844153,0.14454736163715876,0.0,0.0,0.0,0.37785666202980345,0.14454736163715876,0.0,0.0,0.211125628424251,0.0,0.0,0.004082344702054094,0.0,1.7084701127609105,0.0,4.466057399276435,0.0,0.34935439219470454,0.0,84.42463293743788,-1.8705601903937326,0.0,-4.400629886043956,0.0,0.34935439219470454,0.0
sim_raptor_glider_3dof,raptor_glider_3dof,0.038,-14.549288683006772,0.0,-0.009386916336718284,11.726071104642834,0.0,-0.4270365302462003,0.0,0.0,0.0,41.880222207305565,0.7309477689843293,0.031146985838700417,0.0,0.0,0.0,0.0,0.0,-0.004669214667296933,-0.2675262940766951,0.0,0.0,11.733844372127335,0.009386916336718284,0.03448189594794832,-0.03640161235223725,-2.0856587552544794,0.0,0.0,0.03173239768494032,1.8181324611777847,-6.43862624404422,0.0,2.293655327909743,11.727937199506188,0.0,-0.3722805309753033,0.0,46.12931880806143,0.0,0.0,0.7309477689843293,0.0,-0.3901388925702834,0.3490658503988659,1.0,0.14,0.14,0.75,0.08726646259971647,5.0,0.184,0.175,0.174,0.0,0.0,0.0,-0.4426711452558562,0.0,0.08950055003282291,0.0,5.955491493702551,0.0,-0.5787425505428345,0.0,0.15582634025404338,0.0,-3.3043808968376003,0.0,0.09564558390708584,0.0,-0.035922218952200484,0.35418271611204116,0.22458678913446908,0.14457011109178503,0.0,0.0,0.0,0.38015210140240074,0.14457011109178503,0.0,0.0,0.21017777843454288,0.0,0.0,0.004360578017418059,0.0,1.7068421961020226,0.0,4.488200518837001,0.0,0.3473998999435106,0.0,84.33091653652384,-1.8690531284534406,0.0,-4.4231091533785944,0.0,0.3473998999435106,0.0
sim_raptor_glider_3dof,raptor_glider_3dof,0.039,-14.537564107491065,0.0,-0.009762364895584595,11.71964053311562,0.0,-0.4245189563980544,0.0,0.0,0.0,44.51579555010063,0.7769472014938963,0.03312550353875654,0.0,0.0,0.0,0.0,0.0,-0.003915245528541857,-0.22432704454291572,0.0,0.0,11.727326659123461,0.009762364895584595,0.034462742540549124,-0.03620703479470939,-2.074510282420169,0.0,0.0,0.032291789266167534,1.8501832378772534,-6.422675579420905,0.0,2.7398168298923586,11.721212798880293,0.0,-0.3786305496822084,0.0,45.86949569603306,0.0,0.0,0.7769472014938963,0.0,-0.3901388925702834,0.3490658503988659,1.0,0.14,0.14,0.75,0.08726646259971647,5.0,0.184,0.175,0.174,0.0,0.0,0.0,-0.4423772143946484,0.0,0.08956170511763117,0.0,5.9558848152151525,0.0,-0.5786509376882711,0.0,0.15604517803755993,0.0,-3.3054079860227192,0.0,0.0955167972505716,0.0,-0.03596940339459698,0.3549778904670399,0.2245553861944749,0.1445985651473425,0.0,0.0,0.0,0.38259872616023693,0.1445985651473425,0.0,0.0,0.20922632364315075,0.0,0.0,0.004637570495425916,0.0,1.7052821131660356,0.0,4.512069421825469,0.0,0.345443172086825,0.0,84.23725719686644,-1.8674974282368615,0.0,-4.447382478310714,0.0,0.345443172086825,0.0
sim_raptor_glider_3dof,raptor_glider_3dof,0.04,-14.525846259564721,0.0,-0.010144206118963177,11.713225431928583,0.0,-0.4215602264627657,0.0,0.0,0.0,47.13647334273479,0.8226866576092596,0.03509513120290092,0.0,0.0,0.0,0.0,0.0,-0.0031154069217812974,-0.1784996680839117,0.0,0.0,11.720808975651547,0.010144206118963177,0.0344435892199346,-0.035974579018065965,-2.0611915474950653,0.0,0.0,0.03285917209628467,1.8826918794111533,-6.407691024316439,0.0,3.1759928454364275,11.714481918618425,0.0,-0.38506677612569046,0.0,45.60936416276331,0.0,0.0,0.8226866576092596,0.0,-0.3901388925702834,0.3490658503988659,1.0,0.14,0.14,0.75,0.08726646259971647,5.0,0.184,0.175,0.174,0.0,0.0,0.0,-0.44202595854924825,0.0,0.08963465810192438,0.0,5.956354604683961,0.0,-0.5785414605929677,0.0,0.15630650405900098,0.0,-3.306634946345537,0.0,0.09536288329363887,0.0,-0.03602583907283679,0.35592783173751263,0.22451776272801,0.1446326478037152,0.0,0.0,0.0,0.3851932982254468,0.1446326478037152,0.0,0.0,0.20827121250851685,0.0,0.0,0.00491331836840613,0.0,1.7037886518302472,0.0,4.537619826805951,0.0,0.34348412150977053,0.0,84.14365031995224,-1.8658900298154464,0.0,-4.473404057243578,0.0,0.34348412150977053,0.0
sim_raptor_glider_3dof,raptor_glider_3dof,0.04,-14.525846259564721,0.0,-0.010144206118963177,11.713225431928583,0.0,-0.4215602264627657,0.0,0.0,0.0,47.13647334273479,0.8226866576092596,0.03509513120290092,0.0,0.0,0.0,0.0,0.0,-0.0031154069217812974,-0.1784996680839117,0.0,0.0,11.720808975651547,0.010144206118963177,0.0344435892199346,-0.035974579018065965,-2.0611915474950653,0.0,0.0,0.03285917209628467,1.8826918794111533,-6.044556370552793,0.0,2.4109628458917793,11.714481918618425,0.0,-0.38506677612569046,0.0,37.13532794571819,0.0,0.0,0.8226866576092596,0.0,-0.3514163004463663,0.3490658503988659,1.0,0.14,0.14,0.75,0.08726646259971647,5.0,0.184,0.175,0.174,0.0,0.0,0.0,-0.26353112290751396,0.0,0.06165536163198606,0.0,5.971545979400701,0.0,-0.5544080977800607,0.0,0.1535053133302119,0.0,-3.357921210173408,0.0,0.043344003172472376,0.0,-0.027510652540444592,0.37339593030165036,0.18607379578227543,0.13551862217335267,0.0,0.0,0.0,0.4027360368500216,0.13551862217335267,0.0,0.0,0.16957525982066987,0.0,0.0,0.00491331836840613,0.0,1.5964244178394842,0.0,4.744275235833227,0.0,0.2796661547592037,0.0,84.14365031995224,-1.7660280000304436,0.0,-4.683787307118356,0.0,0.2796661547592037,0.0
sim_raptor_glider_3dof,raptor_glider_3dof,0.041,-14.51413496492809,0.0,-0.010532912461598286,11.707186286888216,0.0,-0.4189728923338364,0.0,0.0,0.0,49.25806439766941,0.8597154068987286,0.03669393186306142,0.0,0.0,0.0,0.0,0.0,-0.0022741946890414344,-0.13030175747314085,0.0,0.0,11.714680919274501,0.010532912461598286,0.03442558088475859,-0.03577240097549766,-2.049607598945685,0.0,0.0,0.03349820628645622,1.919305841472544,-6.0337764005464685,0.0,2.763176713429093,11.708108837448252,0.0,-0.39234741095128645,0.0,36.9222128915864,0.0,0.0,0.8597154068987286,0.0,-0.3514163004463663,0.3490658503988659,1.0,0.14,0.14,0.75,0.08726646259971647,5.0,0.184,0.175,0.174,0.0,0.0,0.0,-0.2633470153429784,0.0,0.06169288847454008,0.0,5.971797546040449,0.0,-0.5543428606956844,0.0,0.1537347532367884,0.0,-3.3586474106828423,0.0,0.04323969829326253,0.0,-0.027547192383708098,0.3742302174957027,0.1860324061869497,0.13554633443956454,0.0,0.0,0.0,0.4049082400113195,0.13554633443956454,0.0,0.0,0.16877852909339955,0.0,0.0,0.005137150460828599,0.0,1.5950816314460363,0.0,4.764877624567312,0.0,0.27806118528653717,0.0,84.05568672677377,-1.7644759174024682,0.0,-4.704781495987406,0.0,0.27806118528653717,0.0
sim_raptor_glider_3dof,raptor_glider_3dof,0.042,-14.502430046455393,0.0,-0.010928932058765979,11.70115756965086,0.0,-0.4160370902842884,0.0,0.0,0.0,51.367435665042244,0.8965308806613502,0.03828530327329343,0.0,0.0,0.0,0.0,0.0,-0.0013960580350565093,-0.0799882333640647,0.0,0.0,11.708551376250174,0.010928932058765979,0.034407568180816875,-0.03554023663096983,-2.036305561850819,0.0,0.0,0.034144178595913316,1.956317328486754,-6.023756504929206,0.0,3.107424527006474,11.701726978737263,0.0,-0.39970119512245805,0.0,36.70868142174745,0.0,0.0,0.8965308806613502,0.0,-0.3514163004463663,0.3490658503988659,1.0,0.14,0.14,0.75,0.08726646259971647,5.0,0.184,0.175,0.174,0.0,0.0,0.0,-0.26313553668842393,0.0,0.061735914002076356,0.0,5.972086270817502,0.0,-0.5542679059326323,0.0,0.15399814896889577,0.0,-3.3594812079974803,0.0,0.0431198845416816,0.0,-0.027589203063683565,0.3751881754349402,0.1859848001572273,0.13557825227351317,0.0,0.0,0.0,0.407198214202293,0.13557825227351317,0.0,0.0,0.16797817419275138,0.0,0.0,0.005359942458261081,0.0,1.5937880694193756,0.0,4.786812374415579,0.0,0.27645307978718003,0.0,83.9677478131699,-1.7628702442867785,0.0,-4.72715787972963,0.0,0.27645307978718003,0.0
sim_raptor_glider_3dof,raptor_glider_3dof,0.043000000000000003,-14.490731515053058,0.0,-0.01133234887911986,11.695138439393737,0.0,-0.4127613992053406,0.0,0.0,0.0,53.464559685273244,0.9331325996370413,0.03986921489045808,0.0,0.0,0.0,0.0,0.0,-0.0004812248283039425,-0.02757215165872359,0.0,0.0,11.702420052675384,0.01133234887911986,0.034389550244425,-0.03527877393700554,-2.021324852986545,0.0,0.0,0.0347975491087016,1.9937527013278211,-6.014516326856453,0.0,3.443847818476609,11.695335716255062,0.0,-0.40713336064198014,0.0,36.494749207068715,0.0,0.0,0.9331325996370413,0.0,-0.3514163004463663,0.3490658503988659,1.0,0.14,0.14,0.75,0.08726646259971647,5.0,0.184,0.175,0.174,0.0,0.0,0.0,-0.26289728720620376,0.0,0.061784281990138086,0.0,5.972411233820861,0.0,-0.5541834390351743,0.0,0.15429469040483865,0.0,-3.360420086503083,0.0,0.04298490062720353,0.0,-0.027636579668562058,0.3762669359666802,0.18593108801871946,0.13561432063135617,0.0,0.0,0.0,0.40960308453203476,0.13561432063135617,0.0,0.0,0.16717426454157902,0.0,0.0,0.005581690084664132,0.0,1.5925428510141155,0.0,4.810041159281506,0.0,0.2748419562784345,0.0,83.87982939938942,-1.7612090780919523,0.0,-4.750876894800037,0.0,0.2748419562784345,0.0
sim_raptor_glider_3dof,raptor_glider_3dof,0.044,-14.479039378850294,0.0,-0.011743230642396617,11.68912822880952,0.0,-0.4091523675952225,0.0,0.0,0.0,55.5494172304731,0.9695202282358253,0.04144564196227975,0.0,0.0,0.0,0.0,0.0,0.0004701245358677003,0.02693615175076592,0.0,0.0,11.696286778694356,0.011743230642396617,0.03437152657643291,-0.034988528221561996,-2.0046949984698745,0.0,0.0,0.035458652757429696,2.0316311502206403,-6.006075128017361,0.0,3.772557456675555,11.688934584501226,0.0,-0.4146476681612323,0.0,36.28042369717715,0.0,0.0,0.9695202282358253,0.0,-0.3514163004463663,0.3490658503988659,1.0,0.14,0.14,0.75,0.08726646259971647,5.0,0.184,0.175,0.174,0.0,0.0,0.0,-0.2626327074505051,0.0,0.06183786458440637,0.0,5.972771722469768,0.0,-0.5540896085904345,0.0,0.15462376076310205,0.0,-3.361462146393092,0.0,0.04283499427444811,0.0,-0.027689249492482266,0.37746433914315636,0.18587134237620043,0.13565451239370108,0.0,0.0,0.0,0.41212068930962387,0.13565451239370108,0.0,0.0,0.1663668284537174,0.0,0.0,0.005802389874719166,0.0,1.5913454596878736,0.0,4.834534260629277,0.0,0.27322787086344114,0.0,83.79192909186712,-1.7594902265109595,0.0,-4.775907875166761,0.0,0.27322787086344114,0.0
