name,vehicle,t,north,east,down,u,v,w,p_rad,p_deg,p_hat_div_b,q_deg,q_rad,q_hat_div_c,r_rad,r_deg,r_hat_div_b,phi_rad,phi_deg,theta_rad,theta_deg,psi_rad,psi_deg,speed,altitude,mach,alpha_rad,alpha_deg,beta_rad,beta_deg,gamma_rad,gamma_deg,u_dot,v_dot,w_dot,north_dot,east_dot,down_dot,p_rad_dot,q_rad_dot,r_rad_dot,phi_rad_dot,theta_rad_dot,psi_rad_dot,del_tail_alt_rad,del_tail_splay_rad,DIM_b,DIM_c_bar,DIM_S,DIM_wing_position,DIM_wing_incidence_rad,DIM_wing_incidence_deg,DIM_empennage_length,DIM_nose_length,DIM_tail_length,CDp,CDq,CDr,CYp,CYq,CYr,CLp,CLq,CLr,Clp,Clq,Clr,Cmp,Cmq,Cmr,Cnp,Cnq,Cnr,CL_0,Cm_0,CD_0,Cl_0,CY_0,Cn_0,CL,CD,CY,Cl,Cm,Cn,p_hat,q_hat,r_hat,drag_force_wind,side_force_wind,lift_force_wind,roll_moment_wind,pitch_moment_wind,yaw_moment_wind,qbar,X_total,Y_total,Z_total,L_total,M_total,N_total
sim_raptor_glider_3dof,raptor_glider_3dof,0.0,-15.0,0.0,0.0,12.0,0.0,0.0,0.0,0.0,0.0,0.0,0.0,0.0,0.0,0.0,0.0,0.0,0.0,0.0,0.0,0.0,0.0,12.0,-0.0,0.035264039495724236,0.0,0.0,0.0,0.0,0.0,0.0,-7.487178041450953,0.0,-25.024054441263395,12.0,0.0,0.0,0.0,-89.41363838472799,0.0,0.0,0.0,0.0,0.4363323129985824,0.3490658503988659,1.0,0.14,0.14,0.75,0.08726646259971647,5.0,0.184,0.175,0.174,0.0,0.0,0.0,-0.053153656886407115,0.0,0.055671173493162154,0.0,6.024209384397437,0.0,-0.5269202128147928,0.0,0.19813275846416445,0.0,-3.4552995296441478,0.0,-0.03588346466142729,0.0,-0.029845922084054996,0.7757079658211316,-0.38952171953159265,0.1667455120831285,0.0,0.0,0.0,0.7757079658211316,0.1667455120831285,0.0,0.0,-0.38952171953159265,0.0,0.0,0.0,0.0,2.0589739613990123,0.0,9.578443721347433,0.0,-0.6733741106753866,0.0,88.20001620075907,-2.0589739613990123,0.0,-9.578443721347433,0.0,-0.6733741106753866,0.0
sim_raptor_glider_3dof,raptor_glider_3dof,0.001,-14.988003746590733,0.0,-0.000012415174634177188,11.992502827180262,0.0,-0.02526770405029525,0.0,0.0,0.0,-5.103039651887635,-0.0890648437852645,-0.0037133468875430262,0.0,0.0,0.0,0.0,0.0,-0.000044590487564095195,-0.0025548467438532376,0.0,0.0,11.992529446150822,0.000012415174634177188,0.03524208600355821,-0.002106955238988487,-0.12071964281701804,0.0,0.0,0.002062364751424392,0.1181647960731648,-7.507675599275719,0.0,-25.508550485583747,11.99250394195709,0.0,-0.024732952477174667,0.0,-88.71856693472195,0.0,0.0,-0.0890648437852645,0.0,0.4363323129985824,0.3490658503988659,1.0,0.14,0.14,0.75,0.08726646259971647,5.0,0.184,0.175,0.174,0.0,0.0,0.0,-0.053430186057496054,0.0,0.0554080780660455,0.0,6.0240249874908525,0.0,-0.5274002219771142,0.0,0.1957017793236076,0.0,-3.453669819760639,0.0,-0.03525814560644711,0.0,-0.029499655008724115,0.7671435812705255,-0.38877083359862435,0.165760584735996,0.0,0.0,0.0,0.7640118800492363,0.165760584735996,0.0,0.0,-0.386975379228011,0.0,0.0,-0.0005198685642560238,0.0,2.0442643995802876,0.0,9.422277857722193,0.0,-0.6681395275853911,0.0,88.09023322213056,-2.064112165078258,0.0,-9.417949773357746,0.0,-0.6681395275853911,0.0
sim_raptor_glider_3dof,raptor_glider_3dof,0.002,-14.976014997218163,0.0,-0.000049270492086499364,11.984983638081903,0.0,-0.051011581957007696,0.0,0.0,0.0,-10.166686259086081,-0.1774421492383174,-0.0074026192836820276,0.0,0.0,0.0,0.0,0.0,-0.00017790069037163533,-0.010192958730758345,0.0,0.0,11.985092197667264,0.000049270492086499364,0.03522023038486956,-0.004256265628603735,-0.24386605700559036,0.0,0.0,0.0040783649382321,0.233673098274832,-7.5312069778045,0.0,-25.97647568606275,11.984992523423195,0.0,-0.04887944429772272,0.0,-88.03854836579413,0.0,0.0,-0.1774421492383174,0.0,0.4363323129985824,0.3490658503988659,1.0,0.14,0.14,0.75,0.08726646259971647,5.0,0.184,0.175,0.174,0.0,0.0,0.0,-0.05371000072613438,0.0,0.05518325282971427,0.0,6.023796383437123,0.0,-0.5278990096560925,0.0,0.1932332307470952,0.0,-3.4519868033346692,0.0,-0.03462545852853912,0.0,-0.029153229463314653,0.758374006898808,-0.388063512765844,0.16478068235403653,0.0,0.0,0.0,0.7521311449211472,0.16478068235403653,0.0,0.0,-0.38448598859501065,0.0,0.0,-0.001036366699715484,0.0,2.0296598650783366,0.0,9.264255835778041,0.0,-0.6630183077427956,0.0,87.98100758981425,-2.069072495287059,0.0,-9.25553317577674,0.0,-0.6630183077427956,0.0
sim_raptor_glider_3dof,raptor_glider_3dof,0.003,-14.964033765483153,0.0,-0.00010997650410396534,11.977439408842296,0.0,-0.07721526894416839,0.0,0.0,0.0,-15.191799193026208,-0.2651469152201249,-0.011068367643203196,0.0,0.0,0.0,0.0,0.0,-0.0003992506169425001,-0.022875375318799577,0.0,0.0,11.97768829909372,0.00010997650410396534,0.035198472770559576,-0.006446636600632963,-0.3693650692708328,0.0,0.0,0.006047385983690463,0.3464896939520332,-7.557751963901034,0.0,-26.428240508352538,11.977469282477013,0.0,-0.07243326284374174,0.0,-87.37346069275941,0.0,0.0,-0.2651469152201249,0.0,0.4363323129985824,0.3490658503988659,1.0,0.14,0.14,0.75,0.08726646259971647,5.0,0.184,0.175,0.174,0.0,0.0,0.0,-0.0539933342342998,0.0,0.0549956890768542,0.0,6.023523849844041,0.0,-0.5284156910211553,0.0,0.1907277346999606,0.0,-3.450251759098094,0.0,-0.033984927296559594,0.0,-0.028807107836358457,0.7494038488665931,-0.387399686775176,0.16380724554970857,0.0,0.0,0.0,0.7400699681597184,0.16380724554970857,0.0,0.0,-0.38205327508479314,0.0,0.0,-0.0015495714700484477,0.0,2.015177614704102,0.0,9.104435082498677,0.0,-0.6580095324771711,0.0,87.87233904709669,-2.0738283182350847,0.0,-9.09125486919839,0.0,-0.6580095324771711,0.0
sim_raptor_glider_3dof,raptor_glider_3dof,0.004,-14.95206006146447,0.0,-0.00019393750269191865,11.969867139046595,0.0,-0.10386280993339823,0.0,0.0,0.0,-20.179227607931264,-0.35219396226773997,-0.01471113674262299,0.0,0.0,0.0,0.0,0.0,-0.0007079751977142588,-0.040563990828967035,0.0,0.0,11.970317740549529,0.00019393750269191865,0.03517681313159225,-0.008676805031272569,-0.49714430794979647,0.0,0.0,0.00796882983355831,0.4565803171208294,-7.587282867422961,0.0,-26.864252771312174,11.96993767151242,0.0,-0.09538841555743248,0.0,-86.72306067972036,0.0,0.0,-0.35219396226773997,0.0,0.4363323129985824,0.3490658503988659,1.0,0.14,0.14,0.75,0.08726646259971647,5.0,0.184,0.175,0.174,0.0,0.0,0.0,-0.054280487125545326,0.0,0.054843901706905056,0.0,6.023207997132767,0.0,-0.5289492506950555,0.0,0.18818569052618506,0.0,-3.4484661334741316,0.0,-0.033335929119057396,0.0,-0.028461722112779208,0.7402377623774763,-0.38677875516894367,0.16284159593212236,0.0,0.0,0.0,0.727832609270965,0.16284159593212236,0.0,0.0,-0.37967643521108574,0.0,0.0,-0.0020595591439672187,0.0,2.000833340210975,0.0,8.942873240625298,0.0,-0.6531113699789741,0.0,87.76422654166264,-2.078352616244555,0.0,-8.925175978978858,0.0,-0.6531113699789741,0.0
sim_raptor_glider_3dof,raptor_glider_3dof,0.005,-14.94009389182307,0.0,-0.0003005518855746,11.962263859629724,0.0,-0.13093865674169305,0.0,0.0,0.0,-25.12980322664479,-0.4385978066832464,-0.01833146045868009,0.0,0.0,0.0,0.0,0.0,-0.0011034240774344013,-0.06322154265010774,0.0,0.0,11.962980463882431,0.0003005518855746,0.035155251297077285,-0.010945539172903748,-0.6271331991024985,0.0,0.0,0.009842115095469346,0.5639116564523908,-7.619764933048298,0.0,-27.284916404279006,11.96240105817221,0.0,-0.11773912974501546,0.0,-86.08698535636344,0.0,0.0,-0.4385978066832464,0.0,0.4363323129985824,0.3490658503988659,1.0,0.14,0.14,0.75,0.08726646259971647,5.0,0.184,0.175,0.174,0.0,0.0,0.0,-0.05457182683161292,0.0,0.05472593032343835,0.0,6.022849768199583,0.0,-0.529498543215881,0.0,0.18560727572066893,0.0,-3.446631540314975,0.0,-0.03267769521599154,0.0,-0.028117473742245224,0.7308804509402165,-0.3861995880247053,0.16188493539638366,0.0,0.0,0.0,0.7154233824078116,0.16188493539638366,0.0,0.0,-0.37735413745313595,0.0,0.0,-0.002566404464215213,0.0,1.9866411722863777,0.0,8.779628219436473,0.0,-0.6483210867187731,0.0,87.65666831823584,-2.0826180146542357,0.0,-8.757357879177162,0.0,-0.6483210867187731,0.0
sim_raptor_glider_3dof,raptor_glider_3dof,0.006,-14.92813525992473,0.0,-0.0004292124397594923,11.954626639550906,0.0,-0.15842765930436845,0.0,0.0,0.0,-30.04433358782197,-0.5243725426750143,-0.02192985685369944,0.0,0.0,0.0,0.0,0.0,-0.0015849610904613313,-0.09081158117588696,0.0,0.0,11.955676367913814,0.0004292124397594923,0.03513378696968413,-0.01325163807797221,-0.7592629335026617,0.0,0.0,0.01166667698751088,0.6684513523267749,-7.65515672930522,0.0,-27.690630360815796,11.954862725505864,0.0,-0.13947985016959272,0.0,-85.46475387002384,0.0,0.0,-0.5243725426750143,0.0,0.4363323129985824,0.3490658503988659,1.0,0.14,0.14,0.75,0.08726646259971647,5.0,0.184,0.175,0.174,0.0,0.0,0.0,-0.05486778710977721,0.0,0.05463934182373924,0.0,6.022450437086101,0.0,-0.5300622937916623,0.0,0.18299244783751023,0.0,-3.444749760445701,0.0,-0.03200931203935526,0.0,-0.02777473367758559,0.7213366671206888,-0.3856605284654083,0.16093834608201854,0.0,0.0,0.0,0.7028466604815571,0.16093834608201854,0.0,0.0,-0.37508452678533377,0.0,0.0,-0.003070179959517922,0.0,1.9726136922696764,0.0,8.61475825857789,0.0,-0.6436350613951496,0.0,87.54966199755503,-2.0865968109073574,0.0,-8.58786227075033,0.0,-0.6436350613951496,0.0
sim_raptor_glider_3dof,raptor_glider_3dof,0.007,-14.916184165882276,0.0,-0.0005793064854676666,11.946952592434664,0.0,-0.18631506489291877,0.0,0.0,0.0,-34.923595341205655,-0.6095317253381911,-0.025506823267053384,0.0,0.0,0.0,0.0,0.0,-0.00215196395569408,-0.12329845232554847,0.0,0.0,11.94840531406963,0.0005793064854676666,0.03511241974218939,-0.015593931681301612,-0.8934664713539263,0.0,0.0,0.013441967725607532,0.7701680190283778,-7.693410528399182,0.0,-28.081787400130356,11.947325872576652,0.0,-0.1606052419691676,0.0,-84.85576962259707,0.0,0.0,-0.6095317253381911,0.0,0.4363323129985824,0.3490658503988659,1.0,0.14,0.14,0.75,0.08726646259971647,5.0,0.184,0.175,0.174,0.0,0.0,0.0,-0.05516886739682447,0.0,0.05458123429015566,0.0,6.022011606567932,0.0,-0.5306390995932566,0.0,0.18034094615955698,0.0,-3.442822740123928,0.0,-0.031329722669104235,0.0,-0.027433842397851762,0.7116112100401488,-0.3851593965008954,0.16000279048359145,0.0,0.0,0.0,0.6901068760336266,0.16000279048359145,0.0,0.0,-0.3728652305367967,0.0,0.0,-0.0035709552573874744,0.0,1.9587619456352325,0.0,8.448321951825605,0.0,-0.6390488010277785,0.0,87.4432046606849,-2.090261009781001,0.0,-8.416751218395161,0.0,-0.6390488010277785,0.0
sim_raptor_glider_3dof,raptor_glider_3dof,0.008,-14.904240606651282,0.0,-0.0007502161182813057,11.939238882633015,0.0,-0.21458650998107728,0.0,0.0,0.0,-39.768327695755914,-0.6940882563029905,-0.02906283149078703,0.0,0.0,0.0,0.0,0.0,-0.0028038236298313884,-0.16064726048838937,0.0,0.0,11.941167131685324,0.0007502161182813057,0.035091149113066274,-0.017971280258754233,-1.0296785112733915,0.0,0.0,0.015167456628922844,0.8690312507850021,-7.734472659743328,0.0,-28.458772998507442,11.939793614875626,0.0,-0.18111019026309105,0.0,-84.25932271685393,0.0,0.0,-0.6940882563029905,0.0,0.4363323129985824,0.3490658503988659,1.0,0.14,0.14,0.75,0.08726646259971647,5.0,0.184,0.175,0.174,0.0,0.0,0.0,-0.05547563193059443,0.0,0.054548242134604644,0.0,6.021535204946049,0.0,-0.5312274312413525,0.0,0.17765229454057654,0.0,-3.440852589499303,0.0,-0.030637728722487007,0.0,-0.027095110104628704,0.7017089249620452,-0.38469349440195466,0.1590791122370665,0.0,0.0,0.0,0.6772085241452388,0.1590791122370665,0.0,0.0,-0.37069336574289874,0.0,0.0,-0.004068796408710184,0.0,1.9450954633896698,0.0,8.280378294547667,0.0,-0.634556959380627,0.0,87.33729292823296,-2.0935823601488033,0.0,-8.244087212286694,0.0,-0.634556959380627,0.0
sim_raptor_glider_3dof,raptor_glider_3dof,0.009000000000000001,-14.892304576113405,0.0,-0.0009413184291606596,11.931482731000013,0.0,-0.24322801242629782,0.0,0.0,0.0,-44.57922600410458,-0.7780542717623,-0.03259832301805841,0.0,0.0,0.0,0.0,0.0,-0.0035399435977275817,-0.2028238278641469,0.0,0.0,11.933961623290918,0.0009413184291606596,0.03506997450201568,-0.020382573901800104,-1.1678354601866447,0.0,0.0,0.01684263030407252,0.9650116323224979,-7.778283843616755,0.0,-28.821964269395146,11.932268984822977,0.0,-0.20098980076623565,0.0,-83.67459264387269,0.0,0.0,-0.7780542717623,0.0,0.4363323129985824,0.3490658503988659,1.0,0.14,0.14,0.75,0.08726646259971647,5.0,0.184,0.175,0.174,0.0,0.0,0.0,-0.055788708736007504,0.0,0.0545365423304085,0.0,6.021023482042527,0.0,-0.531825634606743,0.0,0.17492580464570248,0.0,-3.4388415806117196,0.0,-0.029931992558805562,0.0,-0.02675881698380161,0.6916347024036031,-0.3842596132891834,0.15816803727685969,0.0,0.0,0.0,0.6641561648322319,0.15816803727685969,0.0,0.0,-0.3685655476778038,0.0,0.0,-0.004563765222528177,0.0,1.9316222876944662,0.0,8.110986723910683,0.0,-0.6301533572010052,0.0,87.23192303897322,-2.096532395351765,0.0,-8.0699332223392,0.0,-0.6301533572010052,0.0
sim_raptor_glider_3dof,raptor_glider_3dof,0.01,-14.88037606515921,0.0,-0.0011519857253842968,11.923681420343334,0.0,-0.27222596258209436,0.0,0.0,0.0,-49.356935507178044,-0.8614410332947542,-0.03611370438294382,0.0,0.0,0.0,0.0,0.0,-0.004359739052099519,-0.24979464746366856,0.0,0.0,11.926788569792983,0.0011519857253842968,0.03504889526519434,-0.022826731891997996,-1.3078753974881616,0.0,0.0,0.01846699283989848,1.058080750024493,-7.824779502619,0.0,-29.171728920063018,11.924754932281528,0.0,-0.22023940058925584,0.0,-83.10065118556057,0.0,0.0,-0.8614410332947542,0.0,0.4363323129985824,0.3490658503988659,1.0,0.14,0.14,0.75,0.08726646259971647,5.0,0.184,0.175,0.174,0.0,0.0,0.0,-0.05610878847395166,0.0,0.05454186162840115,0.0,6.020479004498773,0.0,-0.5324319328652451,0.0,0.17216057968112747,0.0,-3.4367921450673697,0.0,-0.02921103978427371,0.0,-0.02642521354291394,0.6813934773072167,-0.3838540408424605,0.15727017538811427,0.0,0.0,0.0,0.6509544254455103,0.15727017538811427,0.0,0.0,-0.3664778994650984,0.0,0.0,-0.0050559186136121355,0.0,1.9183490019530007,0.0,7.940207158086878,0.0,-0.6258310040784566,0.0,87.12709092666549,-2.099082476605616,0.0,-7.894352751368246,0.0,-0.6258310040784566,0.0
sim_raptor_glider_3dof,raptor_glider_3dof,0.01,-14.88037606515921,0.0,-0.0011519857253842968,11.923681420343334,0.0,-0.27222596258209436,0.0,0.0,0.0,-49.356935507178044,-0.8614410332947542,-0.03611370438294382,0.0,0.0,0.0,0.0,0.0,-0.004359739052099519,-0.24979464746366856,0.0,0.0,11.926788569792983,0.0011519857253842968,0.03504889526519434,-0.022826731891997996,-1.3078753974881616,0.0,0.0,0.01846699283989848,1.058080750024493,-7.612166702297808,0.0,-16.05037440971801,11.924754932281528,0.0,-0.22023940058925584,0.0,66.12533730633037,0.0,0.0,-0.8614410332947542,0.0,-0.4363323129985824,0.3490658503988659,1.0,0.14,0.14,0.75,0.08726646259971647,5.0,0.184,0.175,0.174,0.0,0.0,0.0,-0.7053507282225941,0.0,0.14024112382929724,0.0,5.983684139745125,0.0,-0.6093857227888235,0.0,0.17540147379810928,0.0,-3.3636131955025412,0.0,0.16958039102989914,0.0,-0.053779545377791824,0.38535334696349544,0.27460978793110297,0.15923011282214325,0.0,0.0,0.0,0.35510032694338234,0.15923011282214325,0.0,0.0,0.29161594249523565,0.0,0.0,-0.0050559186136121355,0.0,1.9422559125365313,0.0,4.33144018631586,0.0,0.497989915253974,0.0,87.12709092666549,-2.040613956517288,0.0,-4.2859802610233695,0.0,0.497989915253974,0.0
sim_raptor_glider_3dof,raptor_glider_3dof,0.011,-14.868454984811294,0.0,-0.0013750998963309728,11.916077614215562,0.0,-0.28779860179719613,0.0,0.0,0.0,-45.57820310447498,-0.7954897113157895,-0.03336910953143795,0.0,0.0,0.0,0.0,0.0,-0.00518817417417885,-0.29726048355921936,0.0,0.0,11.919552581502614,0.0013750998963309728,0.03502763108378916,-0.02414743094454653,-1.383545879206119,0.0,0.0,0.01895925677036768,1.0862853956468999,-7.595231621538993,0.0,-15.097083638041603,11.917410383718163,0.0,-0.22597231965911088,0.0,65.77765024940312,0.0,0.0,-0.7954897113157895,0.0,-0.4363323129985824,0.3490658503988659,1.0,0.14,0.14,0.75,0.08726646259971647,5.0,0.184,0.175,0.174,0.0,0.0,0.0,-0.7087172812812736,0.0,0.13962979498068814,0.0,5.97935278742316,0.0,-0.6103273647254828,0.0,0.17398641397127093,0.0,-3.352957067435901,0.0,0.1708132668545285,0.0,-0.05332050375109557,0.38004285708487673,0.2747710060117205,0.15896827032984123,0.0,0.0,0.0,0.3521092621521882,0.15896827032984123,0.0,0.0,0.29043493284096733,0.0,0.0,-0.004671675334401313,0.0,1.936709866140612,0.0,4.289745875417145,0.0,0.495371484028255,0.0,87.02140290198241,-2.0397215230954577,0.0,-4.241733241198219,0.0,0.495371484028255,0.0
sim_raptor_glider_3dof,raptor_glider_3dof,0.012,-14.85654123980352,0.0,-0.00160387021993988,11.908491915793192,0.0,-0.3024279123378293,0.0,0.0,0.0,-41.81932877868518,-0.7298849781620754,-0.030635689439055595,0.0,0.0,0.0,0.0,0.0,-0.005950848099427122,-0.34095848062062134,0.0,0.0,11.912331524545177,0.00160387021993988,0.035006410780643496,-0.02539052988744338,-1.454770202151283,0.0,0.0,0.01943968178801626,1.1138117215306615,-7.5759964214671145,0.0,-14.163018649735536,11.910080753071442,0.0,-0.23155734924638144,0.0,65.4319641521821,0.0,0.0,-0.7298849781620754,0.0,-0.4363323129985824,0.3490658503988659,1.0,0.14,0.14,0.75,0.08726646259971647,5.0,0.184,0.175,0.174,0.0,0.0,0.0,-0.71188072879581,0.0,0.13904441935374293,0.0,5.975269446724542,0.0,-0.61121526562615,0.0,0.17265090857197696,0.0,-3.3429280562925743,0.0,0.17196912377217163,0.0,-0.052886262520920796,0.3750427188656649,0.2749211513979678,0.15872666815821246,0.0,0.0,0.0,0.34941480899383065,0.15872666815821246,0.0,0.0,0.2892589582029237,0.0,0.0,-0.004288996521467784,0.0,1.9314241237664413,0.0,4.251763103974727,0.0,0.4927681220300834,0.0,86.91599690469486,-2.0387445021228094,0.0,-4.201358053445552,0.0,0.4927681220300834,0.0
sim_raptor_glider_3dof,raptor_glider_3dof,0.013000000000000001,-14.84463481844049,0.0,-0.001838167227408414,11.900926338527592,0.0,-0.3161313067461401,0.0,0.0,0.0,-38.08021566669826,-0.6646251432534122,-0.027913406090325915,0.0,0.0,0.0,0.0,0.0,-0.006648065725390059,-0.3809061079904285,0.0,0.0,11.90512438902529,0.001838167227408414,0.03498523138800814,-0.026557342897946087,-1.5216236631340416,0.0,0.0,0.019909277172556028,1.1407175551436133,-7.5547048451350935,0.0,-13.24788845671096,11.902764994421199,0.0,-0.2370067630809313,0.0,65.08810654577846,0.0,0.0,-0.6646251432534122,0.0,-0.4363323129985824,0.3490658503988659,1.0,0.14,0.14,0.75,0.08726646259971647,5.0,0.184,0.175,0.174,0.0,0.0,0.0,-0.7148453428745692,0.0,0.13848655854922673,0.0,5.971431500285224,0.0,-0.6120499035658734,0.0,0.1713940006591184,0.0,-3.333515258652601,0.0,0.17305016934149886,0.0,-0.052477208682966514,0.37034817872777953,0.2750603680901631,0.15850398356521903,0.0,0.0,0.0,0.34701255979065593,0.15850398356521903,0.0,0.0,0.2880873352073926,0.0,0.0,-0.003907876852645629,0.0,1.9263813491542967,0.0,4.217424118100814,0.0,0.49017853039625764,0.0,86.81085781047153,-2.0376924709933877,0.0,-4.164783390281518,0.0,0.49017853039625764,0.0
sim_raptor_glider_3dof,raptor_glider_3dof,0.014,-14.832735705815033,0.0,-0.002077848448390954,11.893383034461346,0.0,-0.3289293518264635,0.0,0.0,0.0,-34.36075241872689,-0.5997082631693895,-0.025202208652010397,0.0,0.0,0.0,0.0,0.0,-0.007280203418315716,-0.41712492986620553,0.0,0.0,11.89793068238784,0.002077848448390954,0.03496409145842616,-0.02764945224519281,-1.584196919498066,0.0,0.0,0.020369248826877094,1.1670719896318607,-7.531594724119629,0.0,-12.35134763368357,11.895462504542868,0.0,-0.24233515205316136,0.0,64.74594022006437,0.0,0.0,-0.5997082631693895,0.0,-0.4363323129985824,0.3490658503988659,1.0,0.14,0.14,0.75,0.08726646259971647,5.0,0.184,0.175,0.174,0.0,0.0,0.0,-0.7176160058098014,0.0,0.13795735441709228,0.0,5.967835157210356,0.0,-0.6128320360257293,0.0,0.1702144595522874,0.0,-3.324705667668265,0.0,0.174058731421612,0.0,-0.052093436918633475,0.36595329465701143,0.27518891780635846,0.15829898665380174,0.0,0.0,0.0,0.34489692690041684,0.15829898665380174,0.0,0.0,0.28691950743839206,0.0,0.0,-0.0035283092112814557,0.0,1.9215655851787885,0.0,4.186647553311099,0.0,0.4876016757973048,0.0,86.70597807161099,-2.036574883754798,0.0,-4.131923859009075,0.0,0.4876016757973048,0.0
sim_raptor_glider_3dof,raptor_glider_3dof,0.015,-14.82084388938958,0.0,-0.002322802579058901,11.885863658071663,0.0,-0.34084004691783776,0.0,0.0,0.0,-30.660848174657197,-0.5351327521018615,-0.022502061207921094,0.0,0.0,0.0,0.0,0.0,-0.00784759547539516,-0.4496341000661035,0.0,0.0,11.890749633048861,0.002322802579058901,0.03494298872446695,-0.028668229461340212,-1.6425685542473996,0.0,0.0,0.020820633985945053,1.192934454181296,-7.50689283991108,0.0,-11.473089182624243,11.888172413306688,0.0,-0.24755505922010723,0.0,64.40534352463473,0.0,0.0,-0.5351327521018615,0.0,-0.4363323129985824,0.3490658503988659,1.0,0.14,0.14,0.75,0.08726646259971647,5.0,0.184,0.175,0.174,0.0,0.0,0.0,-0.7201969947504068,0.0,0.13745778967243655,0.0,5.964477067585702,0.0,-0.6135623446960756,0.0,0.16911128578863008,0.0,-3.3164880270693913,0.0,0.17499682800802388,0.0,-0.05173494934944305,0.361852879535955,0.27530710337109604,0.15811061592510745,0.0,0.0,0.0,0.3430630556092273,0.15811061592510745,0.0,0.0,0.28575499769235946,0.0,0.0,-0.0031502885691089533,0.0,1.9169629039227793,0.0,4.1593611375266,0.0,0.4850366420840242,0.0,86.60134609407119,-2.035400399954803,0.0,-4.10270362800513,0.0,0.4850366420840242,0.0
sim_raptor_glider_3dof,raptor_glider_3dof,0.016,-14.808959357188973,0.0,-0.002572927638988157,11.878369688568672,0.0,-0.35188149500092675,0.0,0.0,0.0,-26.980416176003168,-0.47089709582959316,-0.019812929834317893,0.0,0.0,0.0,0.0,0.0,-0.008350582077878256,-0.4784531095400094,0.0,0.0,11.883580564999384,0.002572927638988157,0.03492192119956326,-0.02961505875414294,-1.6968178766443522,0.0,0.0,0.02126447667626468,1.2183647671043427,-7.480817263150468,0.0,-10.612802267829498,11.880893919580398,0.0,-0.2526790780982875,0.0,64.06621336014618,0.0,0.0,-0.47089709582959316,0.0,-0.4363323129985824,0.3490658503988659,1.0,0.14,0.14,0.75,0.08726646259971647,5.0,0.184,0.175,0.174,0.0,0.0,0.0,-0.7225925522847823,0.0,0.1369886122510987,0.0,5.961353624443259,0.0,-0.6142415836381853,0.0,0.16808346220737477,0.0,-3.3088510208649096,0.0,0.1758663875909697,0.0,-0.05140160587402089,0.35804161750400565,0.27541527887436074,0.15793792010842078,0.0,0.0,0.0,0.3415059541529945,0.15793792010842078,0.0,0.0,0.2845934035095658,0.0,0.0,-0.0027738101768045053,0.0,1.9125608106743428,0.0,4.135491363167205,0.0,0.48248265281526087,0.0,86.49695170289573,-2.034177082595004,0.0,-4.077045654147513,0.0,0.48248265281526087,0.0
sim_raptor_glider_3dof,raptor_glider_3dof,0.017,-14.797082097960116,0.0,-0.0028281331885893633,11.870902406838681,0.0,-0.3620715317121964,0.0,0.0,0.0,-23.319374709078065,-0.40699986817970707,-0.017134783481103193,0.0,0.0,0.0,0.0,0.0,-0.008789502442870665,-0.5036013939964161,0.0,0.0,11.876422851463516,0.0028281331885893633,0.0349008870418276,-0.030491305884108054,-1.7470231390018047,0.0,0.0,0.02170180344123739,1.2434217450053886,-7.453576978463193,0.0,-9.7701785925238,11.87362625204771,0.0,-0.2577195635729379,0.0,63.728460623858396,0.0,0.0,-0.40699986817970707,0.0,-0.4363323129985824,0.3490658503988659,1.0,0.14,0.14,0.75,0.08726646259971647,5.0,0.184,0.175,0.174,0.0,0.0,0.0,-0.7248068095852592,0.0,0.13655037695328717,0.0,5.958461098121986,0.0,-0.614870546870691,0.0,0.16712997995527712,0.0,-3.3017835174299957,0.0,0.17666923177683297,0.0,-0.05109316017490148,0.3545142024254324,0.2755138313132126,0.15778005076027893,0.0,0.0,0.0,0.3402206307138669,0.15778005076027893,0.0,0.0,0.28343437970738194,0.0,0.0,-0.002398869687354447,0.0,1.9083481306097534,0.0,4.1149651143421355,0.0,0.4799390369582776,0.0,86.39278546369668,-2.0329123036957486,0.0,-4.054873369827591,0.0,0.4799390369582776,0.0
sim_raptor_glider_3dof,raptor_glider_3dof,0.018000000000000002,-14.785212101320061,0.0,-0.003088342607482395,11.863462862075345,0.0,-0.3714276465673044,0.0,0.0,0.0,-19.67764754736684,-0.34343973874853817,-0.014467594427581866,0.0,0.0,0.0,0.0,0.0,-0.009164694222060404,-0.5250982994519925,0.0,0.0,11.8692758657163,0.003088342607482395,0.03487988440952217,-0.0312983115805495,-1.7932611594509151,0.0,0.0,0.022133617358489094,1.2681628599989228,-7.425371798997924,0.0,-8.944914087255327,11.866368622984181,0.0,-0.26268856071777646,0.0,63.39200652766464,0.0,0.0,-0.34343973874853817,0.0,-0.4363323129985824,0.3490658503988659,1.0,0.14,0.14,0.75,0.08726646259971647,5.0,0.184,0.175,0.174,0.0,0.0,0.0,-0.7268437721256449,0.0,0.13614347286463743,0.0,5.955795686412966,0.0,-0.6154500546654423,0.0,0.16624983937547963,0.0,-3.295274616440452,0.0,0.1774070796088846,0.0,-0.050809284094494055,0.35126537603532737,0.2756031672053001,0.1576362514381299,0.0,0.0,0.0,0.33920213092748835,0.1576362514381299,0.0,0.0,0.2822776247402433,0.0,0.0,-0.0020254632198614614,0.0,1.9043148540923165,0.0,4.097710079832167,0.0,0.4774052011598424,0.0,86.28883796530114,-2.031612680782069,0.0,-4.036111108128749,0.0,0.4774052011598424,0.0
sim_raptor_glider_3dof,raptor_glider_3dof,0.019000000000000003,-14.773349357614872,0.0,-0.003353490299232846,11.856051923444632,0.0,-0.3799670488070559,0.0,0.0,0.0,-16.055162332167914,-0.2802154446385016,-0.011811337066882744,0.0,0.0,0.0,0.0,0.0,-0.009476493880935535,-0.5429631039591563,0.0,0.0,11.86213902167709,0.003353490299232846,0.03485891158034937,-0.03203739690320927,-1.8356076291393846,0.0,0.0,0.02256090302227373,1.2926445251802283,-7.396392506506426,0.0,-8.136708231733925,11.859120268882467,0.0,-0.2675978657899245,0.0,63.056780384221916,0.0,0.0,-0.2802154446385016,0.0,-0.4363323129985824,0.3490658503988659,1.0,0.14,0.14,0.75,0.08726646259971647,5.0,0.184,0.175,0.174,0.0,0.0,0.0,-0.7287073356376152,0.0,0.13576814226428052,0.0,5.953353521917451,0.0,-0.6159809495098776,0.0,0.16544203898765558,0.0,-3.2893136002151353,0.0,0.17808156176460896,0.0,-0.05054958500306644,0.3482899165177397,0.2756837023505268,0.15750584600007367,0.0,0.0,0.0,0.33844552740014444,0.15750584600007367,0.0,0.0,0.281122869181642,0.0,0.0,-0.0016535871893635843,0.0,1.9004520013646429,0.0,4.083654646699372,0.0,0.47488061307357526,0.0,86.18510040953173,-2.030284063155592,0.0,-4.02068398483351,0.0,0.47488061307357526,0.0
sim_raptor_glider_3dof,raptor_glider_3dof,0.02,-14.761493857941932,0.0,-0.0036235222700987785,11.848670274951056,0.0,-0.3877066507509921,0.0,0.0,0.0,-12.451850550668714,-0.21732579007543806,-0.0091659879615066,0.0,0.0,0.0,0.0,0.0,-0.00972523666149849,-0.5572150154697623,0.0,0.0,11.855011755858586,0.0036235222700987785,0.03483796689840602,-0.03270986180283118,-1.874137029758409,0.0,0.0,0.022984625141332694,1.3169220142886466,-7.366820914843116,0.0,-7.345264676273084,11.85188043389624,0.0,-0.27245901007818857,0.0,62.72271714395866,0.0,0.0,-0.21732579007543806,0.0,-0.4363323129985824,0.3490658503988659,1.0,0.14,0.14,0.75,0.08726646259971647,5.0,0.184,0.175,0.174,0.0,0.0,0.0,-0.7304012848690851,0.0,0.13542450052882019,0.0,5.951130698752534,0.0,-0.6164640881920406,0.0,0.16470557281287354,0.0,-3.2838899406082938,0.0,0.17869422750512892,0.0,-0.05031362300399432,0.34558265311460584,0.27575585244018,0.15738822933954338,0.0,0.0,0.0,0.3379459341867093,0.15738822933954338,0.0,0.0,0.279969865832934,0.0,0.0,-0.0012832383146109242,0.0,1.8967514987939265,0.0,4.072728055139922,0.0,0.4723647828111527,0.0,86.08156434720898,-2.0289315060796707,0.0,-4.008518055708131,0.0,0.4723647828111527,0.0
sim_raptor_glider_3dof,raptor_glider_3dof,0.02,-14.761493857941932,0.0,-0.0036235222700987785,11.848670274951056,0.0,-0.3877066507509921,0.0,0.0,0.0,-12.451850550668714,-0.21732579007543806,-0.0091659879615066,0.0,0.0,0.0,0.0,0.0,-0.00972523666149849,-0.5572150154697623,0.0,0.0,11.855011755858586,0.0036235222700987785,0.03483796689840602,-0.03270986180283118,-1.874137029758409,0.0,0.0,0.022984625141332694,1.3169220142886466,-7.366820914843116,0.0,-7.345264676273084,11.85188043389624,0.0,-0.27245901007818857,0.0,62.72271714395866,0.0,0.0,-0.21732579007543806,0.0,-0.4363323129985824,0.3490658503988659,1.0,0.14,0.14,0.75,0.08726646259971647,5.0,0.184,0.175,0.174,0.0,0.0,0.0,-0.7304012848690851,0.0,0.13542450052882019,0.0,5.951130698752534,0.0,-0.6164640881920406,0.0,0.16470557281287354,0.0,-3.2838899406082938,0.0,0.17869422750512892,0.0,-0.05031362300399432,0.34558265311460584,0.27575585244018,0.15738822933954338,0.0,0.0,0.0,0.3379459341867093,0.15738822933954338,0.0,0.0,0.279969865832934,0.0,0.0,-0.0012832383146109242,0.0,1.8967514987939265,0.0,4.072728055139922,0.0,0.4723647828111527,0.0,86.08156434720898,-2.0289315060796707,0.0,-4.008518055708131,0.0,0.4723647828111527,0.0
sim_raptor_glider_3dof,raptor_glider_3dof,0.021,-14.74964559436695,0.0,-0.003898394493832915,11.841318452531631,0.0,-0.39466432613947183,0.0,0.0,0.0,-8.867644396279765,-0.1547695916111067,-0.006531523531071232,0.0,0.0,0.0,0.0,0.0,-0.009911276998730902,-0.56787434161237,0.0,0.0,11.84789359441556,0.003898394493832915,0.03481704897121737,-0.03331709111240194,-1.9089287063934564,0.0,0.0,0.023405814113671042,1.3410543647810864,-7.336830178428933,0.0,-6.570271799886573,11.844648414153252,0.0,-0.2772842759517605,0.0,62.3897582841724,0.0,0.0,-0.1547695916111067,0.0,-0.4363323129985824,0.3490658503988659,1.0,0.14,0.14,0.75,0.08726646259971647,5.0,0.184,0.175,0.174,0.0,0.0,0.0,-0.73192956263861,0.0,0.13511249855923102,0.0,5.949122941197802,0.0,-0.6169004119942954,0.0,0.16403931061105045,0.0,-3.2789924400703097,0.0,0.17924664839074944,0.0,-0.05010088820086308,0.3431380470225911,0.275820036430416,0.15728284061769593,0.0,0.0,0.0,0.3376980899154374,0.15728284061769593,0.0,0.0,0.2788183907096894,0.0,0.0,-0.0009144132943499727,0.0,1.8932058725562002,0.0,4.064855418862434,0.0,0.46985726963810237,0.0,85.97822265021884,-2.027559318156224,0.0,-3.9995351309238982,0.0,0.46985726963810237,0.0
sim_raptor_glider_3dof,raptor_glider_3dof,0.022,-14.737804558462654,0.0,-0.004178078484223343,11.83399674510258,0.0,-0.4008551918174518,0.0,0.0,0.0,-5.302483277706717,-0.09254579172792304,-0.003907925030581802,0.0,0.0,0.0,0.0,0.0,-0.010034934696817632,-0.5749594058170426,0.0,0.0,11.84078392032831,0.004178078484223343,0.03479615598556616,-0.03386024122837152,-1.9400489156805545,0.0,0.0,0.02382530653155389,1.3650895098635119,-7.306584132666381,0.0,-5.811460993376182,11.837423397034492,0.0,-0.2820836174715256,0.0,62.057841517839094,0.0,0.0,-0.09254579172792304,0.0,-0.4363323129985824,0.3490658503988659,1.0,0.14,0.14,0.75,0.08726646259971647,5.0,0.184,0.175,0.174,0.0,0.0,0.0,-0.7332954835955845,0.0,0.13483209872186677,0.0,5.947326656220809,0.0,-0.6172907164174394,0.0,0.16344233900377927,0.0,-3.274611755150874,0.0,0.1797401397191917,0.0,-0.04991092275092888,0.3409514592671246,0.2758766369484553,0.1571892102413532,0.0,0.0,0.0,0.33769762032843975,0.1571892102413532,0.0,0.0,0.27766820816253013,0.0,0.0,-0.0005471095042814524,0.0,1.8898087354279096,0.0,4.059972766896758,0.0,0.46735760447084623,0.0,85.87506613054957,-2.02617088088059,0.0,-3.993668424633487,0.0,0.46735760447084623,0.0
sim_raptor_glider_3dof,raptor_glider_3dof,0.023,-14.725970744447679,0.0,-0.0044625542428136655,11.826705333461348,0.0,-0.4062951972075521,0.0,0.0,0.0,-1.7563114082563327,-0.030653416764411325,-0.001295176606919175,0.0,0.0,0.0,0.0,0.0,-0.010096534308939985,-0.5784888036112964,0.0,0.0,11.833682217796666,0.0044625542428136655,0.034775286425685926,-0.034340542208090144,-1.96756813471443,0.0,0.0,0.02424400789915016,1.3890793311031338,-7.276238625348847,0.0,-5.068551734292679,11.830204635084048,0.0,-0.2868677810994168,0.0,61.72690835608019,0.0,0.0,-0.030653416764411325,0.0,-0.4363323129985824,0.3490658503988659,1.0,0.14,0.14,0.75,0.08726646259971647,5.0,0.184,0.175,0.174,0.0,0.0,0.0,-0.7345024974952754,0.0,0.13458313354079562,0.0,5.945737949059723,0.0,-0.6176358638583583,0.0,0.16291362867157527,0.0,-3.27073795700081,0.0,0.1801760414376707,0.0,-0.049743225187181994,0.339017939980342,0.27592602745101613,0.15710690056839474,0.0,0.0,0.0,0.3379398306819929,0.15710690056839474,0.0,0.0,0.27651909311151396,0.0,0.0,-0.00018132472496868452,0.0,1.88655414610282,0.0,4.058012642346362,0.0,0.4648653468296399,0.0,85.77208708926776,-2.024768840956077,0.0,-3.9908475656574534,0.0,0.4648653468296399,0.0
sim_raptor_glider_3dof,raptor_glider_3dof,0.024,-14.714144147170186,0.0,-0.0047518122256898975,11.819444243482238,0.0,-0.4109981569042514,0.0,0.0,0.0,1.7709190451222354,0.030908368123657035,0.0013067322691025863,0.0,0.0,0.0,0.0,0.0,-0.010096365538756457,-0.5784791337920726,0.0,0.0,11.826587914938276,0.0047518122256898975,0.03475443861100319,-0.03475904734872676,-1.991546712977437,0.0,0.0,0.024662681809970298,1.4130675791853642,-7.245941400033312,0.0,-4.341297763861315,11.82299134876581,0.0,-0.2916458070552412,0.0,61.39689609357227,0.0,0.0,0.030908368123657035,0.0,-0.4363323129985824,0.3490658503988659,1.0,0.14,0.14,0.75,0.08726646259971647,5.0,0.184,0.175,0.174,0.0,0.0,0.0,-0.7355535619146275,0.0,0.13436544662474315,0.0,5.944353463493402,0.0,-0.6179365999827207,0.0,0.16245230847724068,0.0,-3.267362548603615,0.0,0.18055549570885568,0.0,-0.04959734649885276,0.337333241100638,0.2759685421397673,0.15703554333600947,0.0,0.0,0.0,0.3384207160891958,0.15703554333600947,0.0,0.0,0.27537080260897084,0.0,0.0,0.00018294251767436207,0.0,1.8834370052542773,0.0,4.058916131255767,0.0,0.4623800244806928,0.0,85.66927703313823,-2.023354993917029,0.0,-3.991011110222634,0.0,0.4623800244806928,0.0
sim_raptor_glider_3dof,raptor_glider_3dof,0.025,-14.702324760471393,0.0,-0.0050458495977818724,11.812213372549541,0.0,-0.41498221867427487,0.0,0.0,0.0,5.279268594613682,0.09214061907314253,0.003897821997916739,0.0,0.0,0.0,0.0,0.0,-0.010034813564706415,-0.5749524654583065,0.0,0.0,11.819500623988056,0.0050458495977818724,0.03473361140200434,-0.035117179478023786,-2.0120661724941904,0.0,0.0,0.02508236591331737,1.4371137070358837,-7.2158317245096315,0.0,-3.6293843769853726,11.81578284676974,0.0,-0.29642995536216404,0.0,61.06775033911273,0.0,0.0,0.09214061907314253,0.0,-0.4363323129985824,0.3490658503988659,1.0,0.14,0.14,0.75,0.08726646259971647,5.0,0.184,0.175,0.174,0.0,0.0,0.0,-0.7364525164637237,0.0,0.13417861842975504,0.0,5.943168584781322,0.0,-0.6181939432096246,0.0,0.1620570624928119,0.0,-3.2644740566383077,0.0,0.18087994656995993,0.0,-0.04947270677314339,0.3358916210740384,0.27600452822987015,0.15697474163419314,0.0,0.0,0.0,0.3391347789286308,0.15697474163419314,0.0,0.0,0.2742231207993271,0.0,0.0,0.0005456950797083435,0.0,1.8804519525488514,0.0,4.0626068281717345,0.0,0.45990122780385795,0.0,85.56663015483143,-2.021930541379068,0.0,-3.9940794523883643,0.0,0.45990122780385795,0.0
sim_raptor_glider_3dof,raptor_glider_3dof,0.026000000000000002,-14.690512580201588,0.0,-0.00534467812096219,11.805012462707847,0.0,-0.41826193168193115,0.0,0.0,0.0,8.768782804103418,0.15304413132386557,0.006478102433713581,0.0,0.0,0.0,0.0,0.0,-0.00991219379201822,-0.5679268699984193,0.0,0.0,11.812419832031956,0.00534467812096219,0.03471280329140426,-0.03541606105283574,-2.0291908253051387,0.0,0.0,0.02550386726081752,1.4612639553067195,-7.186041157288524,0.0,-2.9325551703219386,11.808578362291728,0.0,-0.30122972927232966,0.0,60.73940820156776,0.0,0.0,0.15304413132386557,0.0,-0.4363323129985824,0.3490658503988659,1.0,0.14,0.14,0.75,0.08726646259971647,5.0,0.184,0.175,0.174,0.0,0.0,0.0,-0.7372024023043139,0.0,0.1340223230264797,0.0,5.942179664210378,0.0,-0.6184087007911929,0.0,0.16172686791109173,0.0,-3.2620634327828064,0.0,0.18115053618838373,0.0,-0.04936883446596,0.3346885446648634,0.2760342753471328,0.15692418003996264,0.0,0.0,0.0,0.34007771146106325,0.15692418003996264,0.0,0.0,0.2730757979983354,0.0,0.0,0.0009069343407199015,0.0,1.8775945876543516,0.0,4.069022825281366,0.0,0.4574284831660068,0.0,85.46413884973892,-2.0204958165652087,0.0,-3.9999881054188346,0.0,0.4574284831660068,0.0
sim_raptor_glider_3dof,raptor_glider_3dof,0.027,-14.678707602722298,0.0,-0.005648318319372907,11.797841132250637,0.0,-0.42085224823444123,0.0,0.0,0.0,12.239505901596969,0.21361967680014418,0.009047582925615553,0.0,0.0,0.0,0.0,0.0,-0.009728834557350102,-0.5574211597171873,0.0,0.0,11.805345060466,0.005648318319372907,0.03469201287274383,-0.03565685193253875,-2.042987126457364,0.0,0.0,0.02592801737518865,1.4855659667401764,-7.15669360464893,0.0,-2.2505483686908807,11.801377139821394,0.0,-0.3060548976408966,0.0,60.41180608539798,0.0,0.0,0.21361967680014418,0.0,-0.4363323129985824,0.3490658503988659,1.0,0.14,0.14,0.75,0.08726646259971647,5.0,0.184,0.175,0.174,0.0,0.0,0.0,-0.7378063130619453,0.0,0.13389616025103407,0.0,5.9413829086900565,0.0,-0.6185817095175973,0.0,0.16146062330290292,0.0,-3.260121328092386,0.0,0.1813684146120413,0.0,-0.04928525288699535,0.33371932564402323,0.276058048629155,0.1568835631847994,0.0,0.0,0.0,0.34124504728231236,0.1568835631847994,0.0,0.0,0.27192857810026727,0.0,0.0,0.0012666616095861776,0.0,1.874860780888312,0.0,4.078100617005712,0.0,0.45496131162913217,0.0,85.36179602738873,-2.0190504664723385,0.0,-4.008670952319901,0.0,0.45496131162913217,0.0
sim_raptor_glider_3dof,raptor_glider_3dof,0.028,-14.666909825101046,0.0,-0.0059567997613304315,11.790698886690649,0.0,-0.42276787833908397,0.0,0.0,0.0,15.691478641553939,0.27386796680148334,0.011606270712712101,0.0,0.0,0.0,0.0,0.0,-0.009485063509766087,-0.5434541075231405,0.0,0.0,11.798275845036148,0.0059567997613304315,0.03467123878173366,-0.035840694769278314,-2.0535205450962533,0.0,0.0,0.02635563125951223,1.5100664375731128,-7.127905613555484,0.0,-1.5831072200925451,11.79417842717422,0.0,-0.3109150101582008,0.0,60.08487816299188,0.0,0.0,0.27386796680148334,0.0,-0.4363323129985824,0.3490658503988659,1.0,0.14,0.14,0.75,0.08726646259971647,5.0,0.184,0.175,0.174,0.0,0.0,0.0,-0.7382672598518042,0.0,0.13379969039621825,0.0,5.940774566914107,0.0,-0.6187137949026927,0.0,0.16125720941348728,0.0,-3.2586385324023377,0.0,0.18153469306175207,0.0,-0.04922150247300536,0.3329793484776654,0.2760760823497436,0.1568526219920555,0.0,0.0,0.0,0.34263238177901745,0.1568526219920555,0.0,0.0,0.27078119261507255,0.0,0.0,0.0016248778997796944,0.0,1.8722467396812192,0.0,4.089777726045711,0.0,0.4524992174454919,0.0,85.25959482143907,-2.017593461446604,0.0,-4.020062975506042,0.0,0.4524992174454919,0.0
sim_raptor_glider_3dof,raptor_glider_3dof,0.029,-14.655119245269645,0.0,-0.006270162801418122,11.783585101750008,0.0,-0.42402324176356176,0.0,0.0,0.0,19.124737426942474,0.33378963667953465,0.01415417028060077,0.0,0.0,0.0,0.0,0.0,-0.009181207521581861,-0.5260444418204073,0.0,0.0,11.791211708715116,0.006270162801418122,0.03465047961654799,-0.03596871092849913,-2.0608553307290807,0.0,0.0,0.02678750340691727,1.5348108889086736,-7.099786610851725,0.0,-0.9299808912697021,11.78698144979302,0.0,-0.31581935022361773,0.0,59.75855594698301,0.0,0.0,0.33378963667953465,0.0,-0.4363323129985824,0.3490658503988659,1.0,0.14,0.14,0.75,0.08726646259971647,5.0,0.184,0.175,0.174,0.0,0.0,0.0,-0.7385881632325653,0.0,0.13373244168808648,0.0,5.9403509471256,0.0,-0.6188057670826274,0.0,0.1611154946635043,0.0,-3.2576060064631407,0.0,0.18165044264730756,0.0,-0.04917714441437899,0.3324640860869057,0.27608857934358505,0.15683111176071046,0.0,0.0,0.0,0.3442353895234058,0.15683111176071046,0.0,0.0,0.26963335992642284,0.0,0.0,0.0019815838392841082,0.0,1.8697489750756202,0.0,4.103992884576291,0.0,0.4500416848367291,0.0,85.15752819724966,-2.0161231195802642,0.0,-4.034100444106852,0.0,0.4500416848367291,0.0
sim_raptor_glider_3dof,raptor_glider_3dof,0.03,-14.643335861874272,0.0,-0.006588456154048799,11.776499057425408,0.0,-0.4246325317894241,0.0,0.0,0.0,22.539314969389775,0.3933852573598965,0.016691283811423065,0.0,0.0,0.0,0.0,0.0,-0.008817592927774131,-0.5052108602258606,0.0,0.0,11.784152189979364,0.006588456154048799,0.03462973402092146,-0.03604200571010365,-2.0650548123753527,0.0,0.0,0.02722441278232952,1.5598439521494922,-7.07243918706911,0.0,-0.290923495387025,11.779785437604758,0.0,-0.3207769951076897,0.0,59.4327686664257,0.0,0.0,0.3933852573598965,0.0,-0.4363323129985824,0.3490658503988659,1.0,0.14,0.14,0.75,0.08726646259971647,5.0,0.184,0.175,0.174,0.0,0.0,0.0,-0.7387718684345768,0.0,0.133693911980574,0.0,5.940108402992207,0.0,-0.6188584237532333,0.0,0.1610343306551867,0.0,-3.257014839306611,0.0,0.181716701111756,0.0,-0.04915176016342843,0.332169079718268,0.276095711883541,0.1568188091292433,0.0,0.0,0.0,0.34604980464976265,0.1568188091292433,0.0,0.0,0.2684847856150173,0.0,0.0,0.0023367797335992293,0.0,1.867364272664111,0.0,4.120685811564803,0.0,0.447588180826852,0.0,85.05558936059904,-2.0146371553110334,0.0,-4.0507206787057175,0.0,0.447588180826852,0.0
sim_raptor_glider_3dof,raptor_glider_3dof,0.03,-14.643335861874272,0.0,-0.006588456154048799,11.776499057425408,0.0,-0.4246325317894241,0.0,0.0,0.0,22.539314969389775,0.3933852573598965,0.016691283811423065,0.0,0.0,0.0,0.0,0.0,-0.008817592927774131,-0.5052108602258606,0.0,0.0,11.784152189979364,0.006588456154048799,0.03462973402092146,-0.03604200571010365,-2.0650548123753527,0.0,0.0,0.02722441278232952,1.5598439521494922,-6.954148545094367,0.0,-0.5415138336568095,11.779785437604758,0.0,-0.3207769951076897,0.0,56.67037405364711,0.0,0.0,0.3933852573598965,0.0,-0.42570500572098185,0.3490658503988659,1.0,0.14,0.14,0.75,0.08726646259971647,5.0,0.184,0.175,0.174,0.0,0.0,0.0,-0.6617196612171165,0.0,0.12243356393275653,0.0,5.943570022085187,0.0,-0.6083797790139578,0.0,0.1597751457452689,0.0,-3.2669718938275203,0.0,0.15930925865649492,0.0,-0.045817072847866694,0.3378459616919309,0.2636399893345707,0.153880226606285,0.0,0.0,0.0,0.35173477566476746,0.153880226606285,0.0,0.0,0.25600579562283626,0.0,0.0,0.0023367797335992293,0.0,1.8323722710916146,0.0,4.188381209989885,0.0,0.4267845869980164,0.0,85.05558936059904,-1.9821072287679793,0.0,-4.119633021729909,0.0,0.4267845869980164,0.0
sim_raptor_glider_3dof,raptor_glider_3dof,0.031,-14.631559617463052,0.0,-0.00691186862097365,11.769557544514543,0.0,-0.42487325668860615,0.0,0.0,0.0,25.77742714594185,0.44990097638965015,0.019100468046028603,0.0,0.0,0.0,0.0,0.0,-0.008395923731567627,-0.48105099493255415,0.0,0.0,11.777223869736382,0.00691186862097365,0.034609373974364165,-0.03608367091514868,-2.06744205277698,0.0,0.0,0.027687747183581052,1.586391057844426,-6.928900547307105,0.0,0.05949983061149844,11.772709881410037,0.0,-0.3260431352425586,0.0,56.36134860131357,0.0,0.0,0.44990097638965015,0.0,-0.42570500572098185,0.3490658503988659,1.0,0.14,0.14,0.75,0.08726646259971647,5.0,0.184,0.175,0.174,0.0,0.0,0.0,-0.6618133235675504,0.0,0.12241394660246889,0.0,5.943446089512551,0.0,-0.6084070311660914,0.0,0.15972882502174385,0.0,-3.266665977897457,0.0,0.15934430860414628,0.0,-0.04580376589046844,0.3376776132082407,0.26364471875566375,0.1538734797260801,0.0,0.0,0.0,0.3535707775044846,0.1538734797260801,0.0,0.0,0.25490943987776066,0.0,0.0,0.0026740655264440045,0.0,1.8301380254922874,0.0,4.205294673037513,0.0,0.42445731631649253,0.0,84.9556043775255,-1.980656248578769,0.0,-4.136533488852274,0.0,0.42445731631649253,0.0
sim_raptor_glider_3dof,raptor_glider_3dof,0.032,-14.619790445825092,0.0,-0.00724057611849203,11.762640837253269,0.0,-0.42451976754810417,0.0,0.0,0.0,28.99784775038801,0.5061079192363016,0.021499365605795073,0.0,0.0,0.0,0.0,0.0,-0.007917919289011248,-0.45366335778557,0.0,0.0,11.770298912910299,0.00724057611849203,0.034589023811779064,-0.03607485779941385,-2.0669370984410143,0.0,0.0,0.0281569385104026,1.613273740655444,-6.904513462638,0.0,0.6474772840546184,11.765633397070427,0.0,-0.3313717927017535,0.0,56.05253737270529,0.0,0.0,0.5061079192363016,0.0,-0.42570500572098185,0.3490658503988659,1.0,0.14,0.14,0.75,0.08726646259971647,5.0,0.184,0.175,0.174,0.0,0.0,0.0,-0.6617935123572253,0.0,0.12241809657325939,0.0,5.9434723041256605,0.0,-0.6084012667745506,0.0,0.15973862334990754,0.0,-3.2667306859824317,0.0,0.15933689499564696,0.0,-0.04580658037123225,0.337713222617126,0.26364371878888754,0.15387490658734404,0.0,0.0,0.0,0.35560254638193006,0.15387490658734404,0.0,0.0,0.25381114955938266,0.0,0.0,0.0030099111848113104,0.0,1.828003382544357,0.0,4.224487748160359,0.0,0.4221316589538435,0.0,84.85572669226826,-1.9791787759493873,0.0,-4.155808522271217,0.0,0.4221316589538435,0.0
sim_raptor_glider_3dof,raptor_glider_3dof,0.033,-14.608028351507405,0.0,-0.007574647625100822,11.755748047393523,0.0,-0.4235847113683378,0.0,0.0,0.0,32.200579347575015,0.5620061306648716,0.023887959014669703,0.0,0.0,0.0,0.0,0.0,-0.007383862267151051,-0.4230641444136548,0.0,0.0,11.763376902977377,0.007574647625100822,0.03456868230914037,-0.036016554360805385,-2.063596557477649,0.0,0.0,0.028632692093654336,1.6405324130639942,-6.881065810814433,0.0,1.222633201879873,11.758555241545832,0.0,-0.3367711285378749,0.0,55.74388569152422,0.0,0.0,0.5620061306648716,0.0,-0.42570500572098185,0.3490658503988659,1.0,0.14,0.14,0.75,0.08726646259971647,5.0,0.184,0.175,0.174,0.0,0.0,0.0,-0.661662444524011,0.0,0.12244554447759509,0.0,5.943645726039285,0.0,-0.6083631316774115,0.0,0.1598034381825534,0.0,-3.267158763296876,0.0,0.15928784688366104,0.0,-0.04582520284265523,0.33794879819355583,0.26363709792877205,0.1538843494619835,0.0,0.0,0.0,0.35782621736374387,0.1538843494619835,0.0,0.0,0.25271069228028437,0.0,0.0,0.0033443142620537586,0.0,1.825965996705959,0.0,4.245906149133939,0.0,0.4198072031428689,0.0,84.75595021706573,-1.9776716603522853,0.0,-4.177401782474271,0.0,0.4198072031428689,0.0
sim_raptor_glider_3dof,raptor_glider_3dof,0.034,-14.596273336245648,0.0,-0.007914147855788521,11.748878321846874,0.0,-0.42207923672725184,0.0,0.0,0.0,35.385628539090945,0.6175957258948079,0.026266233958812647,0.0,0.0,0.0,0.0,0.0,-0.006794022973050212,-0.38926884227070097,0.0,0.0,11.756457489551845,0.007914147855788521,0.03454834843677994,-0.03590962351443229,-2.0574698712807087,0.0,0.0,0.029115600541382076,1.6682010290100078,-6.858631523138225,0.0,1.7851590600810514,11.751474760101988,0.0,-0.34224796029425764,0.0,55.4353339666736,0.0,0.0,0.6175957258948079,0.0,-0.42570500572098185,0.3490658503988659,1.0,0.14,0.14,0.75,0.08726646259971647,5.0,0.184,0.175,0.174,0.0,0.0,0.0,-0.6614220330465468,0.0,0.12249585623855169,0.0,5.943963781122785,0.0,-0.6082931877730725,0.0,0.15992228275020667,0.0,-3.267943869721569,0.0,0.1591978763829611,0.0,-0.045859371473883956,0.33838085515462685,0.263624930030568,0.15390168360990505,0.0,0.0,0.0,0.36023843121910204,0.15390168360990505,0.0,0.0,0.2516078090760756,0.0,0.0,0.003677272754233771,0.0,1.8240239437135748,0.0,4.269501857139971,0.0,0.41748350010301893,0.0,84.65626983081579,-1.9761312858520699,0.0,-4.201263452396044,0.0,0.41748350010301893,0.0
sim_raptor_glider_3dof,raptor_glider_3dof,0.034999999999999996,-14.584525403064676,0.0,-0.00825917036547841,11.742030457864557,0.0,-0.42001797244817596,0.0,0.0,0.0,38.5530009801926,0.6728768036289621,0.0286341760397977,0.0,0.0,0.0,0.0,0.0,-0.0061487609297005705,-0.352298050506779,0.0,0.0,11.749540176985583,0.00825917036547841,0.034528020738151526,-0.0357552273398932,-2.048623622106654,0.0,0.0,0.029606466410192628,1.6963255715998746,-6.837276803250255,0.0,2.335299559462057,11.744391065384312,0.0,-0.3478115494337938,0.0,55.126829436793145,0.0,0.0,0.6728768036289621,0.0,-0.42570500572098185,0.3490658503988659,1.0,0.14,0.14,0.75,0.08726646259971647,5.0,0.184,0.175,0.174,0.0,0.0,0.0,-0.6610748423027475,0.0,0.12256843460274053,0.0,5.944422998974189,0.0,-0.6081921908474655,0.0,0.16009381627860605,0.0,-3.2690774652718475,0.0,0.15906793622965887,0.0,-0.04590873924025411,0.3390047011138978,0.26360730425205975,0.15392674786745156,0.0,0.0,0.0,0.36283461275896867,0.15392674786745156,0.0,0.0,0.2505022767040936,0.0,0.0,0.004008784645571678,0.0,1.8221748308897314,0.0,4.295212549506592,0.0,0.4151601524884892,0.0,84.55667833353485,-1.9745537681195684,0.0,-4.22732887016988,0.0,0.4151601524884892,0.0
sim_raptor_glider_3dof,raptor_glider_3dof,0.036,-14.57278455549511,0.0,-0.008609802823547038,11.735203382310809,0.0,-0.4174126806083977,0.0,0.0,0.0,41.70269734682152,0.7278493756647392,0.030991767274152485,0.0,0.0,0.0,0.0,0.0,-0.005448372129037833,-0.3121687282105746,0.0,0.0,11.742624569070227,0.008609802823547038,0.03450769804892952,-0.03555428631181269,-2.037110549266621,0.0,0.0,0.03010591418277486,1.7249418210560463,-6.817064749142318,0.0,2.873253417573377,11.737303412764152,0.0,-0.3534690465185708,0.0,54.81831269066576,0.0,0.0,0.7278493756647392,0.0,-0.42570500572098185,0.3490658503988659,1.0,0.14,0.14,0.75,0.08726646259971647,5.0,0.184,0.175,0.174,0.0,0.0,0.0,-0.6606228738761772,0.0,0.12266277449257819,0.0,5.945020620854805,0.0,-0.6080607373193188,0.0,0.16031694694990997,0.0,-3.2705527810025283,0.0,0.1588987652965507,0.0,-0.04597304509631913,0.33981662051908207,0.2635842654721003,0.15395943177908358,0.0,0.0,0.0,0.3656111578921018,0.15395943177908358,0.0,0.0,0.24939383598156753,0.0,0.0,0.0043388474183813485,0.0,1.8204169058083584,0.0,4.32298771882953,0.0,0.4128367128734039,0.0,84.45716997247109,-1.9729347886361168,0.0,-4.255545658067033,0.0,0.4128367128734039,0.0
sim_raptor_glider_3dof,raptor_glider_3dof,0.037,-14.561050797885473,0.0,-0.008966142803748672,11.728395923286753,0.0,-0.41427544361091845,0.0,0.0,0.0,44.83471525694145,0.7825134004277637,0.033338987745318405,0.0,0.0,0.0,0.0,0.0,-0.004693165028762856,-0.26889854870650526,0.0,0.0,11.735710250195696,0.008966142803748672,0.03448737914777306,-0.035307750659994384,-2.022985096917925,0.0,0.0,0.03061458563123153,1.7540865482114198,-6.798053436359061,0.0,3.399223211263365,11.730211015771085,0.0,-0.35922778571689207,0.0,54.50972500543099,0.0,0.0,0.7825134004277637,0.0,-0.42570500572098185,0.3490658503988659,1.0,0.14,0.14,0.75,0.08726646259971647,5.0,0.184,0.175,0.174,0.0,0.0,0.0,-0.6600681780615093,0.0,0.1227783357661401,0.0,5.945753791621538,0.0,-0.607899442295633,0.0,0.16059053214743815,0.0,-3.2723628271456473,0.0,0.1586911172087308,0.0,-0.04605202546134204,0.340812777512546,0.26355584712115104,0.15399963132388347,0.0,0.0,0.0,0.36856433530392313,0.15399963132388347,0.0,0.0,0.24828223013420886,0.0,0.0,0.004667458284344577,0.0,1.818748492909904,0.0,4.352775546355423,0.0,0.4105127390159008,0.0,84.35773872938755,-1.9712697345904415,0.0,-4.285860085315377,0.0,0.4105127390159008,0.0
sim_raptor_glider_3dof,raptor_glider_3dof,0.038,-14.549324135327364,0.0,-0.009328294677752718,11.721606856265991,0.0,-0.4106181585107607,0.0,0.0,0.0,47.9490491697325,0.8368687812124854,0.035675815469698315,0.0,0.0,0.0,0.0,0.0,-0.0038834482127019744,-0.22250519254544596,0.0,0.0,11.728796808068621,0.009328294677752718,0.034467062823088014,-0.035016557206560335,-2.006300941014315,0.0,0.0,0.03113310899385836,1.783795748468869,-6.780296493259248,0.0,3.913407543147663,11.723113078949781,0.0,-0.36509492343391964,0.0,54.20100767177698,0.0,0.0,0.8368687812124854,0.0,-0.42570500572098185,0.3490658503988659,1.0,0.14,0.14,0.75,0.08726646259971647,5.0,0.184,0.175,0.174,0.0,0.0,0.0,-0.6594127582517131,0.0,0.12291456375845722,0.0,5.946619686891025,0.0,-0.6077089119920219,0.0,0.16091342837451006,0.0,-3.27450071060156,0.0,0.15844572423899592,0.0,-0.046145425958779164,0.3419893894950656,0.26352206839103487,0.15404725572796085,0.0,0.0,0.0,0.3716904604215855,0.15404725572796085,0.0,0.0,0.24716720075608045,0.0,0.0,0.004994614165757765,0.0,1.817168080389113,0.0,4.384524977556241,0.0,0.4081877887761524,0.0,84.25837864778944,-1.9695537215218644,0.0,-4.3182192219986915,0.0,0.4081877887761524,0.0
sim_raptor_glider_3dof,raptor_glider_3dof,0.039,-14.537604573825696,0.0,-0.009696370886830378,11.714834897468261,0.0,-0.4064524980906788,0.0,0.0,0.0,51.04568972729858,0.8909153546928066,0.03800222593541342,0.0,0.0,0.0,0.0,0.0,-0.0030195304037462147,-0.17300634824609157,0.0,0.0,11.721883820791962,0.009696370886830378,0.03444674783505822,-0.03468162600375626,-1.987110796666401,0.0,0.0,0.03166209560001004,1.8141044484203093,-6.763843335465137,0.0,4.416000402046938,11.716008785941874,0.0,-0.37107739876903983,0.0,53.89210223462738,0.0,0.0,0.8909153546928066,0.0,-0.42570500572098185,0.3490658503988659,1.0,0.14,0.14,0.75,0.08726646259971647,5.0,0.184,0.175,0.174,0.0,0.0,0.0,-0.6586585647438287,0.0,0.12307089084324926,0.0,5.947615521562196,0.0,-0.6074897422581531,0.0,0.1612844969442382,0.0,-3.2769596602470266,0.0,0.15816329457989334,0.0,-0.046253000274554555,0.3433427397670666,0.26348293604028455,0.15410222795332573,0.0,0.0,0.0,0.37498590780289953,0.15410222795332573,0.0,0.0,0.24604848944569252,0.0,0.0,0.005320311630957879,0.0,1.8156743209572301,0.0,4.4181858533854275,0.0,0.40586142192897884,0.0,84.15908364725075,-1.9677816234460634,0.0,-4.352571074349802,0.0,0.40586142192897884,0.0
sim_raptor_glider_3dof,raptor_glider_3dof,0.04,-14.525892120144142,0.0,-0.01007049011910947,11.708078720444114,0.0,-0.401789959688294,0.0,0.0,0.0,54.12462451848352,0.9446529042531879,0.0403181926228624,0.0,0.0,0.0,0.0,0.0,-0.0021017205133567287,-0.12041971513140932,0.0,0.0,11.714970870464109,0.01007049011910947,0.03442643295560877,-0.03430386437574804,-1.965466649719539,0.0,0.0,0.032202143862391314,1.84504693458813,-6.748739367257389,0.0,4.907192071506071,11.708897311399172,0.0,-0.3771819811865828,0.0,53.582951136454774,0.0,0.0,0.9446529042531879,0.0,-0.42570500572098185,0.3490658503988659,1.0,0.14,0.14,0.75,0.08726646259971647,5.0,0.184,0.175,0.174,0.0,0.0,0.0,-0.6578075051605865,0.0,0.12324673433035471,0.0,5.9487385361152,0.0,-0.6072425220053763,0.0,0.16170260146720422,0.0,-3.2797329979183667,0.0,0.15784451576727523,0.0,-0.04637450650745889,0.34486916016588154,0.26343844711471376,0.15416448407790576,0.0,0.0,0.0,0.37844709422858075,0.15416448407790576,0.0,0.0,0.24492584016808547,0.0,0.0,0.0056445469672007365,0.0,1.814266027736852,0.0,4.453708715476075,0.0,0.4035332050086409,0.0,84.0598477189758,-1.9659481165156862,0.0,-4.388864379868218,0.0,0.4035332050086409,0.0
sim_raptor_glider_3dof,raptor_glider_3dof,0.04,-14.525892120144142,0.0,-0.01007049011910947,11.708078720444114,0.0,-0.401789959688294,0.0,0.0,0.0,54.12462451848352,0.9446529042531879,0.0403181926228624,0.0,0.0,0.0,0.0,0.0,-0.0021017205133567287,-0.12041971513140932,0.0,0.0,11.714970870464109,0.01007049011910947,0.03442643295560877,-0.03430386437574804,-1.965466649719539,0.0,0.0,0.032202143862391314,1.84504693458813,-6.257150941493087,0.0,3.8718804553276733,11.708897311399172,0.0,-0.3771819811865828,0.0,42.15503754807978,0.0,0.0,0.9446529042531879,0.0,-0.37776163060239554,0.3490658503988659,1.0,0.14,0.14,0.75,0.08726646259971647,5.0,0.184,0.175,0.174,0.0,0.0,0.0,-0.37635395115649856,0.0,0.08030480199766508,0.0,5.963978101095705,0.0,-0.5692444186105962,0.0,0.1571801354781712,0.0,-3.3299845821419995,0.0,0.07584595190810574,0.0,-0.033441537781197045,0.3685677816305154,0.2114854917115412,0.14185420331700685,0.0,0.0,0.0,0.40223173613350677,0.14185420331700685,0.0,0.0,0.1926892373375864,0.0,0.0,0.0056445469672007365,0.0,1.669393982077392,0.0,4.733615388197058,0.0,0.31746958777458884,0.0,84.0598477189758,-1.830761299430503,0.0,-4.673575074317276,0.0,0.31746958777458884,0.0
sim_raptor_glider_3dof,raptor_glider_3dof,0.041,-14.514186535991072,0.0,-0.01045129423405959,11.70182662408151,0.0,-0.39772773600290146,0.0,0.0,0.0,56.532883840647756,0.9866849586668006,0.04213511124804175,0.0,0.0,0.0,0.0,0.0,-0.0011360390452176256,-0.06509024265304164,0.0,0.0,11.708583761157831,0.01045129423405959,0.03440766334937209,-0.0339754382448637,-1.9466492185380553,0.0,0.0,0.032839399199646076,1.8815589758850138,-6.247124630040794,0.0,4.251789581595258,11.702270907123326,0.0,-0.38443375026638515,0.0,41.90906608725204,0.0,0.0,0.9866849586668006,0.0,-0.37776163060239554,0.3490658503988659,1.0,0.14,0.14,0.75,0.08726646259971647,5.0,0.184,0.175,0.174,0.0,0.0,0.0,-0.3759266259071534,0.0,0.08039166723115576,0.0,5.964549623056884,0.0,-0.5691067027335219,0.0,0.15754935474575668,0.0,-3.3315204887473633,0.0,0.0756448869662084,0.0,-0.03351469304342676,0.369913865916928,0.2114263251244869,0.14190228568311208,0.0,0.0,0.0,0.4050982405846034,0.14190228568311208,0.0,0.0,0.1917739670258968,0.0,0.0,0.005898915574725845,0.0,1.6681393752086107,0.0,4.762152510044668,0.0,0.31561717670309514,0.0,83.96821230983261,-1.8289417684191216,0.0,-4.702739362518195,0.0,0.31561717670309514,0.0
sim_raptor_glider_3dof,raptor_glider_3dof,0.042,-14.50248758285318,0.0,-0.010839400474120664,11.6955840600435,0.0,-0.3932899921482087,0.0,0.0,0.0,58.92703991319789,1.0284708649394168,0.04394350295248568,0.0,0.0,0.0,0.0,0.0,-0.00012845059590907003,-0.00735967702153011,0.0,0.0,11.702194816506326,0.010839400474120664,0.03438888834966154,-0.033614554675524405,-1.9259721131192968,0.0,0.0,0.03348610407961534,1.9186124360977668,-6.2380893757668625,0.0,4.622956698689734,11.695634481891247,0.0,-0.3917876841657677,0.0,41.66271360569913,0.0,0.0,1.0284708649394168,0.0,-0.37776163060239554,0.3490658503988659,1.0,0.14,0.14,0.75,0.08726646259971647,5.0,0.184,0.175,0.174,0.0,0.0,0.0,-0.37545684476152485,0.0,0.08048685426625432,0.0,5.965177290484317,0.0,-0.5689553060041485,0.0,0.1579548310558709,0.0,-3.3332079820931257,0.0,0.07542381382497294,0.0,-0.03359519343165962,0.3713928424894281,0.21136109443146764,0.14195536163733563,0.0,0.0,0.0,0.40809115251213784,0.14195536163733563,0.0,0.0,0.1908548975591375,0.0,0.0,0.006152090413347996,0.0,1.6669426432511032,0.0,4.792101803057617,0.0,0.31376189616452016,0.0,83.8766005647491,-1.827054994654025,0.0,-4.733371685518349,0.0,0.31376189616452016,0.0
sim_raptor_glider_3dof,raptor_glider_3dof,0.043000000000000003,-14.490795271112678,0.0,-0.011234910595265924,11.689350057037068,0.0,-0.3884851283931632,0.0,0.0,0.0,61.30707072672674,1.0700102389344144,0.04574333929692293,0.0,0.0,0.0,0.0,0.0,0.0009208080240392701,0.05275841351923102,0.0,0.0,11.695803753951036,0.011234910595265924,0.034370107126130756,-0.033221880871132835,-1.9034735614023142,0.0,0.0,0.03414268889517211,1.9562319749215453,-6.230066266798747,0.0,4.985522023137946,11.68898738123811,0.0,-0.3992486095046123,0.0,41.41597840623246,0.0,0.0,1.0700102389344144,0.0,-0.37776163060239554,0.3490658503988659,1.0,0.14,0.14,0.75,0.08726646259971647,5.0,0.184,0.175,0.174,0.0,0.0,0.0,-0.37494541419250405,0.0,0.08059010738840125,0.0,5.965859840528444,0.0,-0.5687904914807853,0.0,0.15839575298423653,0.0,-3.3350438875326995,0.0,0.07518310033327989,0.0,-0.03368291508189677,0.37300193194045406,0.21128986472654795,0.14201340342490307,0.0,0.0,0.0,0.41120770106409915,0.14201340342490307,0.0,0.0,0.18993201855009276,0.0,0.0,0.006404067501569211,0.0,1.665803189402245,0.0,4.823425700811161,0.0,0.3119037333773367,0.0,83.78500847849922,-1.8250978050580866,0.0,-4.765433218401081,0.0,0.3119037333773367,0.0
sim_raptor_glider_3dof,raptor_glider_3dof,0.044,-14.479109611938197,0.0,-0.01163793551555347,11.683123579320437,0.0,-0.38332180294238305,0.0,0.0,0.0,63.67295404031663,1.1113026924745515,0.04753459190708841,0.0,0.0,0.0,0.0,0.0,0.002011486505564047,0.11524968731633808,0.0,0.0,11.689410257762544,0.01163793551555347,0.03435131875095519,-0.03279810763231258,-1.879193143347324,0.0,0.0,0.034809594137876626,1.9944428306636621,-6.223073890463307,0.0,5.339629640126491,11.682328897800032,0.0,-0.40682145704289924,0.0,41.16886044890324,0.0,0.0,1.1113026924745515,0.0,-0.37776163060239554,0.3490658503988659,1.0,0.14,0.14,0.75,0.08726646259971647,5.0,0.184,0.175,0.174,0.0,0.0,0.0,-0.37439316813065376,0.0,0.08070115715476628,0.0,5.966595959508127,0.0,-0.5686125325088689,0.0,0.15887128043020585,0.0,-3.337024917764461,0.0,0.0749231253072706,0.0,-0.03377772693313874,0.37473825247167986,0.21121270452711352,0.14207638518445215,0.0,0.0,0.0,0.41444501103303805,0.14207638518445215,0.0,0.0,0.18900532805615286,0.0,0.0,0.006654842866992379,0.0,1.664720431154233,0.0,4.8560855244235315,0.0,0.3100426880406903,0.0,83.69343157972946,-1.8230669906129182,0.0,-4.798883982985592,0.0,0.3100426880406903,0.0
