name,vehicle,t,north,east,down,u,v,w,p_rad,p_deg,p_hat_div_b,q_deg,q_rad,q_hat_div_c,r_rad,r_deg,r_hat_div_b,phi_rad,phi_deg,theta_rad,theta_deg,psi_rad,psi_deg,speed,altitude,mach,alpha_rad,alpha_deg,beta_rad,beta_deg,gamma_rad,gamma_deg,u_dot,v_dot,w_dot,north_dot,east_dot,down_dot,p_rad_dot,q_rad_dot,r_rad_dot,phi_rad_dot,theta_rad_dot,psi_rad_dot,del_tail_alt_rad,del_tail_splay_rad,DIM_b,DIM_c_bar,DIM_S,DIM_wing_position,DIM_wing_incidence_rad,DIM_wing_incidence_deg,DIM_empennage_length,DIM_nose_length,DIM_tail_length,CDp,CDq,CDr,CYp,CYq,CYr,CLp,CLq,CLr,Clp,Clq,Clr,Cmp,Cmq,Cmr,Cnp,Cnq,Cnr,CL_0,Cm_0,CD_0,Cl_0,CY_0,Cn_0,CL,CD,CY,Cl,Cm,Cn,p_hat,q_hat,r_hat,drag_force_wind,side_force_wind,lift_force_wind,roll_moment_wind,pitch_moment_wind,yaw_moment_wind,qbar,X_total,Y_total,Z_total,L_total,M_total,N_total
sim_raptor_glider_3dof,raptor_glider_3dof,0.0,-15.0,0.0,0.0,12.0,0.0,0.0,0.0,0.0,0.0,0.0,0.0,0.0,0.0,0.0,0.0,0.0,0.0,0.0,0.0,0.0,0.0,12.0,-0.0,0.035264039495724236,0.0,0.0,0.0,0.0,0.0,0.0,-7.487178041450953,0.0,-25.024054441263395,12.0,0.0,0.0,0.0,-89.41363838472799,0.0,0.0,0.0,0.0,0.4363323129985824,0.3490658503988659,1.0,0.14,0.14,0.75,0.08726646259971647,5.0,0.184,0.175,0.174,0.0,0.0,0.0,-0.053153656886407115,0.0,0.055671173493162154,0.0,6.024209384397437,0.0,-0.5269202128147928,0.0,0.19813275846416445,0.0,-3.4552995296441478,0.0,-0.03588346466142729,0.0,-0.029845922084054996,0.7757079658211316,-0.38952171953159265,0.1667455120831285,0.0,0.0,0.0,0.7757079658211316,0.1667455120831285,0.0,0.0,-0.38952171953159265,0.0,0.0,0.0,0.0,2.0589739613990123,0.0,9.578443721347433,0.0,-0.6733741106753866,0.0,88.20001620075907,-2.0589739613990123,0.0,-9.578443721347433,0.0,-0.6733741106753866,0.0
sim_raptor_glider_3dof,raptor_glider_3dof,0.001,-14.988003746590733,0.0,-0.000012415174634177188,11.992502827180262,0.0,-0.02526770405029525,0.0,0.0,0.0,-5.103039651887635,-0.0890648437852645,-0.0037133468875430262,0.0,0.0,0.0,0.0,0.0,-0.000044590487564095195,-0.0025548467438532376,0.0,0.0,11.992529446150822,0.000012415174634177188,0.03524208600355821,-0.002106955238988487,-0.12071964281701804,0.0,0.0,0.002062364751424392,0.1181647960731648,-7.507675599275719,0.0,-25.508550485583747,11.99250394195709,0.0,-0.024732952477174667,0.0,-88.71856693472195,0.0,0.0,-0.0890648437852645,0.0,0.4363323129985824,0.3490658503988659,1.0,0.14,0.14,0.75,0.08726646259971647,5.0,0.184,0.175,0.174,0.0,0.0,0.0,-0.053430186057496054,0.0,0.0554080780660455,0.0,6.0240249874908525,0.0,-0.5274002219771142,0.0,0.1957017793236076,0.0,-3.453669819760639,0.0,-0.03525814560644711,0.0,-0.029499655008724115,0.7671435812705255,-0.38877083359862435,0.165760584735996,0.0,0.0,0.0,0.7640118800492363,0.165760584735996,0.0,0.0,-0.386975379228011,0.0,0.0,-0.0005198685642560238,0.0,2.0442643995802876,0.0,9.422277857722193,0.0,-0.6681395275853911,0.0,88.09023322213056,-2.064112165078258,0.0,-9.417949773357746,0.0,-0.6681395275853911,0.0
sim_raptor_glider_3dof,raptor_glider_3dof,0.002,-14.976014997218163,0.0,-0.000049270492086499364,11.984983638081903,0.0,-0.051011581957007696,0.0,0.0,0.0,-10.166686259086081,-0.1774421492383174,-0.0074026192836820276,0.0,0.0,0.0,0.0,0.0,-0.00017790069037163533,-0.010192958730758345,0.0,0.0,11.985092197667264,0.000049270492086499364,0.03522023038486956,-0.004256265628603735,-0.24386605700559036,0.0,0.0,0.0040783649382321,0.233673098274832,-7.5312069778045,0.0,-25.97647568606275,11.984992523423195,0.0,-0.04887944429772272,0.0,-88.03854836579413,0.0,0.0,-0.1774421492383174,0.0,0.4363323129985824,0.3490658503988659,1.0,0.14,0.14,0.75,0.08726646259971647,5.0,0.184,0.175,0.174,0.0,0.0,0.0,-0.05371000072613438,0.0,0.05518325282971427,0.0,6.023796383437123,0.0,-0.5278990096560925,0.0,0.1932332307470952,0.0,-3.4519868033346692,0.0,-0.03462545852853912,0.0,-0.029153229463314653,0.758374006898808,-0.388063512765844,0.16478068235403653,0.0,0.0,0.0,0.7521311449211472,0.16478068235403653,0.0,0.0,-0.38448598859501065,0.0,0.0,-0.001036366699715484,0.0,2.0296598650783366,0.0,9.264255835778041,0.0,-0.6630183077427956,0.0,87.98100758981425,-2.069072495287059,0.0,-9.25553317577674,0.0,-0.6630183077427956,0.0
sim_raptor_glider_3dof,raptor_glider_3dof,0.003,-14.964033765483153,0.0,-0.00010997650410396534,11.977439408842296,0.0,-0.07721526894416839,0.0,0.0,0.0,-15.191799193026208,-0.2651469152201249,-0.011068367643203196,0.0,0.0,0.0,0.0,0.0,-0.0003992506169425001,-0.022875375318799577,0.0,0.0,11.97768829909372,0.00010997650410396534,0.035198472770559576,-0.006446636600632963,-0.3693650692708328,0.0,0.0,0.006047385983690463,0.3464896939520332,-7.557751963901034,0.0,-26.428240508352538,11.977469282477013,0.0,-0.07243326284374174,0.0,-87.37346069275941,0.0,0.0,-0.2651469152201249,0.0,0.4363323129985824,0.3490658503988659,1.0,0.14,0.14,0.75,0.08726646259971647,5.0,0.184,0.175,0.174,0.0,0.0,0.0,-0.0539933342342998,0.0,0.0549956890768542,0.0,6.023523849844041,0.0,-0.5284156910211553,0.0,0.1907277346999606,0.0,-3.450251759098094,0.0,-0.033984927296559594,0.0,-0.028807107836358457,0.7494038488665931,-0.387399686775176,0.16380724554970857,0.0,0.0,0.0,0.7400699681597184,0.16380724554970857,0.0,0.0,-0.38205327508479314,0.0,0.0,-0.0015495714700484477,0.0,2.015177614704102,0.0,9.104435082498677,0.0,-0.6580095324771711,0.0,87.87233904709669,-2.0738283182350847,0.0,-9.09125486919839,0.0,-0.6580095324771711,0.0
sim_raptor_glider_3dof,raptor_glider_3dof,0.004,-14.95206006146447,0.0,-0.00019393750269191865,11.969867139046595,0.0,-0.10386280993339823,0.0,0.0,0.0,-20.179227607931264,-0.35219396226773997,-0.01471113674262299,0.0,0.0,0.0,0.0,0.0,-0.0007079751977142588,-0.040563990828967035,0.0,0.0,11.970317740549529,0.00019393750269191865,0.03517681313159225,-0.008676805031272569,-0.49714430794979647,0.0,0.0,0.00796882983355831,0.4565803171208294,-7.587282867422961,0.0,-26.864252771312174,11.96993767151242,0.0,-0.09538841555743248,0.0,-86.72306067972036,0.0,0.0,-0.35219396226773997,0.0,0.4363323129985824,0.3490658503988659,1.0,0.14,0.14,0.75,0.08726646259971647,5.0,0.184,0.175,0.174,0.0,0.0,0.0,-0.054280487125545326,0.0,0.054843901706905056,0.0,6.023207997132767,0.0,-0.5289492506950555,0.0,0.18818569052618506,0.0,-3.4484661334741316,0.0,-0.033335929119057396,0.0,-0.028461722112779208,0.7402377623774763,-0.38677875516894367,0.16284159593212236,0.0,0.0,0.0,0.727832609270965,0.16284159593212236,0.0,0.0,-0.37967643521108574,0.0,0.0,-0.0020595591439672187,0.0,2.000833340210975,0.0,8.942873240625298,0.0,-0.6531113699789741,0.0,87.76422654166264,-2.078352616244555,0.0,-8.925175978978858,0.0,-0.6531113699789741,0.0
sim_raptor_glider_3dof,raptor_glider_3dof,0.005,-14.94009389182307,0.0,-0.0003005518855746,11.962263859629724,0.0,-0.13093865674169305,0.0,0.0,0.0,-25.12980322664479,-0.4385978066832464,-0.01833146045868009,0.0,0.0,0.0,0.0,0.0,-0.0011034240774344013,-0.06322154265010774,0.0,0.0,11.962980463882431,0.0003005518855746,0.035155251297077285,-0.010945539172903748,-0.6271331991024985,0.0,0.0,0.009842115095469346,0.5639116564523908,-7.619764933048298,0.0,-27.284916404279006,11.96240105817221,0.0,-0.11773912974501546,0.0,-86.08698535636344,0.0,0.0,-0.4385978066832464,0.0,0.4363323129985824,0.3490658503988659,1.0,0.14,0.14,0.75,0.08726646259971647,5.0,0.184,0.175,0.174,0.0,0.0,0.0,-0.05457182683161292,0.0,0.05472593032343835,0.0,6.022849768199583,0.0,-0.529498543215881,0.0,0.18560727572066893,0.0,-3.446631540314975,0.0,-0.03267769521599154,0.0,-0.028117473742245224,0.7308804509402165,-0.3861995880247053,0.16188493539638366,0.0,0.0,0.0,0.7154233824078116,0.16188493539638366,0.0,0.0,-0.37735413745313595,0.0,0.0,-0.002566404464215213,0.0,1.9866411722863777,0.0,8.779628219436473,0.0,-0.6483210867187731,0.0,87.65666831823584,-2.0826180146542357,0.0,-8.757357879177162,0.0,-0.6483210867187731,0.0
sim_raptor_glider_3dof,raptor_glider_3dof,0.006,-14.92813525992473,0.0,-0.0004292124397594923,11.954626639550906,0.0,-0.15842765930436845,0.0,0.0,0.0,-30.04433358782197,-0.5243725426750143,-0.02192985685369944,0.0,0.0,0.0,0.0,0.0,-0.0015849610904613313,-0.09081158117588696,0.0,0.0,11.955676367913814,0.0004292124397594923,0.03513378696968413,-0.01325163807797221,-0.7592629335026617,0.0,0.0,0.01166667698751088,0.6684513523267749,-7.65515672930522,0.0,-27.690630360815796,11.954862725505864,0.0,-0.13947985016959272,0.0,-85.46475387002384,0.0,0.0,-0.5243725426750143,0.0,0.4363323129985824,0.3490658503988659,1.0,0.14,0.14,0.75,0.08726646259971647,5.0,0.184,0.175,0.174,0.0,0.0,0.0,-0.05486778710977721,0.0,0.05463934182373924,0.0,6.022450437086101,0.0,-0.5300622937916623,0.0,0.18299244783751023,0.0,-3.444749760445701,0.0,-0.03200931203935526,0.0,-0.02777473367758559,0.7213366671206888,-0.3856605284654083,0.16093834608201854,0.0,0.0,0.0,0.7028466604815571,0.16093834608201854,0.0,0.0,-0.37508452678533377,0.0,0.0,-0.003070179959517922,0.0,1.9726136922696764,0.0,8.61475825857789,0.0,-0.6436350613951496,0.0,87.54966199755503,-2.0865968109073574,0.0,-8.58786227075033,0.0,-0.6436350613951496,0.0
sim_raptor_glider_3dof,raptor_glider_3dof,0.007,-14.916184165882276,0.0,-0.0005793064854676666,11.946952592434664,0.0,-0.18631506489291877,0.0,0.0,0.0,-34.923595341205655,-0.6095317253381911,-0.025506823267053384,0.0,0.0,0.0,0.0,0.0,-0.00215196395569408,-0.12329845232554847,0.0,0.0,11.94840531406963,0.0005793064854676666,0.03511241974218939,-0.015593931681301612,-0.8934664713539263,0.0,0.0,0.013441967725607532,0.7701680190283778,-7.693410528399182,0.0,-28.081787400130356,11.947325872576652,0.0,-0.1606052419691676,0.0,-84.85576962259707,0.0,0.0,-0.6095317253381911,0.0,0.4363323129985824,0.3490658503988659,1.0,0.14,0.14,0.75,0.08726646259971647,5.0,0.184,0.175,0.174,0.0,0.0,0.0,-0.05516886739682447,0.0,0.05458123429015566,0.0,6.022011606567932,0.0,-0.5306390995932566,0.0,0.18034094615955698,0.0,-3.442822740123928,0.0,-0.031329722669104235,0.0,-0.027433842397851762,0.7116112100401488,-0.3851593965008954,0.16000279048359145,0.0,0.0,0.0,0.6901068760336266,0.16000279048359145,0.0,0.0,-0.3728652305367967,0.0,0.0,-0.0035709552573874744,0.0,1.9587619456352325,0.0,8.448321951825605,0.0,-0.6390488010277785,0.0,87.4432046606849,-2.090261009781001,0.0,-8.416751218395161,0.0,-0.6390488010277785,0.0
sim_raptor_glider_3dof,raptor_glider_3dof,0.008,-14.904240606651282,0.0,-0.0007502161182813057,11.939238882633015,0.0,-0.21458650998107728,0.0,0.0,0.0,-39.768327695755914,-0.6940882563029905,-0.02906283149078703,0.0,0.0,0.0,0.0,0.0,-0.0028038236298313884,-0.16064726048838937,0.0,0.0,11.941167131685324,0.0007502161182813057,0.035091149113066274,-0.017971280258754233,-1.0296785112733915,0.0,0.0,0.015167456628922844,0.8690312507850021,-7.734472659743328,0.0,-28.458772998507442,11.939793614875626,0.0,-0.18111019026309105,0.0,-84.25932271685393,0.0,0.0,-0.6940882563029905,0.0,0.4363323129985824,0.3490658503988659,1.0,0.14,0.14,0.75,0.08726646259971647,5.0,0.184,0.175,0.174,0.0,0.0,0.0,-0.05547563193059443,0.0,0.054548242134604644,0.0,6.021535204946049,0.0,-0.5312274312413525,0.0,0.17765229454057654,0.0,-3.440852589499303,0.0,-0.030637728722487007,0.0,-0.027095110104628704,0.7017089249620452,-0.38469349440195466,0.1590791122370665,0.0,0.0,0.0,0.6772085241452388,0.1590791122370665,0.0,0.0,-0.37069336574289874,0.0,0.0,-0.004068796408710184,0.0,1.9450954633896698,0.0,8.280378294547667,0.0,-0.634556959380627,0.0,87.33729292823296,-2.0935823601488033,0.0,-8.244087212286694,0.0,-0.634556959380627,0.0
sim_raptor_glider_3dof,raptor_glider_3dof,0.009000000000000001,-14.892304576113405,0.0,-0.0009413184291606596,11.931482731000013,0.0,-0.24322801242629782,0.0,0.0,0.0,-44.57922600410458,-0.7780542717623,-0.03259832301805841,0.0,0.0,0.0,0.0,0.0,-0.0035399435977275817,-0.2028238278641469,0.0,0.0,11.933961623290918,0.0009413184291606596,0.03506997450201568,-0.020382573901800104,-1.1678354601866447,0.0,0.0,0.01684263030407252,0.9650116323224979,-7.778283843616755,0.0,-28.821964269395146,11.932268984822977,0.0,-0.20098980076623565,0.0,-83.67459264387269,0.0,0.0,-0.7780542717623,0.0,0.4363323129985824,0.3490658503988659,1.0,0.14,0.14,0.75,0.08726646259971647,5.0,0.184,0.175,0.174,0.0,0.0,0.0,-0.055788708736007504,0.0,0.0545365423304085,0.0,6.021023482042527,0.0,-0.531825634606743,0.0,0.17492580464570248,0.0,-3.4388415806117196,0.0,-0.029931992558805562,0.0,-0.02675881698380161,0.6916347024036031,-0.3842596132891834,0.15816803727685969,0.0,0.0,0.0,0.6641561648322319,0.15816803727685969,0.0,0.0,-0.3685655476778038,0.0,0.0,-0.004563765222528177,0.0,1.9316222876944662,0.0,8.110986723910683,0.0,-0.6301533572010052,0.0,87.23192303897322,-2.096532395351765,0.0,-8.0699332223392,0.0,-0.6301533572010052,0.0
sim_raptor_glider_3dof,raptor_glider_3dof,0.01,-14.88037606515921,0.0,-0.0011519857253842968,11.923681420343334,0.0,-0.27222596258209436,0.0,0.0,0.0,-49.356935507178044,-0.8614410332947542,-0.03611370438294382,0.0,0.0,0.0,0.0,0.0,-0.004359739052099519,-0.24979464746366856,0.0,0.0,11.926788569792983,0.0011519857253842968,0.03504889526519434,-0.022826731891997996,-1.3078753974881616,0.0,0.0,0.01846699283989848,1.058080750024493,-7.824779502619,0.0,-29.171728920063018,11.924754932281528,0.0,-0.22023940058925584,0.0,-83.10065118556057,0.0,0.0,-0.8614410332947542,0.0,0.4363323129985824,0.3490658503988659,1.0,0.14,0.14,0.75,0.08726646259971647,5.0,0.184,0.175,0.174,0.0,0.0,0.0,-0.05610878847395166,0.0,0.05454186162840115,0.0,6.020479004498773,0.0,-0.5324319328652451,0.0,0.17216057968112747,0.0,-3.4367921450673697,0.0,-0.02921103978427371,0.0,-0.02642521354291394,0.6813934773072167,-0.3838540408424605,0.15727017538811427,0.0,0.0,0.0,0.6509544254455103,0.15727017538811427,0.0,0.0,-0.3664778994650984,0.0,0.0,-0.0050559186136121355,0.0,1.9183490019530007,0.0,7.940207158086878,0.0,-0.6258310040784566,0.0,87.12709092666549,-2.099082476605616,0.0,-7.894352751368246,0.0,-0.6258310040784566,0.0
sim_raptor_glider_3dof,raptor_glider_3dof,0.01,-14.88037606515921,0.0,-0.0011519857253842968,11.923681420343334,0.0,-0.27222596258209436,0.0,0.0,0.0,-49.356935507178044,-0.8614410332947542,-0.03611370438294382,0.0,0.0,0.0,0.0,0.0,-0.004359739052099519,-0.24979464746366856,0.0,0.0,11.926788569792983,0.0011519857253842968,0.03504889526519434,-0.022826731891997996,-1.3078753974881616,0.0,0.0,0.01846699283989848,1.058080750024493,-5.930863919389264,0.0,-19.523954351420095,11.924754932281528,0.0,-0.22023940058925584,0.0,27.999797550439887,0.0,0.0,-0.8614410332947542,0.0,-0.25975362717562556,0.3490658503988659,1.0,0.14,0.14,0.75,0.08726646259971647,5.0,0.184,0.175,0.174,0.0,0.0,0.0,-0.03791951604030837,0.0,0.02185272614217632,0.0,6.013516971920569,0.0,-0.5225315637930653,0.0,0.16543843869716668,0.0,-3.5183259097418293,0.0,-0.026464698532261202,0.0,-0.01613590559600694,0.4629306807504166,0.10569209484066688,0.11954745785090153,0.0,0.0,0.0,0.4325268283588109,0.11954745785090153,0.0,0.0,0.12348046429648445,0.0,0.0,-0.0050559186136121355,0.0,1.458215112231809,0.0,5.27587260236965,0.0,0.2108664753523628,0.0,87.12709092666549,-1.5782556912174384,0.0,-5.241214744991441,0.0,0.2108664753523628,0.0
sim_raptor_glider_3dof,raptor_glider_3dof,0.011,-14.868454138090012,0.0,-0.0013768114161401403,11.917746449180834,0.0,-0.29143915106465446,0.0,0.0,0.0,-47.75422634016191,-0.8334684813784269,-0.034957086305967035,0.0,0.0,0.0,0.0,0.0,-0.005207184667251133,-0.29834970457872384,0.0,0.0,11.921309374633966,0.0013768114161401403,0.03503279371898664,-0.02444934357011759,-1.4008441984330544,0.0,0.0,0.019242158902866457,1.1024944938543306,-5.938819586268202,0.0,-18.903855199406003,11.919102446676852,0.0,-0.22937757378941767,0.0,27.94499643350886,0.0,0.0,-0.8334684813784269,0.0,-0.25975362717562556,0.3490658503988659,1.0,0.14,0.14,0.75,0.08726646259971647,5.0,0.184,0.175,0.174,0.0,0.0,0.0,-0.03816935851295685,0.0,0.02181836911624458,0.0,6.013189050240564,0.0,-0.5227773973727121,0.0,0.16357781886847877,0.0,-3.5160925991130756,0.0,-0.02592432028909157,0.0,-0.015956685733756838,0.45619703517142407,0.10614436983664335,0.11928761047767018,0.0,0.0,0.0,0.4267685355669543,0.11928761047767018,0.0,0.0,0.12335209917921884,0.0,0.0,-0.004893992082835386,0.0,1.4537089521191249,0.0,5.200852277551362,0.0,0.21045376814075523,0.0,87.04705652749418,-1.580419237750117,0.0,-5.163759208496442,0.0,0.21045376814075523,0.0
sim_raptor_glider_3dof,raptor_glider_3dof,0.012,-14.856537858914598,0.0,-0.0016106397610753044,11.91180463272769,0.0,-0.3100375256865318,0.0,0.0,0.0,-46.15474060132422,-0.8055521888970151,-0.03380174096342756,0.0,0.0,0.0,0.0,0.0,-0.006026691195643293,-0.3453039699390126,0.0,0.0,11.915838739912802,0.0016106397610753044,0.035016717329080495,-0.02602187935971725,-1.4909438623103874,0.0,0.0,0.019995188164073956,1.1456398923713746,-5.944522909828986,0.0,-18.294284244551083,11.913456798129534,0.0,-0.2382435617343559,0.0,27.887195668799578,0.0,0.0,-0.8055521888970151,0.0,-0.25975362717562556,0.3490658503988659,1.0,0.14,0.14,0.75,0.08726646259971647,5.0,0.184,0.175,0.174,0.0,0.0,0.0,-0.03841110430660069,0.0,0.02178407103776079,0.0,6.012859952740864,0.0,-0.5230129570327162,0.0,0.16177353640226633,0.0,-3.513919983857755,0.0,-0.02540137417737334,0.0,-0.015784362229044394,0.4496616920070402,0.10658128989512565,0.11904087235804525,0.0,0.0,0.0,0.42120737316697227,0.11904087235804525,0.0,0.0,0.12321001572360564,0.0,0.0,-0.004732243734879858,0.0,1.449370920660684,0.0,5.128370669192462,0.0,0.21001847058172962,0.0,86.967183860619,-1.5823150188489814,0.0,-5.088923360340111,0.0,0.21001847058172962,0.0
sim_raptor_glider_3dof,raptor_glider_3dof,0.013000000000000001,-14.844627222257872,0.0,-0.001853212290298517,11.905858095729156,0.0,-0.3280311565564363,0.0,0.0,0.0,-44.558643991314476,-0.7776950478724252,-0.032647795260127024,0.0,0.0,0.0,0.0,0.0,-0.006818308691449125,-0.39066031143740193,0.0,0.0,11.910376208806808,0.001853212290298517,0.035000664753024796,-0.02754511157584884,-1.5782186395130868,0.0,0.0,0.020726802884399716,1.1875583280756847,-5.94810400991255,0.0,-17.69515758703199,11.907817949454065,0.0,-0.24684634486009768,0.0,27.82647514024427,0.0,0.0,-0.7776950478724252,0.0,-0.25975362717562556,0.3490658503988659,1.0,0.14,0.14,0.75,0.08726646259971647,5.0,0.184,0.175,0.174,0.0,0.0,0.0,-0.03864488964309066,0.0,0.021749963627053684,0.0,6.012530632198395,0.0,-0.523238576895893,0.0,0.16002478877942833,0.0,-3.5118077651381343,0.0,-0.024895516433116733,0.0,-0.015618785321828376,0.44332278655173557,0.1070031505102178,0.11880665302050648,0.0,0.0,0.0,0.4158413648811998,0.11880665302050648,0.0,0.0,0.12305453983749938,0.0,0.0,-0.004570691336417784,0.0,1.445193264961954,0.0,5.058396348520705,0.0,0.20956118428117962,0.0,86.8874660887953,-1.5839615145084158,0.0,-5.01667450731809,0.0,0.20956118428117962,0.0
sim_raptor_glider_3dof,raptor_glider_3dof,0.014,-14.832722220838146,0.0,-0.00210425442220295,11.89990903246933,0.0,-0.3454310600012322,0.0,0.0,0.0,-42.966111553283255,-0.7499001133839679,-0.03149538234868162,0.0,0.0,0.0,0.0,0.0,-0.00758210108703075,-0.43442239212841566,0.0,0.0,11.904921570437107,0.00210425442220295,0.034984635371116124,-0.02901989291487732,-1.662717385944071,0.0,0.0,0.021437791827846574,1.2282949938156553,-5.949689942786214,0.0,-17.106372886143337,11.902186049715342,0.0,-0.2551956822131489,0.0,27.762921726973673,0.0,0.0,-0.7499001133839679,0.0,-0.25975362717562556,0.3490658503988659,1.0,0.14,0.14,0.75,0.08726646259971647,5.0,0.184,0.175,0.174,0.0,0.0,0.0,-0.03887086464745118,0.0,0.021716161668988872,0.0,6.012201957710522,0.0,-0.5234545958996647,0.0,0.15833067917286264,0.0,-3.509755492452995,0.0,-0.02440638333995536,0.0,-0.015459791587515682,0.43717798717640627,0.10741027182523265,0.11858437357355586,0.0,0.0,0.0,0.41066806325822436,0.11858437357355586,0.0,0.0,0.12288602459115959,0.0,0.0,-0.004409353528815428,0.0,1.44116846155114,0.0,4.990892502096256,0.0,0.20908256352583873,0.0,86.80789997398577,-1.5853764990054169,0.0,-4.946974414574188,0.0,0.20908256352583873,0.0
sim_raptor_glider_3dof,raptor_glider_3dof,0.015,-14.820822847869183,0.0,-0.0023635229780950436,11.893959328677534,0.0,-0.36224730777408504,0.0,0.0,0.0,-41.377299639178,-0.7221701142879178,-0.030344622308971253,0.0,0.0,0.0,0.0,0.0,-0.00831813082759457,-0.47659378985883144,0.0,0.0,11.89947442638644,0.0023635229780950436,0.03496862801253766,-0.03044699868631013,-1.7444845235659323,0.0,0.0,0.02212886785871556,1.2678907337071008,-5.949401804546346,0.0,-16.527833053352175,11.8965610375433,0.0,-0.2633004068199753,0.0,27.696615314561264,0.0,0.0,-0.7221701142879178,0.0,-0.25975362717562556,0.3490658503988659,1.0,0.14,0.14,0.75,0.08726646259971647,5.0,0.184,0.175,0.174,0.0,0.0,0.0,-0.039089168830290136,0.0,0.021682767773906705,0.0,6.011874751698488,0.0,-0.5236613342049292,0.0,0.15669039739599364,0.0,-3.5077627836687744,0.0,-0.02393364318735728,0.0,-0.015307222094973292,0.4312251625567561,0.10780295418531391,0.11837349025298322,0.0,0.0,0.0,0.40568523293747777,0.11837349025298322,0.0,0.0,0.12270479734009915,0.0,0.0,-0.004248247123255976,0.0,1.4372893960185216,0.0,4.925824880014855,0.0,0.2085832099339609,0.0,86.72847955030197,-1.5865766625181084,0.0,-4.879787500540731,0.0,0.2085832099339609,0.0
sim_raptor_glider_3dof,raptor_glider_3dof,0.016,-14.80892909647656,0.0,-0.0026307773579351892,11.888010805452568,0.0,-0.3784900984297829,0.0,0.0,0.0,-39.792363900898685,-0.6945077672224166,-0.029195634573412517,0.0,0.0,0.0,0.0,0.0,-0.009026464075562847,-0.5171782954562073,0.0,0.0,11.894034457036284,0.0026307773579351892,0.034952641738036035,-0.03182721618209591,-1.823565160884573,0.0,0.0,0.022800752106533068,1.306386865428366,-5.947356582308208,0.0,-15.959434094149787,11.89094288957662,0.0,-0.27116943410650574,0.0,27.62763676946786,0.0,0.0,-0.6945077672224166,0.0,-0.25975362717562556,0.3490658503988659,1.0,0.14,0.14,0.75,0.08726646259971647,5.0,0.184,0.175,0.174,0.0,0.0,0.0,-0.039299944546538595,0.0,0.0216498715635304,0.0,6.011549773884075,0.0,-0.5238591063791133,0.0,0.1551031171998388,0.0,-3.5058292027144353,0.0,-0.023476966147925247,0.0,-0.015160913543863057,0.4254620200969376,0.10818150227313912,0.11817347974192091,0.0,0.0,0.0,0.4008904786383896,0.11817347974192091,0.0,0.0,0.12251118943223395,0.0,0.0,-0.004087388840277753,0.0,1.4335492474984612,0.0,4.863157497235765,0.0,0.20806373251086246,0.0,86.6492000108164,-1.5875778712788036,0.0,-4.815076405473716,0.0,0.20806373251086246,0.0
sim_raptor_glider_3dof,raptor_glider_3dof,0.017,-14.797040959817469,0.0,-0.0029057862109940426,11.882065163726072,0.0,-0.39416952005867145,0.0,0.0,0.0,-38.21145517374318,-0.6669157047600404,-0.02804853509993088,0.0,0.0,0.0,0.0,0.0,-0.009707169790646297,-0.5561798600209237,0.0,0.0,11.888601354472945,0.0029057862109940426,0.034936675642754544,-0.03316132491401079,-1.9000039606348458,0.0,0.0,0.023454155123364493,1.3438241006139222,-5.943666848154522,0.0,-15.401068305468499,11.885331560066097,0.0,-0.2788115364771482,0.0,27.556065981154468,0.0,0.0,-0.6669157047600404,0.0,-0.25975362717562556,0.3490658503988659,1.0,0.14,0.14,0.75,0.08726646259971647,5.0,0.184,0.175,0.174,0.0,0.0,0.0,-0.03950333371705589,0.0,0.021617551195133273,0.0,6.011227728420136,0.0,-0.5240482183721306,0.0,0.15356801884784096,0.0,-3.5039542883434676,0.0,-0.023036030442838862,0.0,-0.015020701225240629,0.4198861975427678,0.10854621904182779,0.117983841432496,0.0,0.0,0.0,0.39628133907197,0.117983841432496,0.0,0.0,0.12230552892014951,0.0,0.0,-0.0039267949139903235,0.0,1.4299414984081618,0.0,4.802853720506951,0.0,0.2075247329040743,0.0,86.57005672778003,-1.5883951397883571,0.0,-4.752803112832885,0.0,0.2075247329040743,0.0
sim_raptor_glider_3dof,raptor_glider_3dof,0.018000000000000002,-14.785158431106455,0.0,-0.0031883274257539125,11.876123987099774,0.0,-0.40929554500309157,0.0,0.0,0.0,-36.634719466572584,-0.6393964752361523,-0.02690343636810769,0.0,0.0,0.0,0.0,0.0,-0.010360319688293278,-0.5936025925454974,0.0,0.0,11.883174819892453,0.0031883274257539125,0.03492072884860693,-0.03445009618223507,-1.9738451150618195,0.0,0.0,0.02408977649394179,1.3802425225163222,-5.938440850469201,0.0,-14.852624771236075,11.879726980483257,0.0,-0.28623533902049675,0.0,27.48198171916681,0.0,0.0,-0.6393964752361523,0.0,-0.25975362717562556,0.3490658503988659,1.0,0.14,0.14,0.75,0.08726646259971647,5.0,0.184,0.175,0.174,0.0,0.0,0.0,-0.03969947754250416,0.0,0.021585874383386234,0.0,6.010909266793247,0.0,-0.5242289674052406,0.0,0.15208428952337594,0.0,-3.5021375561114905,0.0,-0.0226105221069963,0.0,-0.01488641979560234,0.4144952735338046,0.10889740507017172,0.11780409669969767,0.0,0.0,0.0,0.39185529743749486,0.11780409669969767,0.0,0.0,0.12208813995522051,0.0,0.0,-0.0037664810915350767,0.0,1.426459923573792,0.0,4.744876394745185,0.0,0.20696680432704526,0.0,86.49104521442898,-1.5890426566258036,0.0,-4.692929080051798,0.0,0.20696680432704526,0.0
sim_raptor_glider_3dof,raptor_glider_3dof,0.019000000000000003,-14.773281503631747,0.0,-0.00347818689266348,11.870188760336266,0.0,-0.4238780396337167,0.0,0.0,0.0,-35.062298594094344,-0.6119525537843251,-0.025760447810312982,0.0,0.0,0.0,0.0,0.0,-0.010985987824111773,-0.6294507361037152,0.0,0.0,11.877754577296885,0.00347818689266348,0.03490480054452639,-0.03569429386077788,-2.0451323909222974,0.0,0.0,0.024708306036666107,1.4156816548185822,-5.931782647710032,0.0,-14.31398976900493,11.874129074865808,0.0,-0.2934493345087305,0.0,27.405461698922974,0.0,0.0,-0.6119525537843251,0.0,-0.25975362717562556,0.3490658503988659,1.0,0.14,0.14,0.75,0.08726646259971647,5.0,0.184,0.175,0.174,0.0,0.0,0.0,-0.03988851642345539,0.0,0.021554899320841966,0.0,6.010594990305031,0.0,-0.5244016420588441,0.0,0.15065112235321554,0.0,-3.500378498603801,0.0,-0.022200134375608215,0.0,-0.014757903853787325,0.4092867724321629,0.10923535830402656,0.11763378802511731,0.0,0.0,0.0,0.3876097858342275,0.11763378802511731,0.0,0.0,0.12185934277217406,0.0,0.0,-0.003606462693443818,0.0,1.4230985815161923,0.0,4.689187908194407,0.0,0.20639053205458893,0.0,86.41216132394172,-1.5895338165389383,0.0,-4.635415305789676,0.0,0.20639053205458893,0.0
sim_raptor_glider_3dof,raptor_glider_3dof,0.02,-14.761410170762517,0.0,-0.003775158937090147,11.864260866051266,0.0,-0.437926755256345,0.0,0.0,0.0,-33.49432994629298,-0.584586338312148,-0.024619675663911187,0.0,0.0,0.0,0.0,0.0,-0.011584250694912784,-0.6637286736399935,0.0,0.0,11.872340364927418,0.003775158937090147,0.03488888996129012,-0.03689467365259355,-2.1139090868061277,0.0,0.0,0.025310422957680767,1.4501804131661342,-5.923792192152289,0.0,-13.785047199512329,11.86853775337256,0.0,-0.3004618735465033,0.0,27.326582398989284,0.0,0.0,-0.584586338312148,0.0,-0.25975362717562556,0.3490658503988659,1.0,0.14,0.14,0.75,0.08726646259971647,5.0,0.184,0.175,0.174,0.0,0.0,0.0,-0.04007058966686572,0.0,0.02152467556816621,0.0,6.010285452807166,0.0,-0.5245665221693234,0.0,0.14926771720745782,0.0,-3.498676587779088,0.0,-0.02180456759854218,0.0,-0.014634988612939994,0.40425817495369826,0.10956037343029333,0.11747247835757232,0.0,0.0,0.0,0.3835421959643092,0.11747247835757232,0.0,0.0,0.12161945302845903,0.0,0.0,-0.0034467545929475667,0.0,1.419851803311525,0.0,4.635750315306797,0.0,0.20579649204678832,0.0,86.33340112406488,-1.58988124490967,0.0,-4.580222457077662,0.0,0.20579649204678832,0.0
sim_raptor_glider_3dof,raptor_glider_3dof,0.02,-14.761410170762517,0.0,-0.003775158937090147,11.864260866051266,0.0,-0.437926755256345,0.0,0.0,0.0,-33.49432994629298,-0.584586338312148,-0.024619675663911187,0.0,0.0,0.0,0.0,0.0,-0.011584250694912784,-0.6637286736399935,0.0,0.0,11.872340364927418,0.003775158937090147,0.03488888996129012,-0.03689467365259355,-2.1139090868061277,0.0,0.0,0.025310422957680767,1.4501804131661342,-5.91670343072876,0.0,-13.800374252071448,11.86853775337256,0.0,-0.3004618735465033,0.0,27.15609627436908,0.0,0.0,-0.584586338312148,0.0,-0.2587270832957786,0.3490658503988659,1.0,0.14,0.14,0.75,0.08726646259971647,5.0,0.184,0.175,0.174,0.0,0.0,0.0,-0.038814852699772445,0.0,0.021245630478978206,0.0,6.0107313114840135,0.0,-0.5243998860150989,0.0,0.14925360197544577,0.0,-3.5003479849822474,0.0,-0.022175070895301272,0.0,-0.014540661288794889,0.40460225126387717,0.1087958484516815,0.11729843908756633,0.0,0.0,0.0,0.3838847355090459,0.11729843908756633,0.0,0.0,0.12086068894583382,0.0,0.0,-0.0034467545929475667,0.0,1.4177482470162979,0.0,4.639890479855122,0.0,0.20451256104227356,0.0,86.33340112406488,-1.5879318355181995,0.0,-4.58443739653142,0.0,0.20451256104227356,0.0
sim_raptor_glider_3dof,raptor_glider_3dof,0.021,-14.749544428568974,0.0,-0.004079048309237184,11.858348721469303,0.0,-0.45146747284160715,0.0,0.0,0.0,-31.94069677412025,-0.5574703240895299,-0.02348837776628763,0.0,0.0,0.0,0.0,0.0,-0.012155245469572199,-0.6964442643520016,0.0,0.0,11.866939676218408,0.004079048309237184,0.034873019119628576,-0.03805331971611699,-2.1802946161954675,0.0,0.0,0.025898074246544788,1.4838503518434658,-5.9075820153148735,0.0,-13.282503735628378,11.862960259608908,0.0,-0.3072965309703185,0.0,27.076079908681884,0.0,0.0,-0.5574703240895299,0.0,-0.2587270832957786,0.3490658503988659,1.0,0.14,0.14,0.75,0.08726646259971647,5.0,0.184,0.175,0.174,0.0,0.0,0.0,-0.038985317583535836,0.0,0.021217219933743113,0.0,6.010433392762464,0.0,-0.5245562301776728,0.0,0.14791747825174123,0.0,-3.498716009384397,0.0,-0.02179482666706327,0.0,-0.01442354778359897,0.39974483131272837,0.10910919505044063,0.1171454062796789,0.0,0.0,0.0,0.37998028510316434,0.1171454062796789,0.0,0.0,0.12061427791599369,0.0,0.0,-0.003288372887280268,0.0,1.4146107067668976,0.0,4.588521195478737,0.0,0.20390995779228327,0.0,86.25487342686283,-1.588152939880344,0.0,-4.5313817376829535,0.0,0.20390995779228327,0.0
sim_raptor_glider_3dof,raptor_glider_3dof,0.022,-14.737684254816063,0.0,-0.0043896962547475705,11.852446112289888,0.0,-0.4644943446040436,0.0,0.0,0.0,-30.391688841683315,-0.5304350355289955,-0.022359442449866825,0.0,0.0,0.0,0.0,0.0,-0.012699185792713988,-0.7276097491750082,0.0,0.0,11.861544327822783,0.0043896962547475705,0.03485716397138553,-0.039169700782540354,-2.2442585396298402,0.0,0.0,0.026470514989826367,1.516648790454832,-5.897316159582591,0.0,-12.77405641370043,11.857388948609097,0.0,-0.3139445210664888,0.0,26.993842260869428,0.0,0.0,-0.5304350355289955,0.0,-0.2587270832957786,0.3490658503988659,1.0,0.14,0.14,0.75,0.08726646259971647,5.0,0.184,0.175,0.174,0.0,0.0,0.0,-0.039149290836869334,0.0,0.021189602899745315,0.0,6.010140900495858,0.0,-0.5247053601689038,0.0,0.1466294716650194,0.0,-3.4971393988205444,0.0,-0.021428754588863966,0.0,-0.014311683610554297,0.3950619004488199,0.10941018329379439,0.11700056187950865,0.0,0.0,0.0,0.376248224507588,0.11700056187950865,0.0,0.0,0.12035735549158696,0.0,0.0,-0.0031303219429813555,0.0,1.4115771782575774,0.0,4.539323560016692,0.0,0.20329062606660767,0.0,86.17645905662216,-1.5882529323270482,0.0,-4.480564823284534,0.0,0.20329062606660767,0.0
sim_raptor_glider_3dof,raptor_glider_3dof,0.023,-14.725829647341726,0.0,-0.004706854381790112,11.846554593321695,0.0,-0.4770200133790978,0.0,0.0,0.0,-28.84748821433872,-0.5034836502704704,-0.02123300782616844,0.0,0.0,0.0,0.0,0.0,-0.013216156149582473,-0.7572299687569444,0.0,0.0,11.856154681249546,0.004706854381790112,0.03484132557891664,-0.04024481948509447,-2.3058583037617724,0.0,0.0,0.027028663335512,1.5486283350048278,-5.885997285184762,0.0,-12.274872001063125,11.851824196045905,0.0,-0.320416996640911,0.0,26.909479083551147,0.0,0.0,-0.5034836502704704,0.0,-0.2587270832957786,0.3490658503988659,1.0,0.14,0.14,0.75,0.08726646259971647,5.0,0.184,0.175,0.174,0.0,0.0,0.0,-0.03930694336462459,0.0,0.021162800319808498,0.0,6.009854192114619,0.0,-0.5248475652008512,0.0,0.14538848801318544,0.0,-3.4956171966246954,0.0,-0.021076487006873316,0.0,-0.014204882114289094,0.39054970991191945,0.10969916869059755,0.1168634916648322,0.0,0.0,0.0,0.37268469055857734,0.1168634916648322,0.0,0.0,0.12009031411164851,0.0,0.0,-0.0029726210956635816,0.0,1.4086424761590932,0.0,4.49224542118488,0.0,0.20265528697822371,0.0,86.09816315793715,-1.5882426868963362,0.0,-4.431932729331127,0.0,0.20265528697822371,0.0
sim_raptor_glider_3dof,raptor_glider_3dof,0.024,-14.713980603371537,0.0,-0.005030442838191691,11.840674619326098,0.0,-0.48904876227677296,0.0,0.0,0.0,-27.30815048061339,-0.47661713851677556,-0.02010912150780445,0.0,0.0,0.0,0.0,0.0,-0.013706196155981442,-0.7853071929161691,0.0,0.0,11.85076976962415,0.005030442838191691,0.03482550110089674,-0.041278978961605664,-2.365111277109322,0.0,0.0,0.027572782805624224,1.5798040841931529,-5.87370486089409,0.0,-11.784893728803036,11.846265231673987,0.0,-0.3267172990059169,0.0,26.823027963896923,0.0,0.0,-0.47661713851677556,0.0,-0.2587270832957786,0.3490658503988659,1.0,0.14,0.14,0.75,0.08726646259971647,5.0,0.184,0.175,0.174,0.0,0.0,0.0,-0.039458343118605264,0.0,0.02113684478609212,0.0,6.009573771035348,0.0,-0.5249830344326719,0.0,0.14419423769922035,0.0,-3.494149408873373,0.0,-0.020737888699952092,0.0,-0.01410302786254388,0.38620739347363925,0.10997631634688587,0.1167338872363826,0.0,0.0,0.0,0.3692887785895782,0.1167338872363826,0.0,0.0,0.11981331485100996,0.0,0.0,-0.0028152770110926235,0.0,1.4058023927750871,0.0,4.447269433553269,0.0,0.20200422359610773,0.0,86.01997158156456,-1.5881314623250267,0.0,-4.385467391341857,0.0,0.20200422359610773,0.0
sim_raptor_glider_3dof,raptor_glider_3dof,0.025,-14.702137115122914,0.0,-0.005360242736956843,11.834807431630294,0.0,-0.5005924370729703,0.0,0.0,0.0,-25.773828582571433,-0.44983816961049466,-0.01898790064558425,0.0,0.0,0.0,0.0,0.0,-0.014169416514211079,-0.8118477644272655,0.0,0.0,11.845389809196922,0.005360242736956843,0.034809691172814135,-0.0422731181261927,-2.4220712554888206,0.0,0.0,0.02810370161198162,1.6102234910615552,-5.860522136748635,0.0,-11.303963920608846,11.840712265769922,0.0,-0.33285548076003424,0.0,26.73457646621455,0.0,0.0,-0.44983816961049466,0.0,-0.2587270832957786,0.3490658503988659,1.0,0.14,0.14,0.75,0.08726646259971647,5.0,0.184,0.175,0.174,0.0,0.0,0.0,-0.03960365082584481,0.0,0.021111747842307266,0.0,6.0092999330956385,0.0,-0.5251120338375466,0.0,0.14304569452747487,0.0,-3.492735115366103,0.0,-0.02041261911294555,0.0,-0.014005944215042067,0.3820313686759089,0.11024195976398884,0.11661137489391338,0.0,0.0,0.0,0.3660568100648299,0.11661137489391338,0.0,0.0,0.11952671879325692,0.0,0.0,-0.0026583060903817954,0.0,1.4030522306352577,0.0,4.4043458399142335,0.0,0.20133809536706176,0.0,85.94188737172495,-1.5879287627325205,0.0,-4.341117377351959,0.0,0.20133809536706176,0.0
sim_raptor_glider_3dof,raptor_glider_3dof,0.026000000000000002,-14.690299176930282,0.0,-0.005696102965413764,11.828953837333742,0.0,-0.5116596531936263,0.0,0.0,0.0,-24.24463020987818,-0.4231486230908581,-0.01786943003283686,0.0,0.0,0.0,0.0,0.0,-0.014605902518448451,-0.8368565702865963,0.0,0.0,11.840014547561962,0.005696102965413764,0.034793895052931206,-0.04322790636624583,-2.476776591972589,0.0,0.0,0.028622003847797377,1.6399200216859924,-5.846525957405353,0.0,-10.831964795100077,11.835165095583106,0.0,-0.33883867366376497,0.0,26.644189729199034,0.0,0.0,-0.4231486230908581,0.0,-0.2587270832957786,0.3490658503988659,1.0,0.14,0.14,0.75,0.08726646259971647,5.0,0.184,0.175,0.174,0.0,0.0,0.0,-0.03974298713856584,0.0,0.021087523070014335,0.0,6.009033009669729,0.0,-0.5252347865151062,0.0,0.14194214066363184,0.0,-3.4913737523120565,0.0,-0.020100428779450404,0.0,-0.013913483567313718,0.3780191408641994,0.11049635728403763,0.1164956305439212,0.0,0.0,0.0,0.3629862215738174,0.1164956305439212,0.0,0.0,0.1192307975419969,0.0,0.0,-0.0025017202045971606,0.0,1.4003877944128869,0.0,4.36343811230223,0.0,0.20065739285059794,0.0,85.86390676962603,-1.5876431342408104,0.0,-4.298844892867183,0.0,0.20065739285059794,0.0
sim_raptor_glider_3dof,raptor_glider_3dof,0.027,-14.678466783061516,0.0,-0.006037871475459865,11.823114620093456,0.0,-0.5222592923577921,0.0,0.0,0.0,-22.72066472328527,-0.3965504076630543,-0.01675379563844839,0.0,0.0,0.0,0.0,0.0,-0.015015744361260543,-0.8603387781475933,0.0,0.0,11.834643809102229,0.006037871475459865,0.03477811222516744,-0.04414403678893146,-2.5292669986760115,0.0,0.0,0.029128292427670916,1.6689282205284182,-5.831790209947033,0.0,-10.368773292389905,11.829623568397349,0.0,-0.34467422059047886,0.0,26.5519339861901,0.0,0.0,-0.3965504076630543,0.0,-0.2587270832957786,0.3490658503988659,1.0,0.14,0.14,0.75,0.08726646259971647,5.0,0.184,0.175,0.174,0.0,0.0,0.0,-0.03987647555618083,0.0,0.02106417925974253,0.0,6.008773291234821,0.0,-0.5253515115922597,0.0,0.1408828281642312,0.0,-3.490064698146378,0.0,-0.01980106303983856,0.0,-0.013825498463852339,0.3741680767041227,0.11073977075540391,0.1163863417401592,0.0,0.0,0.0,0.3600743103378466,0.1163863417401592,0.0,0.0,0.11892582705588295,0.0,0.0,-0.002345531389382775,0.0,1.3978050619166766,0.0,4.324508238089328,0.0,0.19996261484999767,0.0,85.78602713644968,-1.5872825898959346,0.0,-4.258610626981011,0.0,0.19996261484999767,0.0
sim_raptor_glider_3dof,raptor_glider_3dof,0.028,-14.666639927966614,0.0,-0.006385404490308257,11.817290480963845,0.0,-0.5324000961651001,0.0,0.0,0.0,-21.202037213438604,-0.3700453575048674,-0.015641080368047216,0.0,0.0,0.0,0.0,0.0,-0.015399034363681986,-0.882299677615901,0.0,0.0,11.829277415542984,0.006385404490308257,0.034762342165632204,-0.04502219216802256,-2.579581595654642,0.0,0.0,0.02962315780434057,1.6972819180387413,-5.816385526691971,0.0,-9.91426638867844,11.824087513435996,0.0,-0.3503693029965053,0.0,26.45787371098323,0.0,0.0,-0.3700453575048674,0.0,-0.2587270832957786,0.3490658503988659,1.0,0.14,0.14,0.75,0.08726646259971647,5.0,0.184,0.175,0.174,0.0,0.0,0.0,-0.04000423737344792,0.0,0.021041721708534238,0.0,6.00852103831793,0.0,-0.5254624198945912,0.0,0.1398670183287059,0.0,-3.4888073228591905,0.0,-0.019514273004454574,0.0,-0.013741845155220374,0.3704755510776824,0.11097245628130406,0.11628321138200863,0.0,0.0,0.0,0.35731838461420173,0.11628321138200863,0.0,0.0,0.11861207648287017,0.0,0.0,-0.0021897512515266105,0.0,1.395300208888863,0.0,4.287518471210411,0.0,0.1992542469174147,0.0,85.7082457995642,-1.5868545865960364,0.0,-4.220375556143657,0.0,0.1992542469174147,0.0
sim_raptor_glider_3dof,raptor_glider_3dof,0.029,-14.654818606266064,0.0,-0.006738565397554077,11.811482051696085,0.0,-0.5420906824298704,0.0,0.0,0.0,-19.688849098361924,-0.34363524269473245,-0.014531364484367565,0.0,0.0,0.0,0.0,0.0,-0.015755866665834704,-0.9027446625231887,0.0,0.0,11.82391519614024,0.006738565397554077,0.03474658437256528,-0.04586304626866464,-2.627758986807702,0.0,0.0,0.030107179602829933,1.7250143242845133,-5.800379418454233,0.0,-9.468321153187997,11.81855675269083,0.0,-0.3559309609208398,0.0,26.36207177814278,0.0,0.0,-0.34363524269473245,0.0,-0.2587270832957786,0.3490658503988659,1.0,0.14,0.14,0.75,0.08726646259971647,5.0,0.184,0.175,0.174,0.0,0.0,0.0,-0.04012639182002745,0.0,0.021020152594214754,0.0,6.008276482811762,0.0,-0.5255677142730956,0.0,0.1388939802080159,0.0,-3.4876009871123177,0.0,-0.01923981494407274,0.0,-0.013662383630664028,0.3669389451257863,0.11119466448134104,0.11618595697578336,0.0,0.0,0.0,0.3547157613565434,0.11618595697578336,0.0,0.0,0.11828980863810873,0.0,0.0,-0.0020343910278114593,0.0,1.392869601652162,0.0,4.252431309950923,0.0,0.1985327625611933,0.0,85.63056020017473,-1.5863660538759636,0.0,-4.184100920887016,0.0,0.1985327625611933,0.0
sim_raptor_glider_3dof,raptor_glider_3dof,0.03,-14.643002812755574,0.0,-0.007097224184535851,11.80568990173687,0.0,-0.5513395523043131,0.0,0.0,0.0,-18.18119843039869,-0.3173217745688823,-0.01342472582739986,0.0,0.0,0.0,0.0,0.0,-0.016086337049392375,-0.9216792207551128,0.0,0.0,11.818556991355036,0.007097224184535851,0.03473083837713432,-0.04666726441564279,-2.673837292437382,0.0,0.0,0.030580927366250416,1.7521580716822691,-5.783836388061682,0.0,-9.030814859374045,11.813031105437783,0.0,-0.36136610226522403,0.0,26.264589530811715,0.0,0.0,-0.3173217745688823,0.0,-0.2587270832957786,0.3490658503988659,1.0,0.14,0.14,0.75,0.08726646259971647,5.0,0.184,0.175,0.174,0.0,0.0,0.0,-0.040243056097672876,0.0,0.020999471333910103,0.0,6.008039829407396,0.0,-0.5256675898361706,0.0,0.1379629899909515,0.0,-3.4864450423885605,0.0,-0.01897744994061465,0.0,-0.013586977698161843,0.36355564716154426,0.111406640570338,0.11609431001329822,0.0,0.0,0.0,0.3522637669157593,0.11609431001329822,0.0,0.0,0.11795928020322895,0.0,0.0,-0.0018794616158359805,0.0,1.3905097896635528,0.0,4.219209506340278,0.0,0.19779862375654303,0.0,85.55296794626187,-1.5858234195689371,0.0,-4.1497482351931945,0.0,0.19779862375654303,0.0
sim_raptor_glider_3dof,raptor_glider_3dof,0.03,-14.643002812755574,0.0,-0.007097224184535851,11.80568990173687,0.0,-0.5513395523043131,0.0,0.0,0.0,-18.18119843039869,-0.3173217745688823,-0.01342472582739986,0.0,0.0,0.0,0.0,0.0,-0.016086337049392375,-0.9216792207551128,0.0,0.0,11.818556991355036,0.007097224184535851,0.03473083837713432,-0.04666726441564279,-2.673837292437382,0.0,0.0,0.030580927366250416,1.7521580716822691,-5.747043978874747,0.0,-9.110993700777902,11.813031105437783,0.0,-0.36136610226522403,0.0,25.368849156971503,0.0,0.0,-0.3173217745688823,0.0,-0.25322136582347643,0.3490658503988659,1.0,0.14,0.14,0.75,0.08726646259971647,5.0,0.184,0.175,0.174,0.0,0.0,0.0,-0.033677473818231385,0.0,0.019601518321714115,0.0,6.0107123509406994,0.0,-0.5247741677493789,0.0,0.13788876490346294,0.0,-3.4960605138616496,0.0,-0.020906245687505792,0.0,-0.013116860018143965,0.3653601544399015,0.10736562782543793,0.11516460205763669,0.0,0.0,0.0,0.3540632512924772,0.11516460205763669,0.0,0.0,0.11393633936788071,0.0,0.0,-0.0018794616158359805,0.0,1.3793742911733395,0.0,4.240762678428439,0.0,0.1910528030011524,0.0,85.55296794626187,-1.5757055070425299,0.0,-4.171797416579254,0.0,0.1910528030011524,0.0
sim_raptor_glider_3dof,raptor_glider_3dof,0.031,-14.631192530359229,0.0,-0.007461294712207915,11.799951098182719,0.0,-0.5602392892559244,0.0,0.0,0.0,-16.730352149750487,-0.2919997300312574,-0.012358999389577097,0.0,0.0,0.0,0.0,0.0,-0.016390963598354288,-0.9391330363382657,0.0,0.0,11.813243160992222,0.007461294712207915,0.03471522278348532,-0.047442476226158714,-2.71825365740864,0.0,0.0,0.031051512627804426,1.7791206210703738,-5.730604931898744,0.0,-8.689635627406442,11.807548475101084,0.0,-0.3667601244241055,0.0,25.2754871688732,0.0,0.0,-0.2919997300312574,0.0,-0.25322136582347643,0.3490658503988659,1.0,0.14,0.14,0.75,0.08726646259971647,5.0,0.184,0.175,0.174,0.0,0.0,0.0,-0.03377313335539079,0.0,0.019585235109015466,0.0,6.010504187277061,0.0,-0.524865602624699,0.0,0.1369907795440829,0.0,-3.4949961231300217,0.0,-0.02065757038870298,0.0,-0.013046252518819234,0.3620959410301598,0.10757192856282334,0.11507714550527441,0.0,0.0,0.0,0.3516962065687347,0.11507714550527441,0.0,0.0,0.1136191802561507,0.0,0.0,-0.001730259914540794,0.0,1.3770876265809693,0.0,4.208624503629795,0.0,0.1903496938687841,0.0,85.47605301361277,-1.575130825518679,0.0,-4.1385810885297865,0.0,0.1903496938687841,0.0
sim_raptor_glider_3dof,raptor_glider_3dof,0.032,-14.619387720869947,0.0,-0.007830694000507033,11.794228922844422,0.0,-0.5687222425165935,0.0,0.0,0.0,-15.284893296234054,-0.26677171383529324,-0.011296291851290698,0.0,0.0,0.0,0.0,0.0,-0.016670349329339532,-0.9551406595798976,0.0,0.0,11.807932963630552,0.007830694000507033,0.034699617866027654,-0.04818306152172639,-2.760686069214116,0.0,0.0,0.031512712192386855,1.8055454096342183,-5.713745225707425,0.0,-8.276271410309214,11.802070508803508,0.0,-0.3720384104141565,0.0,25.180544872210813,0.0,0.0,-0.26677171383529324,0.0,-0.25322136582347643,0.3490658503988659,1.0,0.14,0.14,0.75,0.08726646259971647,5.0,0.184,0.175,0.174,0.0,0.0,0.0,-0.033864393748192334,0.0,0.01956965099662889,0.0,6.010302958527311,0.0,-0.5249522415574039,0.0,0.1361326285790567,0.0,-3.4939774187522534,0.0,-0.020420108943725066,0.0,-0.012979297213438813,0.35897695125937695,0.10776856557796488,0.1149947720027516,0.0,0.0,0.0,0.3494717721725889,0.1149947720027516,0.0,0.0,0.11329422398813115,0.0,0.0,-0.0015814808591806979,0.0,1.3748650206961883,0.0,4.1782466012394295,0.0,0.18963468343261963,0.0,85.39922522137977,-1.5745122051599076,0.0,-4.107177839064832,0.0,0.18963468343261963,0.0
sim_raptor_glider_3dof,raptor_glider_3dof,0.033,-14.607588387107658,0.0,-0.008205316830058679,11.788523790309336,0.0,-0.5767957744676194,0.0,0.0,0.0,-13.844917963666777,-0.24163940313449392,-0.010236679443605274,0.0,0.0,0.0,0.0,0.0,-0.016924554894036256,-0.9697055655657597,0.0,0.0,11.802626255208326,0.008205316830058679,0.034684023201411514,-0.04888959470266416,-2.801167438567803,0.0,0.0,0.0319650398086279,1.8314618730020433,-5.696519286688871,0.0,-7.870794226625383,11.796597020656653,0.0,-0.37720717433186746,0.0,25.084075867279275,0.0,0.0,-0.24163940313449392,0.0,-0.25322136582347643,0.3490658503988659,1.0,0.14,0.14,0.75,0.08726646259971647,5.0,0.184,0.175,0.174,0.0,0.0,0.0,-0.03395134122813077,0.0,0.01955476237410821,0.0,6.01010883480942,0.0,-0.5250342456917308,0.0,0.1353136826445969,0.0,-3.4930038634273126,0.0,-0.020193661372450242,0.0,-0.012915879696511109,0.3560008903059795,0.10795574820941445,0.11491725911584158,0.0,0.0,0.0,0.3473875922471421,0.11491725911584158,0.0,0.0,0.11296169472773968,0.0,0.0,-0.0014331351221047383,0.0,1.372703614825492,0.0,4.149596042335818,0.0,0.18890817535648022,0.0,85.3224824157892,-1.573854689771579,0.0,-4.077553671530035,0.0,0.18890817535648022,0.0
sim_raptor_glider_3dof,raptor_glider_3dof,0.034,-14.595794525244461,0.0,-0.00858506939615671,11.782836000758241,0.0,-0.5844667600150405,0.0,0.0,0.0,-12.410501725363922,-0.2166041169320375,-0.009180223357392107,0.0,0.0,0.0,0.0,0.0,-0.01715366478104697,-0.9828325951361927,0.0,0.0,11.797322815551288,0.00858506939615671,0.034668438142617435,-0.04956261039402602,-2.839728397228917,0.0,0.0,0.03240894561297905,1.8568958020927244,-5.678978551900251,0.0,-7.473100483001161,11.791127759240325,0.0,-0.38227186608371777,0.0,24.986128729674313,0.0,0.0,-0.2166041169320375,0.0,-0.25322136582347643,0.3490658503988659,1.0,0.14,0.14,0.75,0.08726646259971647,5.0,0.184,0.175,0.174,0.0,0.0,0.0,-0.03403405645437928,0.0,0.019540564946309846,0.0,6.009921974359246,0.0,-0.5251117658597719,0.0,0.1345333563304605,0.0,-3.492074957695626,0.0,-0.019978041779758534,0.0,-0.012855892219493542,0.35316561317769535,0.10813367232570724,0.11484439908735725,0.0,0.0,0.0,0.345441473525779,0.11484439908735725,0.0,0.0,0.11262179625864344,0.0,0.0,-0.001285231270034895,0.0,1.3706007178210409,0.0,4.122641899318469,0.0,0.18817053546317725,0.0,85.24582134690179,-1.5731629052092275,0.0,-4.049676657633472,0.0,0.18817053546317725,0.0
sim_raptor_glider_3dof,raptor_glider_3dof,0.034999999999999996,-14.584006130402939,0.0,-0.008969833328585105,11.777165902723883,0.0,-0.591744196110208,0.0,0.0,0.0,-10.98174175842332,-0.19166755128823867,-0.00812700065005847,0.0,0.0,0.0,0.0,0.0,-0.01735779232726593,-0.9945282420169008,0.0,0.0,11.792022637949445,0.008969833328585105,0.03465286266992696,-0.050202823710657,-2.8764099182599447,0.0,0.0,0.032845031383391066,1.8818816762430437,-5.661172910822475,0.0,-7.0830567888262745,11.785662615806885,0.0,-0.3872397194041066,0.0,24.886764417330216,0.0,0.0,-0.19166755128823867,0.0,-0.25322136582347643,0.3490658503988659,1.0,0.14,0.14,0.75,0.08726646259971647,5.0,0.184,0.175,0.174,0.0,0.0,0.0,-0.03411264154086591,0.0,0.019527049275041966,0.0,6.009742463014439,0.0,-0.52518496797533,0.0,0.13379085279462194,0.0,-3.4911899362904526,0.0,-0.019773007713676398,0.0,-0.012799214172026164,0.3504681986962665,0.10830257847580815,0.11477597482031157,0.0,0.0,0.0,0.3436304333697622,0.11477597482031157,0.0,0.0,0.11227478487924757,0.0,0.0,-0.001137780091008186,0.0,1.3685535861912714,0.0,4.097344088332894,0.0,0.18742222282691387,0.0,85.16924185408146,-1.5724411989684046,0.0,-4.0235054582118215,0.0,0.18742222282691387,0.0
sim_raptor_glider_3dof,raptor_glider_3dof,0.036,-14.572223198734964,0.0,-0.009359519007585323,11.771513723490564,0.0,-0.5986353724973072,0.0,0.0,0.0,-9.558714421303701,-0.16683103890961398,-0.00707707318395616,0.0,0.0,0.0,0.0,0.0,-0.017537033280938488,-1.0047979921782384,0.0,0.0,11.786725569535063,0.009359519007585323,0.034637296334112264,-0.050810806885730087,-2.911244788206596,0.0,0.0,0.0332737736047916,1.9064467960283578,-5.64314923808087,0.0,-6.7005523589703095,11.78020137019873,0.0,-0.39211647389469967,0.0,24.786032527855458,0.0,0.0,-0.16683103890961398,0.0,-0.25322136582347643,0.3490658503988659,1.0,0.14,0.14,0.75,0.08726646259971647,5.0,0.184,0.175,0.174,0.0,0.0,0.0,-0.03418718028294706,0.0,0.01951420777494593,0.0,6.009570404769957,0.0,-0.5252539958645246,0.0,0.1330855387178144,0.0,-3.4903482149403464,0.0,-0.019578363690726144,0.0,-0.012745740969382798,0.34790631359062557,0.10846266636181132,0.11471179463659145,0.0,0.0,0.0,0.3419520898524084,0.11471179463659145,0.0,0.0,0.11192086932745862,0.0,0.0,-0.0009907902457538624,0.0,1.3665597549968422,0.0,4.073669718181741,0.0,0.18666361096727946,0.0,85.09274166657168,-1.5716934775313256,0.0,-3.9990061452182624,0.0,0.18666361096727946,0.0
sim_raptor_glider_3dof,raptor_glider_3dof,0.037,-14.560445726448357,0.0,-0.00975403834851888,11.76587965829792,0.0,-0.6051477665248268,0.0,0.0,0.0,-8.141496576306002,-0.14209592129638549,-0.006030503229482178,0.0,0.0,0.0,0.0,0.0,-0.01769148831163333,-1.0136476135616161,0.0,0.0,11.781431489970934,0.00975403834851888,0.03462173878154202,-0.051387149226181754,-2.944266771869169,0.0,0.0,0.033695660914548425,1.9306191583075525,-5.6249522737379865,0.0,-6.32547326616395,11.774743818460855,0.0,-0.3969080025605718,0.0,24.68398310470191,0.0,0.0,-0.14209592129638549,0.0,-0.25322136582347643,0.3490658503988659,1.0,0.14,0.14,0.75,0.08726646259971647,5.0,0.184,0.175,0.174,0.0,0.0,0.0,-0.034257757828953725,0.0,0.019502031500841822,0.0,6.009405878777198,0.0,-0.5253189899786573,0.0,0.1324167589487541,0.0,-3.4895491705935475,0.0,-0.019393909850230165,0.0,-0.012695369697485267,0.34547754039064454,0.10861413723179794,0.11465167437759083,0.0,0.0,0.0,0.3404039765723516,0.11465167437759083,0.0,0.0,0.11156026048777612,0.0,0.0,-0.000844270452127505,0.0,1.3646168649808028,0.0,4.051585027945773,0.0,0.1858950767615101,0.0,85.01631898710929,-1.5709233177097037,0.0,-3.976143905436563,0.0,0.1858950767615101,0.0
sim_raptor_glider_3dof,raptor_glider_3dof,0.038,-14.548673709939507,0.0,-0.010153308650193003,11.760263861617641,0.0,-0.6112887539734638,0.0,0.0,0.0,-6.73016248624788,-0.1174634945792331,-0.004987351191750698,0.0,0.0,0.0,0.0,0.0,-0.017821259381803334,-1.0210829481852537,0.0,0.0,11.776140286002214,0.010153308650193003,0.03460618967939761,-0.051932432665585816,-2.975509211585399,0.0,0.0,0.03411117328378248,1.9544262634001452,-5.606624587866278,0.0,-5.957706486032587,11.7692897559048,0.0,-0.40162006568226943,0.0,24.580664873749754,0.0,0.0,-0.1174634945792331,0.0,-0.25322136582347643,0.3490658503988659,1.0,0.14,0.14,0.75,0.08726646259971647,5.0,0.184,0.175,0.174,0.0,0.0,0.0,-0.03432445767171364,0.0,0.019490510806692445,0.0,6.009248947124135,0.0,-0.5253800847537904,0.0,0.13178386491117614,0.0,-3.4887921758394715,0.0,-0.019219449709298838,0.0,-0.01264800126373537,0.34317948193667625,0.10875718745817395,0.11459543966552911,0.0,0.0,0.0,0.33898364905096096,0.11459543966552911,0.0,0.0,0.11119316391240604,0.0,0.0,-0.0006982291668450978,0.0,1.362722683097931,0.0,4.0310566381116395,0.0,0.1851169871642094,0.0,84.93997212375514,-1.5701339712239462,0.0,-3.954884327398471,0.0,0.1851169871642094,0.0
sim_raptor_glider_3dof,raptor_glider_3dof,0.039,-14.53690714583997,0.0,-0.010557253701587159,11.754666440493219,0.0,-0.6170655827801255,0.0,0.0,0.0,-5.324783277548831,-0.09293500014836216,-0.0039476752152017135,0.0,0.0,0.0,0.0,0.0,-0.017926449906735503,-1.0271099213086325,0.0,0.0,11.770851840912334,0.010557253701587159,0.03459064868468757,-0.05244722955269561,-3.005004900523263,0.0,0.0,0.034520779645960106,1.9778949792146303,-5.588206637484657,0.0,-5.597140247878473,11.76383896814059,0.0,-0.4062582828278666,0.0,24.47612504859007,0.0,0.0,-0.09293500014836216,0.0,-0.25322136582347643,0.3490658503988659,1.0,0.14,0.14,0.75,0.08726646259971647,5.0,0.184,0.175,0.174,0.0,0.0,0.0,-0.034387361382101654,0.0,0.0194796355194182,0.0,6.009099656460057,0.0,-0.5254374085520301,0.0,0.13118621723959456,0.0,-3.48807660266618,0.0,-0.01905479079659415,0.0,-0.01260354053940478,0.34100977207821287,0.1088920080161163,0.11454292573704372,0.0,0.0,0.0,0.33768869574908505,0.11454292573704372,0.0,0.0,0.11081977911354614,0.0,0.0,-0.0005526745301282399,0.0,1.3608750975400064,0.0,4.012051672406971,0.0,0.18432969774093183,0.0,84.86369933762201,-1.5693283792706783,0.0,-3.9351935265223945,0.0,0.18432969774093183,0.0
sim_raptor_glider_3dof,raptor_glider_3dof,0.04,-14.525146030981483,0.0,-0.010965802388815128,11.749087466026113,0.0,-0.6224853986304804,0.0,0.0,0.0,-3.925427633143289,-0.06851163674711848,-0.002911531688570111,0.0,0.0,0.0,0.0,0.0,-0.01800716441423962,-1.0317345219340954,0.0,0.0,11.765566044854793,0.010965802388815128,0.03457511547460928,-0.05293210475664864,-3.0327862033003163,0.0,0.0,0.03492494034240902,2.001051681366221,-5.569736878634231,0.0,-5.243663833483861,11.758391241020822,0.0,-0.4108281622830687,0.0,24.37040967988027,0.0,0.0,-0.06851163674711848,0.0,-0.25322136582347643,0.3490658503988659,1.0,0.14,0.14,0.75,0.08726646259971647,5.0,0.184,0.175,0.174,0.0,0.0,0.0,-0.03444654940005106,0.0,0.019469394471313926,0.0,6.008958037800034,0.0,-0.525491084350432,0.0,0.13062318383246915,0.0,-3.4874018199586283,0.0,-0.018899743889356502,0.0,-0.012561895436280671,0.3389660678535636,0.10901878559384255,0.11449397709898947,0.0,0.0,0.0,0.3365167298096356,0.11449397709898947,0.0,0.0,0.11044030092118468,0.0,0.0,-0.0004076144363998156,0.0,1.3590721155001741,0.0,3.994537664528544,0.0,0.18353355529917834,0.0,84.78749899189297,-1.5685091952008134,0.0,-3.917038048454185,0.0,0.18353355529917834,0.0
sim_raptor_glider_3dof,raptor_glider_3dof,0.04,-14.525146030981483,0.0,-0.010965802388815128,11.749087466026113,0.0,-0.6224853986304804,0.0,0.0,0.0,-3.925427633143289,-0.06851163674711848,-0.002911531688570111,0.0,0.0,0.0,0.0,0.0,-0.01800716441423962,-1.0317345219340954,0.0,0.0,11.765566044854793,0.010965802388815128,0.03457511547460928,-0.05293210475664864,-3.0327862033003163,0.0,0.0,0.03492494034240902,2.001051681366221,-5.510693448378339,0.0,-5.373577344977122,11.758391241020822,0.0,-0.4108281622830687,0.0,22.91345964905802,0.0,0.0,-0.06851163674711848,0.0,-0.24402351371792447,0.3490658503988659,1.0,0.14,0.14,0.75,0.08726646259971647,5.0,0.184,0.175,0.174,0.0,0.0,0.0,-0.024703351458728255,0.0,0.017359421198091588,0.0,6.0136118138422185,0.0,-0.5241475895765789,0.0,0.13052060181503794,0.0,-3.503942311183788,0.0,-0.021759836110693702,0.0,-0.0118445239348144,0.3419011064323535,0.10240952827178144,0.11296878737704166,0.0,0.0,0.0,0.3394498714421269,0.11296878737704166,0.0,0.0,0.1038377857421321,0.0,0.0,-0.0004076144363998156,0.0,1.3409677324184808,0.0,4.029354788577655,0.0,0.17256126461705595,0.0,84.78749899189297,-1.552272251880443,0.0,-3.9527642641148315,0.0,0.17256126461705595,0.0
sim_raptor_glider_3dof,raptor_glider_3dof,0.041,-14.513390331995431,0.0,-0.01137894799780747,11.743585541310395,0.0,-0.6276920474510685,0.0,0.0,0.0,-2.6153883035849654,-0.045647137115706664,-0.0019407221143804237,0.0,0.0,0.0,0.0,0.0,-0.018064241755803585,-1.0350048127115372,0.0,0.0,11.760348577848697,0.01137894799780747,0.03455978306106173,-0.05339896584943554,-3.0595353735358715,0.0,0.0,0.03533472409363196,2.0245305608243345,-5.493158980509626,0.0,-5.039781184609616,11.753007692839834,0.0,-0.41546220592918326,0.0,22.8155567952811,0.0,0.0,-0.045647137115706664,0.0,-0.24402351371792447,0.3490658503988659,1.0,0.14,0.14,0.75,0.08726646259971647,5.0,0.184,0.175,0.174,0.0,0.0,0.0,-0.02474582173173189,0.0,0.01735278772235747,0.0,6.0134942669806595,0.0,-0.5241954466041209,0.0,0.12997829908733036,0.0,-3.503338388742024,0.0,-0.02161417518729302,0.0,-0.011805793774607437,0.3399309099656819,0.10253401656709576,0.11292176777284553,0.0,0.0,0.0,0.3382970369824738,0.11292176777284553,0.0,0.0,0.1034858774470223,0.0,0.0,-0.0002717010960132593,0.0,1.3392210461938205,0.0,4.012109628883129,0.0,0.17182395822526197,0.0,84.71231724704246,-1.5514528418501838,0.0,-3.93491178608367,0.0,0.17182395822526197,0.0
sim_raptor_glider_3dof,raptor_glider_3dof,0.042,-14.501640014812589,0.0,-0.011796696180845638,11.738101148501196,0.0,-0.6325682148259192,0.0,0.0,0.0,-1.3109897066285596,-0.022881086840422896,-0.0009732380770527684,0.0,0.0,0.0,0.0,0.0,-0.01809850587512091,-1.0369680021371528,0.0,0.0,11.755133394345346,0.011796696180845638,0.034544457357975095,-0.053838087949646535,-3.0846952165688823,0.0,0.0,0.03573958207452563,2.04772721443173,-5.475626531720166,0.0,-4.712553985828663,11.747626673302257,0.0,-0.4200341219121095,0.0,22.716543501214254,0.0,0.0,-0.022881086840422896,0.0,-0.24402351371792447,0.3490658503988659,1.0,0.14,0.14,0.75,0.08726646259971647,5.0,0.184,0.175,0.174,0.0,0.0,0.0,-0.024785732848327233,0.0,0.017346547782836893,0.0,6.013382853445427,0.0,-0.5242402029131539,0.0,0.129468131564396,0.0,-3.502769682253093,0.0,-0.021477200661520247,0.0,-0.011769540230241881,0.3380776977173765,0.10265095806431909,0.11287797285314746,0.0,0.0,0.0,0.3372583542742948,0.11287797285314746,0.0,0.0,0.10312822210050715,0.0,0.0,-0.0001362533307873876,0.0,1.3375146063201264,0.0,3.9962444712948186,0.0,0.17107828910764455,0.0,84.63720173163158,-1.5506228943830231,0.0,-3.918479786331595,0.0,0.17107828910764455,0.0
sim_raptor_glider_3dof,raptor_glider_3dof,0.043000000000000003,-14.489895077486915,0.0,-0.012218987712526663,11.732634271734163,0.0,-0.6371203890132151,0.0,0.0,0.0,-0.01229478009710349,-0.00021458439350312405,-9.131312649202388e-6,0.0,0.0,0.0,0.0,0.0,-0.01811005372038964,-1.0376296449335212,0.0,0.0,11.749920397363013,0.012218987712526663,0.03452913808035209,-0.05424998543080483,-3.108295203831322,0.0,0.0,0.036139931710415185,2.0706655588978005,-5.458126896222076,0.0,-4.391794958281274,11.742247978326107,0.0,-0.4245488898393676,0.0,22.616461054808767,0.0,0.0,-0.00021458439350312405,0.0,-0.24402351371792447,0.3490658503988659,1.0,0.14,0.14,0.75,0.08726646259971647,5.0,0.184,0.175,0.174,0.0,0.0,0.0,-0.024823138814830403,0.0,0.017340693893113355,0.0,6.013277597482214,0.0,-0.5242819578450385,0.0,0.12898951800806388,0.0,-3.5022356464974354,0.0,-0.021348745978028806,0.0,-0.011735688434002014,0.336339321751578,0.10276051738098704,0.11283727370984024,0.0,0.0,0.0,0.3363316344750875,0.11283727370984024,0.0,0.0,0.10276499458219936,0.0,0.0,-1.2783837708883344e-6,0.0,1.3358467609975437,0.0,3.981729704759557,0.0,0.17032456820376482,0.0,84.56215100597358,-1.5497843434235947,0.0,-3.903437779638783,0.0,0.17032456820376482,0.0
sim_raptor_glider_3dof,raptor_glider_3dof,0.044,-14.47815551796955,0.0,-0.012645771814299133,11.727184870005258,0.0,-0.6413544633251842,0.0,0.0,0.0,1.2806411102065598,0.022351403909500026,0.00095155201444315,0.0,0.0,0.0,0.0,0.0,-0.018098976849172138,-1.0369949869625483,0.0,0.0,11.744709469497634,0.012645771814299133,0.034513824883180916,-0.05463512312794327,-3.1303619684087423,0.0,0.0,0.03653614627877113,2.0933669814461937,-5.440689267616846,0.0,-4.077411363473528,11.73687139394666,0.0,-0.42901096123988947,0.0,22.515346579928462,0.0,0.0,0.022351403909500026,0.0,-0.24402351371792447,0.3490658503988659,1.0,0.14,0.14,0.75,0.08726646259971647,5.0,0.184,0.175,0.174,0.0,0.0,0.0,-0.024858088312243117,0.0,0.01733521936676053,0.0,6.013178522923878,0.0,-0.5243208017206563,0.0,0.12854193317033782,0.0,-3.501735790355317,0.0,-0.021228660637409556,0.0,-0.011704170466441396,0.3347138387571788,0.10286284353424296,0.11279955266563316,0.0,0.0,0.0,0.335514898056316,0.11279955266563316,0.0,0.0,0.10239635180989252,0.0,0.0,0.000133217282022041,0.0,1.3342159922887233,0.0,3.968538279267872,0.0,0.16956307509344126,0.0,84.48716333905546,-1.54893889743454,0.0,-3.88975792050195,0.0,0.16956307509344126,0.0
