name,vehicle,t,north,east,down,u,v,w,p_rad,p_deg,p_hat_div_b,q_deg,q_rad,q_hat_div_c,r_rad,r_deg,r_hat_div_b,phi_rad,phi_deg,theta_rad,theta_deg,psi_rad,psi_deg,speed,altitude,mach,alpha_rad,alpha_deg,beta_rad,beta_deg,gamma_rad,gamma_deg,u_dot,v_dot,w_dot,north_dot,east_dot,down_dot,p_rad_dot,q_rad_dot,r_rad_dot,phi_rad_dot,theta_rad_dot,psi_rad_dot,del_tail_alt_rad,del_tail_splay_rad,DIM_b,DIM_c_bar,DIM_S,DIM_wing_position,DIM_wing_incidence_rad,DIM_wing_incidence_deg,DIM_empennage_length,DIM_nose_length,DIM_tail_length,CDp,CDq,CDr,CYp,CYq,CYr,CLp,CLq,CLr,Clp,Clq,Clr,Cmp,Cmq,Cmr,Cnp,Cnq,Cnr,CL_0,Cm_0,CD_0,Cl_0,CY_0,Cn_0,CL,CD,CY,Cl,Cm,Cn,p_hat,q_hat,r_hat,drag_force_wind,side_force_wind,lift_force_wind,roll_moment_wind,pitch_moment_wind,yaw_moment_wind,qbar,X_total,Y_total,Z_total,L_total,M_total,N_total
sim_raptor_glider_3dof,raptor_glider_3dof,0.0,-15.0,0.0,0.0,12.0,0.0,0.0,0.0,0.0,0.0,0.0,0.0,0.0,0.0,0.0,0.0,0.0,0.0,0.0,0.0,0.0,0.0,12.0,-0.0,0.035264039495724236,0.0,0.0,0.0,0.0,0.0,0.0,-11.29023470591518,0.0,-28.623363733282645,12.0,0.0,0.0,0.0,-131.57956600258,0.0,0.0,0.0,0.0,0.4363323129985824,0.5900223292859234,1.0,0.14,0.14,0.75,0.08726646259971647,5.0,0.184,0.175,0.174,0.0,0.0,0.0,-0.3672694994849426,0.0,0.09644706993436748,0.0,7.265947212672442,0.0,-0.5450051237135516,0.0,0.2044424033731823,0.0,-5.900738774274698,0.0,0.04827302308420235,0.0,-0.03787489257880727,0.8558674955826283,-0.5732134351139409,0.2514426606598639,0.0,0.0,0.0,0.8558674955826283,0.2514426606598639,0.0,0.0,-0.5732134351139409,0.0,0.0,0.0,0.0,3.104814544126675,0.0,10.568253776652728,0.0,-0.9909257115654301,0.0,88.20001620075907,-3.104814544126675,0.0,-10.568253776652728,0.0,-0.9909257115654301,0.0
sim_raptor_glider_3dof,raptor_glider_3dof,0.001,-14.988005652389626,0.0,-0.000014180298388824325,11.988686371234843,0.0,-0.029014328363263044,0.0,0.0,0.0,-7.493880564391496,-0.13079288959984253,-0.005454830601062607,0.0,0.0,0.0,0.0,0.0,-0.00006552762985372859,-0.0037544566321141043,0.0,0.0,11.988721480586761,0.000014180298388824325,0.03523089564955409,-0.002420137688026746,-0.13866367536448124,0.0,0.0,0.0023546100581730172,0.13490921873236714,-11.337620002525947,0.0,-29.39997347141984,11.988688246736078,0.0,-0.028228738098566648,0.0,-130.00638323744914,0.0,0.0,-0.13079288959984253,0.0,0.4363323129985824,0.5900223292859234,1.0,0.14,0.14,0.75,0.08726646259971647,5.0,0.184,0.175,0.174,0.0,0.0,0.0,-0.3689123284428484,0.0,0.0956819075422146,0.0,7.263717627173666,0.0,-0.5461605390551293,0.0,0.20158453320664432,0.0,-5.894524616063877,0.0,0.049489126327577945,0.0,-0.037253259268655914,0.8459764565262706,-0.5719276476902125,0.2508697198250825,0.0,0.0,0.0,0.8404293276396447,0.2508697198250825,0.0,0.0,-0.5674261390345935,0.0,0.0,-0.000763676284148765,0.0,3.091919619301388,0.0,10.358125040268348,0.0,-0.9790780721612294,0.0,88.03429984800793,-3.11697862883285,0.0,-10.350611842275525,0.0,-0.9790780721612294,0.0
sim_raptor_glider_3dof,raptor_glider_3dof,0.002,-14.976022636130173,0.0,-0.000056192526129940186,11.977323603984624,0.0,-0.05878939420641876,0.0,0.0,0.0,-14.897657126233327,-0.26001316768596805,-0.010854262779433797,0.0,0.0,0.0,0.0,0.0,-0.00026106166587538,-0.01495773164731374,0.0,0.0,11.97746788379908,0.000056192526129940186,0.03519782504275494,-0.00490835215219744,-0.2812278626848676,0.0,0.0,0.00464729048632206,0.26627013103755387,-11.388476121545489,0.0,-30.14491552177411,11.977338543495215,0.0,-0.05566257218580868,0.0,-128.43439977329177,0.0,0.0,-0.26001316768596805,0.0,0.4363323129985824,0.5900223292859234,1.0,0.14,0.14,0.75,0.08726646259971647,5.0,0.184,0.175,0.174,0.0,0.0,0.0,-0.3705770270676226,0.0,0.09487273384545165,0.0,7.261444925597461,0.0,-0.5473457330163701,0.0,0.19862034556424085,0.0,-5.88808833725107,0.0,0.05079956590584732,0.0,-0.03664020426624655,0.8357588678926879,-0.5705664450379593,0.25025624827071835,0.0,0.0,0.0,0.824724399499373,0.25025624827071835,0.0,0.0,-0.5616189249066134,0.0,0.0,-0.0015195967891207319,0.0,3.0785709577210554,0.0,10.145491279307187,0.0,-0.9672394646926604,0.0,87.86910499578262,-3.128331317454232,0.0,-10.130258417654348,0.0,-0.9672394646926604,0.0
sim_raptor_glider_3dof,raptor_glider_3dof,0.003,-14.964050985417984,0.0,-0.00012523777295869994,11.965908337659956,0.0,-0.08929375387282316,0.0,0.0,0.0,-22.211409815869366,-0.3876622327967079,-0.016198161832341466,0.0,0.0,0.0,0.0,0.0,-0.0005850302377740015,-0.033519763511985316,0.0,0.0,11.966241503486412,0.00012523777295869994,0.03516483441619328,-0.007462207959442046,-0.4275530219249594,0.0,0.0,0.006877177721668045,0.3940332584129741,-11.442576572704917,0.0,-30.85864288990312,11.965958529474932,0.0,-0.08229332079133109,0.0,-126.86403904136735,0.0,0.0,-0.3876622327967079,0.0,0.4363323129985824,0.5900223292859234,1.0,0.14,0.14,0.75,0.08726646259971647,5.0,0.184,0.175,0.174,0.0,0.0,0.0,-0.37226256964074894,0.0,0.09402041598964586,0.0,7.259128881650538,0.0,-0.548556506421793,0.0,0.1955532117802068,0.0,-5.881436450711921,0.0,0.05220062493876468,0.0,-0.03603743906050019,0.8252209772208795,-0.5691310166005233,0.24960041278495565,0.0,0.0,0.0,0.8087591410067276,0.24960041278495565,0.0,0.0,-0.5557934322795864,0.0,0.0,-0.0022677426565278058,0.0,3.064749866767439,0.0,9.930450202351244,0.0,-0.9554130780205375,0.0,87.70446423808852,-3.1387669343683884,0.0,-9.907304128719607,0.0,-0.9554130780205375,0.0
sim_raptor_glider_3dof,raptor_glider_3dof,0.004,-14.952090726656971,0.0,-0.00022050893140617106,11.954437449100569,0.0,-0.12049642549108634,0.0,0.0,0.0,-29.435246443229367,-0.5137419665703026,-0.021486409246549546,0.0,0.0,0.0,0.0,0.0,-0.0010358630366804108,-0.059350580155392726,0.0,0.0,11.955044713969674,0.00022050893140617106,0.03513193074721465,-0.01007929862656039,-0.5775012717539176,0.0,0.0,0.00904343558987998,0.5181506915985249,-11.499681226276945,0.0,-31.541612019811282,11.95455585324324,0.0,-0.1081132031807385,0.0,-125.29583161469594,0.0,0.0,-0.5137419665703026,0.0,0.4363323129985824,0.5900223292859234,1.0,0.14,0.14,0.75,0.08726646259971647,5.0,0.184,0.175,0.174,0.0,0.0,0.0,-0.37396839571099605,0.0,0.0931261491318299,0.0,7.256768580189725,0.0,-0.5497882440714356,0.0,0.19238691693874554,0.0,-5.874576112971541,0.0,0.05368735473843239,0.0,-0.03544646197477442,0.814369019902465,-0.567623082567725,0.24890036567384302,0.0,0.0,0.0,0.7925399539694608,0.24890036567384302,0.0,0.0,-0.5499517860558615,0.0,0.0,-0.0030080972945169373,0.0,3.0504376510787288,0.0,9.713098287451455,0.0,-0.9436029078902752,0.0,87.54041122382269,-3.148182262530925,0.0,-9.681859152388903,0.0,-0.9436029078902752,0.0
sim_raptor_glider_3dof,raptor_glider_3dof,0.005,-14.940141878719185,0.0,-0.00034119143948990244,11.942908058387317,0.0,-0.15236687922584166,0.0,0.0,0.0,-36.569308044965815,-0.638254830560704,-0.02671890677770838,0.0,0.0,0.0,0.0,0.0,-0.0016119919052208166,-0.0923603327784054,0.0,0.0,11.943879962431712,0.00034119143948990244,0.03509912122728177,-0.012757245775000965,-0.7309363411186564,0.0,0.0,0.011145253869780148,0.6385760083402509,-11.559537837844276,0.0,-32.19428445480254,11.943138155530042,0.0,-0.1331148184846569,0.0,-123.73041450146579,0.0,0.0,-0.638254830560704,0.0,0.4363323129985824,0.5900223292859234,1.0,0.14,0.14,0.75,0.08726646259971647,5.0,0.184,0.175,0.174,0.0,0.0,0.0,-0.37569441389950836,0.0,0.09219146082176902,0.0,7.254362414754334,0.0,-0.5510359152695624,0.0,0.18912566556084984,0.0,-5.867515135023964,0.0,0.05525356370254446,0.0,-0.03486855344488442,0.8032092303293413,-0.5660449015439801,0.24815425384761547,0.0,0.0,0.0,0.7760732216965268,0.24815425384761547,0.0,0.0,-0.5440965989566504,0.0,0.0,-0.003740646948879174,0.0,3.0356157173359835,0.0,9.493530870650385,0.0,-0.9318137516105389,0.0,87.37698054073107,-3.1564767230512802,0.0,-9.454033312410347,0.0,-0.9318137516105389,0.0
sim_raptor_glider_3dof,raptor_glider_3dof,0.006,-14.928204452811462,0.0,-0.0004864634890817303,11.931317544126566,0.0,-0.18487505180628994,0.0,0.0,0.0,-43.613775248278586,-0.7612039773072686,-0.031895581146225614,0.0,0.0,0.0,0.0,0.0,-0.0023118514876674175,-0.1324593331043837,0.0,0.0,11.932749772100426,0.0004864634890817303,0.035066413271328645,-0.015493700298211358,-0.8877236361280958,0.0,0.0,0.01318184881054394,0.7552643030237121,-11.621883652571722,0.0,-32.81712826792329,11.931713063021885,0.0,-0.15729114811605152,0.0,-122.16852949254081,0.0,0.0,-0.7612039773072686,0.0,0.4363323129985824,0.5900223292859234,1.0,0.14,0.14,0.75,0.08726646259971647,5.0,0.184,0.175,0.174,0.0,0.0,0.0,-0.3774410040323718,0.0,0.09121821243143448,0.0,7.251908087693755,0.0,-0.5522940781402256,0.0,0.1857740818541466,0.0,-5.860261983055603,0.0,0.05689181568600462,0.0,-0.03430477224257673,0.7917478443495342,-0.5643992733852968,0.24736022774726232,0.0,0.0,0.0,0.7593653091468933,0.24736022774726232,0.0,0.0,-0.53823096875868,0.0,0.0,-0.004465381360471587,0.0,3.0202656811295885,0.0,9.271842137047457,0.0,-0.9200511956083249,0.0,87.21420775786595,-3.163552569657749,0.0,-9.22393606536547,0.0,-0.9200511956083249,0.0
sim_raptor_glider_3dof,raptor_glider_3dof,0.007,-14.916278452524647,0.0,-0.0006554964292178339,11.91966355198523,0.0,-0.21799135163657746,0.0,0.0,0.0,-50.56887393885375,-0.8825933492589516,-0.0370163882638699,0.0,0.0,0.0,0.0,0.0,-0.003133879943003204,-0.17955809423478258,0.0,0.0,11.921656739812361,0.0006554964292178339,0.03503381451060084,-0.018286342737573832,-1.0477302615926845,0.0,0.0,0.015152462794570628,0.8681721673579019,-11.686446976488455,0.0,-33.41061944086991,11.920288176918858,0.0,-0.18063554778063795,0.0,-120.61102081794657,0.0,0.0,-0.8825933492589516,0.0,0.4363323129985824,0.5900223292859234,1.0,0.14,0.14,0.75,0.08726646259971647,5.0,0.184,0.175,0.174,0.0,0.0,0.0,-0.37920901584543487,0.0,0.09020859863737424,0.0,7.249402615277405,0.0,-0.553556886287014,0.0,0.1823372079880652,0.0,-5.852825776522849,0.0,0.058593436039347115,0.0,-0.03375595327420856,0.7799911046789108,-0.5626895388904647,0.24651645077605724,0.0,0.0,0.0,0.7424225664145596,0.24651645077605724,0.0,0.0,-0.5323584728966269,0.0,0.0,-0.0051822943569417865,0.0,3.0043694756171786,0.0,9.048125143467736,0.0,-0.9083215977799557,0.0,87.05212938583487,-3.1693150700132624,0.0,-8.991676514691802,0.0,-0.9083215977799557,0.0
sim_raptor_glider_3dof,raptor_glider_3dof,0.008,-14.904363873866325,0.0,-0.0008474551716309606,11.907944003714606,0.0,-0.2516866680593991,0.0,0.0,0.0,-57.43488158843012,-1.0024277892111764,-0.04208131797194087,0.0,0.0,0.0,0.0,0.0,-0.004076519856493744,-0.23356738287836754,0.0,0.0,11.910603535274,0.0008474551716309606,0.035001332790484584,-0.02113288399843336,-1.2108250620497834,0.0,0.0,0.017056364141939614,0.9772576791714157,-11.75294875964727,0.0,-33.97524325740219,11.908871063518973,0.0,-0.20314174106268168,0.0,-119.05883199030839,0.0,0.0,-1.0024277892111764,0.0,0.4363323129985824,0.5900223292859234,1.0,0.14,0.14,0.75,0.08726646259971647,5.0,0.184,0.175,0.174,0.0,0.0,0.0,-0.38099976512707145,0.0,0.08916514466594498,0.0,7.246842336574703,0.0,-0.5548180982035545,0.0,0.17882049915403836,0.0,-5.845216280824002,0.0,0.06034852559755852,0.0,-0.03322270664129647,0.767945264683134,-0.5609195758507026,0.24562110889198366,0.0,0.0,0.0,0.7252513299510247,0.24562110889198366,0.0,0.0,-0.5264831591607657,0.0,0.0,-0.005891384516071722,0.0,2.987909461473013,0.0,8.822471816376027,0.0,-0.8966320637190125,0.0,86.89078286214632,-3.1736726840880234,0.0,-8.7573633928816,0.0,-0.8966320637190125,0.0
sim_raptor_glider_3dof,raptor_glider_3dof,0.009000000000000001,-14.892460705299529,0.0,-0.0010614985286204587,11.896157103019451,0.0,-0.2859323807683434,0.0,0.0,0.0,-64.21213241714582,-1.1207131304057796,-0.04709039796490186,0.0,0.0,0.0,0.0,0.0,-0.005138219137816146,-0.29439827081021386,0.0,0.0,11.899592898334463,0.0010614985286204587,0.03496897616249218,-0.024031066077864236,-1.3768786634616212,0.0,0.0,0.01889284694004809,1.0824803926514073,-11.8211041695628,0.0,-34.51149543412551,11.897469243149297,0.0,-0.22480381315386866,0.0,-117.51300210114799,0.0,0.0,-1.1207131304057796,0.0,0.4363323129985824,0.5900223292859234,1.0,0.14,0.14,0.75,0.08726646259971647,5.0,0.184,0.175,0.174,0.0,0.0,0.0,-0.38281502721859495,0.0,0.08809070151231949,0.0,7.2442229261926565,0.0,-0.5560710891353244,0.0,0.17522981594156434,0.0,-5.837443895636486,0.0,0.06214598205389657,0.0,-0.03270541798434704,0.7556165919659709,-0.5590937918051396,0.24467242039145318,0.0,0.0,0.0,0.707857924290248,0.24467242039145318,0.0,0.0,-0.5206095339450764,0.0,0.0,-0.00659265571508626,0.0,2.9708685366226835,0.0,8.594972953258932,0.0,-0.8849904188237455,0.0,86.73020650776276,-3.176537235028975,0.0,-8.52110504122685,0.0,-0.8849904188237455,0.0
sim_raptor_glider_3dof,raptor_glider_3dof,0.01,-14.880568927794055,0.0,-0.001296779566410858,11.884301340414826,0.0,-0.32070037068310564,0.0,0.0,0.0,-70.90102266785804,-1.237456288585257,-0.05204369782740898,0.0,0.0,0.0,0.0,0.0,-0.0063174320458256284,-0.3619621935865058,0.0,0.0,11.888627636423891,0.001296779566410858,0.03493675287673423,-0.026978662914656445,-1.5457635219159265,0.0,0.0,0.020661230868830815,1.1838013283294206,-11.890624160040737,0.0,-35.01988320704514,11.886090179603961,0.0,-0.2456162044006498,0.0,-115.97466148119761,0.0,0.0,-1.237456288585257,0.0,0.4363323129985824,0.5900223292859234,1.0,0.14,0.14,0.75,0.08726646259971647,5.0,0.184,0.175,0.174,0.0,0.0,0.0,-0.38465702809077434,0.0,0.08698843920308161,0.0,7.241539410540337,0.0,-0.5573088652826811,0.0,0.17157141404248638,0.0,-5.829519638859145,0.0,0.06397352836557636,0.0,-0.032204250029190695,0.7430113713629648,-0.557217113610454,0.2436686457897716,0.0,0.0,0.0,0.690248662918724,0.2436686457897716,0.0,0.0,-0.5147425474115316,0.0,0.0,-0.0072861176958372575,0.0,2.953230245711711,0.0,8.3657182145312,0.0,-0.8734051756148993,0.0,86.5704394864295,-3.1778240731795773,0.0,-8.283009373956178,0.0,-0.8734051756148993,0.0
sim_raptor_glider_3dof,raptor_glider_3dof,0.01,-14.880568927794055,0.0,-0.001296779566410858,11.884301340414826,0.0,-0.32070037068310564,0.0,0.0,0.0,-70.90102266785804,-1.237456288585257,-0.05204369782740898,0.0,0.0,0.0,0.0,0.0,-0.0063174320458256284,-0.3619621935865058,0.0,0.0,11.888627636423891,0.001296779566410858,0.03493675287673423,-0.026978662914656445,-1.5457635219159265,0.0,0.0,0.020661230868830815,1.1838013283294206,-7.93610828344998,0.0,-32.032718843312864,11.886090179603961,0.0,-0.2456162044006498,0.0,-80.70755119713886,0.0,0.0,-1.237456288585257,0.0,0.4363323129985824,0.3490658503988659,1.0,0.14,0.14,0.75,0.08726646259971647,5.0,0.184,0.175,0.174,0.0,0.0,0.0,-0.05666098252626145,0.0,0.05457562706488332,0.0,6.019504745934985,0.0,-0.533457214416522,0.0,0.16745345729692754,0.0,-3.433291238110878,0.0,-0.02796874550586514,0.0,-0.025874711811378792,0.6639328542480871,-0.38322818370727413,0.15580158197879995,0.0,0.0,0.0,0.6200740341985539,0.15580158197879995,0.0,0.0,-0.35821281966231144,0.0,0.0,-0.0072861176958372575,0.0,1.8882935994419963,0.0,7.515211431656899,0.0,-0.6078085680656528,0.0,86.5704394864295,-2.090332207117119,0.0,-7.461539173929802,0.0,-0.6078085680656528,0.0
sim_raptor_glider_3dof,raptor_glider_3dof,0.011,-14.868686550002577,0.0,-0.0015509695224861788,11.876334967291912,0.0,-0.3528647571862155,0.0,0.0,0.0,-75.5095307255483,-1.3178899277966405,-0.05545939104542544,0.0,0.0,0.0,0.0,0.0,-0.007595164780525709,-0.43517088663052933,0.0,0.0,11.881575896832233,0.0015509695224861788,0.034916030141444745,-0.029702848507250572,-1.7018478589819153,0.0,0.0,0.022107683726724864,1.266676972351386,-7.996987974380697,0.0,-32.294173998061936,11.878672456882418,0.0,-0.2626527256429501,0.0,-80.1611717639211,0.0,0.0,-1.3178899277966405,0.0,0.4363323129985824,0.3490658503988659,1.0,0.14,0.14,0.75,0.08726646259971647,5.0,0.184,0.175,0.174,0.0,0.0,0.0,-0.0570306094377478,0.0,0.05460414108604282,0.0,6.018838940582388,0.0,-0.5341235547580236,0.0,0.1643539443775603,0.0,-3.4309850657371626,0.0,-0.027138293615431255,0.0,-0.025524175185307404,0.6524363478999585,-0.3828494611111085,0.1548749366395432,0.0,0.0,0.0,0.6057041879576315,0.1548749366395432,0.0,0.0,-0.35621021317066603,0.0,0.0,-0.007764314746359561,0.0,1.8748366870280118,0.0,7.332344779016579,0.0,-0.6036937845540898,0.0,86.46777143028993,-2.0917692046887515,0.0,-7.273430700550714,0.0,-0.6036937845540898,0.0
sim_raptor_glider_3dof,raptor_glider_3dof,0.012,-14.856811575735875,0.0,-0.0018218565844341887,11.868306528942828,0.0,-0.38528489470969923,0.0,0.0,0.0,-80.0869464240271,-1.3977809029675716,-0.0588561199748376,0.0,0.0,0.0,0.0,0.0,-0.008953043534050305,-0.5129716082979736,0.0,0.0,11.874558699801792,0.0018218565844341887,0.03489540891534218,-0.032451945249343764,-1.8593594997770195,0.0,0.0,0.02349890171529346,1.346387891479046,-8.060269779023056,0.0,-32.54429361486929,11.871280294617334,0.0,-0.2790134076860365,0.0,-79.62185896031107,0.0,0.0,-1.3977809029675716,0.0,0.4363323129985824,0.3490658503988659,1.0,0.14,0.14,0.75,0.08726646259971647,5.0,0.184,0.175,0.174,0.0,0.0,0.0,-0.057410760803817656,0.0,0.0546292686921331,0.0,6.018151661459465,0.0,-0.534788220148248,0.0,0.16121359625277923,0.0,-3.4286539436273546,0.0,-0.02628516761358249,0.0,-0.025178651553867865,0.6408052612223534,-0.3824835912974844,0.1539680007723464,0.0,0.0,0.0,0.5912165533524456,0.1539680007723464,0.0,0.0,-0.35423197379731797,0.0,0.0,-0.008239856796477265,0.0,1.861656866427762,0.0,7.148513655910363,0.0,-0.5996322198301027,0.0,86.36566675678304,-2.092619128165066,0.0,-7.084346050377004,0.0,-0.5996322198301027,0.0
sim_raptor_glider_3dof,raptor_glider_3dof,0.013000000000000001,-14.844943980017835,0.0,-0.0021087715665256378,11.860213677252654,0.0,-0.417949724737133,0.0,0.0,0.0,-84.63361696539965,-1.4771352739179557,-0.06223407900000128,0.0,0.0,0.0,0.0,0.0,-0.010390549596570011,-0.5953346387048218,0.0,0.0,11.867575592449318,0.0021087715665256378,0.03487488786755214,-0.035225069044615545,-2.018247789313394,0.0,0.0,0.024834519448045534,1.422913150608572,-8.125844750958738,0.0,-32.78339410418317,11.863916097000567,0.0,-0.29469524229205907,0.0,-79.0878531494992,0.0,0.0,-1.4771352739179557,0.0,0.4363323129985824,0.3490658503988659,1.0,0.14,0.14,0.75,0.08726646259971647,5.0,0.184,0.175,0.174,0.0,0.0,0.0,-0.057802609596869226,0.0,0.054643269350448206,0.0,6.017447911541562,0.0,-0.5354484782246268,0.0,0.158029936602309,0.0,-3.426301552937119,0.0,-0.02540684061225279,0.0,-0.024838171304971384,0.6290449726070487,-0.3821230006497413,0.15308052764601407,0.0,0.0,0.0,0.5766163265883109,0.15308052764601407,0.0,0.0,-0.3522704196364771,0.0,0.0,-0.00871277106000018,0.0,1.848749937861524,0.0,6.9637818365452775,0.0,-0.5956106220688785,0.0,86.26411799119983,-2.0928520578677627,0.0,-6.894353056206185,0.0,-0.5956106220688785,0.0
sim_raptor_glider_3dof,raptor_glider_3dof,0.014,-14.833083733418581,0.0,-0.0024110237437162054,11.852054136230686,0.0,-0.450848204779772,0.0,0.0,0.0,-89.14980169994158,-1.5559575671640185,-0.0655933993187175,0.0,0.0,0.0,0.0,0.0,-0.011907140354002336,-0.6822288883542429,0.0,0.0,11.860626094430938,0.0024110237437162054,0.0348544655865025,-0.0380213359333198,-2.1784620804283255,0.0,0.0,0.026114195579317462,1.4962331920740823,-8.19360076791586,0.0,-33.01178075615148,11.856582140091033,0.0,-0.3096955071847331,0.0,-78.55731051759994,0.0,0.0,-1.5559575671640185,0.0,0.4363323129985824,0.3490658503988659,1.0,0.14,0.14,0.75,0.08726646259971647,5.0,0.184,0.175,0.174,0.0,0.0,0.0,-0.058207377633565455,0.0,0.05463801589609806,0.0,6.0167329759068675,0.0,-0.5361014867755794,0.0,0.1548003410943624,0.0,-3.4239317340758855,0.0,-0.024500679177825658,0.0,-0.02450274063176054,0.617161000075889,-0.3817596823076941,0.1522121765864375,0.0,0.0,0.0,0.5619088844603034,0.1522121765864375,0.0,0.0,-0.3503174573014365,0.0,0.0,-0.00918307590462045,0.0,1.8361105871651993,0.0,6.778214955712547,0.0,-0.5916151055080452,0.0,86.16311727965365,-2.09243828495998,0.0,-6.703521619102836,0.0,-0.5916151055080452,0.0
sim_raptor_glider_3dof,raptor_glider_3dof,0.015,-14.821230804714514,0.0,-0.002727934403449123,11.84382579652715,0.0,-0.4839698318850091,0.0,0.0,0.0,-93.63564183580837,-1.6342502472530036,-0.06893412582360273,0.0,0.0,0.0,0.0,0.0,-0.013502288396005122,-0.7736241388595595,0.0,0.0,11.853709811559282,0.002727934403449123,0.034834140913806697,-0.04083990591497765,-2.339954244639586,0.0,0.0,0.02733761751897253,1.5663301057800267,-8.263423234395317,0.0,-33.22973431891852,11.8492806800655,0.0,-0.324011823369589,0.0,-78.02831001724094,0.0,0.0,-1.6342502472530036,0.0,0.4363323129985824,0.3490658503988659,1.0,0.14,0.14,0.75,0.08726646259971647,5.0,0.184,0.175,0.174,0.0,0.0,0.0,-0.05862633958942823,0.0,0.054605010427895374,0.0,6.016012399712622,0.0,-0.5367443088287508,0.0,0.15152199339874245,0.0,-3.421548443230934,0.0,-0.023563934186428246,0.0,-0.024172336881835003,0.6051588093096768,-0.3813852074278521,0.15136250336051893,0.0,0.0,0.0,0.5470996115091367,0.15136250336051893,0.0,0.0,-0.3483646043022394,0.0,0.0,-0.009650777615304383,0.0,1.8237323113484392,0.0,6.59187854906769,0.0,-0.5876312027398416,0.0,86.06265803986703,-2.0913484927843373,0.0,-6.511921669587538,0.0,-0.5876312027398416,0.0
sim_raptor_glider_3dof,raptor_glider_3dof,0.016,-14.809385160408585,0.0,-0.0030588185833885085,11.83552664538765,0.0,-0.5173042952053746,0.0,0.0,0.0,-98.09117358225213,-1.7120139461555803,-0.07225622688809218,0.0,0.0,0.0,0.0,0.0,-0.015175464538310833,-0.8694900701956572,0.0,0.0,11.846826355928366,0.0030588185833885085,0.034813912709537057,-0.04367995391629893,-2.50267700872986,0.0,0.0,0.0285044893779881,1.6331869385342033,-8.335194704132416,0.0,-33.437518365380434,11.842013873546831,0.0,-0.3376420090026692,0.0,-77.49885619783339,0.0,0.0,-1.7120139461555803,0.0,0.4363323129985824,0.3490658503988659,1.0,0.14,0.14,0.75,0.08726646259971647,5.0,0.184,0.175,0.174,0.0,0.0,0.0,-0.059060816740696534,0.0,0.05453539991433911,0.0,6.015291984517091,0.0,-0.5373739103833409,0.0,0.1481919248174423,0.0,-3.419155770635341,0.0,-0.022593754709207402,0.0,-0.02384691289635357,0.5930439305656464,-0.3809907461008987,0.15053097415572567,0.0,0.0,0.0,0.532194008225252,0.15053097415572567,0.0,0.0,-0.3464030047828728,0.0,0.0,-0.010115871764332904,0.0,1.8116075683618116,0.0,6.404839260126469,0.0,-0.5836438860258832,0.0,85.96273379816581,-2.0895537557455586,0.0,-6.319624437547915,0.0,-0.5836438860258832,0.0
sim_raptor_glider_3dof,raptor_glider_3dof,0.017,-14.797546764745784,0.0,-0.0034029891049949376,11.827154796420167,0.0,-0.5508415554337391,0.0,0.0,0.0,-102.51630950326914,-1.789247137825599,-0.07555958016840401,0.0,0.0,0.0,0.0,0.0,-0.016926139333573415,-0.9697963472641326,0.0,0.0,11.839975379943882,0.0034029891049949376,0.03479377995222863,-0.0465406763940481,-2.666584333063095,0.0,0.0,0.029614537060474688,1.6967879857989627,-8.408795022992415,0.0,-33.63537471716333,11.834783807015713,0.0,-0.35058413950990935,0.0,-76.96688514930455,0.0,0.0,-1.789247137825599,0.0,0.4363323129985824,0.3490658503988659,1.0,0.14,0.14,0.75,0.08726646259971647,5.0,0.184,0.175,0.174,0.0,0.0,0.0,-0.059512175693366684,0.0,0.05441999216469935,0.0,6.01457777549036,0.0,-0.5379871667044173,0.0,0.14480701311676156,0.0,-3.4167579285507776,0.0,-0.021587190714102266,0.0,-0.02352639695425674,0.5808219246136246,-0.38056708376757153,0.14971696820988148,0.0,0.0,0.0,0.5171976685887475,0.14971696820988148,0.0,0.0,-0.34442345252100076,0.0,0.0,-0.010578341223576563,0.0,1.799727824711839,0.0,6.217164601746365,0.0,-0.5796376120594126,0.0,85.86333868263068,-2.0870256399149825,0.0,-6.126702204823368,0.0,-0.5796376120594126,0.0
sim_raptor_glider_3dof,raptor_glider_3dof,0.018000000000000002,-14.785715579916294,0.0,-0.0037597569956140044,11.818708484976995,0.0,-0.5845718040587257,0.0,0.0,0.0,-106.91084180360798,-1.865946195551752,-0.07884397473608055,0.0,0.0,0.0,0.0,0.0,-0.01875378065997421,-1.0745124817305898,0.0,0.0,11.83315657155637,0.0037597569956140044,0.03477374172487105,-0.04942128790833703,-2.83163121524864,0.0,0.0,0.030667507248362823,1.7571187335180503,-8.484101361900033,0.0,-33.82352452939914,11.827592489443596,0.0,-0.36283653430317175,0.0,-76.43026846174638,0.0,0.0,-1.865946195551752,0.0,0.4363323129985824,0.3490658503988659,1.0,0.14,0.14,0.75,0.08726646259971647,5.0,0.184,0.175,0.174,0.0,0.0,0.0,-0.05998182562985173,0.0,0.05424927201374713,0.0,6.013876051063178,0.0,-0.5385808663363647,0.0,0.14136399302764166,0.0,-3.4143592476750424,0.0,-0.020541199084043636,0.0,-0.0232106939242381,0.5684983913423074,-0.3801046391377176,0.14891978368595526,0.0,0.0,0.0,0.502116286541275,0.14891978368595526,0.0,0.0,-0.3424164075408144,0.0,0.0,-0.01103815646305128,0.0,1.7880836296434814,0.0,6.028923020967993,0.0,-0.575596351785412,0.0,85.76446735216018,-2.0837362730147038,0.0,-5.933228379548493,0.0,-0.575596351785412,0.0
sim_raptor_glider_3dof,raptor_glider_3dof,0.019000000000000003,-14.773891566217598,0.0,-0.00412843179634349,11.810186066425128,0.0,-0.6184854343890758,0.0,0.0,0.0,-111.27444291141015,-1.942105402126572,-0.08210911121512336,0.0,0.0,0.0,0.0,0.0,-0.02065785168484246,-1.1836077153486897,0.0,0.0,11.82636965243915,0.00412843179634349,0.03475379720955405,-0.05232101866985531,-2.9977735496078934,0.0,0.0,0.03166316698501285,1.8141658342592037,-8.560988245134268,0.0,-34.002168718636796,11.820441847935077,0.0,-0.3743977506861627,0.0,-75.88681744868565,0.0,0.0,-1.942105402126572,0.0,0.4363323129985824,0.3490658503988659,1.0,0.14,0.14,0.75,0.08726646259971647,5.0,0.184,0.175,0.174,0.0,0.0,0.0,-0.060471215619462414,0.0,0.05401341784757465,0.0,6.013193312167983,0.0,-0.5391517154753691,0.0,0.1378594658084959,0.0,-3.41196417260978,0.0,-0.01945264948529333,0.0,-0.02289968627855002,0.5560789743364329,-0.3795934822637273,0.14813864328143087,0.0,0.0,0.0,0.48695566015667574,0.14813864328143087,0.0,0.0,-0.3403720138642107,0.0,0.0,-0.011495275570117272,0.0,1.7766646865265991,0.0,5.840183939453295,0.0,-0.5715036222060517,0.0,85.6661149684588,-2.0796584200425605,0.0,-5.739277542595841,0.0,-0.5715036222060517,0.0
sim_raptor_glider_3dof,raptor_glider_3dof,0.02,-14.762074682054783,0.0,-0.004508321716885973,11.801586010106561,0.0,-0.6525730280581765,0.0,0.0,0.0,-115.60666726712726,-2.0177169810689257,-0.08535460284517693,0.0,0.0,0.0,0.0,0.0,-0.02263780884292946,-1.2970509041237916,0.0,0.0,11.819614372342777,0.004508321716885973,0.03473394567087712,-0.05523911340703167,-3.1649680622674365,0.0,0.0,0.03260130456410221,1.8679171581436445,-8.639369229857136,0.0,-34.17147583638538,11.813333719283301,0.0,-0.3852665930704161,0.0,-75.33480629296442,0.0,0.0,-2.0177169810689257,0.0,0.4363323129985824,0.3490658503988659,1.0,0.14,0.14,0.75,0.08726646259971647,5.0,0.184,0.175,0.174,0.0,0.0,0.0,-0.06098148239805736,0.0,0.05370506718417299,0.0,6.012534493248539,0.0,-0.5396971928030619,0.0,0.13429146108502002,0.0,-3.4095759282387483,0.0,-0.018319619275442758,0.0,-0.02259331598175101,0.5435691050709682,-0.3790256676747453,0.1473736694057309,0.0,0.0,0.0,0.47172145594398635,0.1473736694057309,0.0,0.0,-0.33828244778320415,0.0,0.0,-0.011949644398324771,0.0,1.7654715375970953,0.0,5.651014916716083,0.0,-0.567346426192315,0.0,85.56827711277717,-2.07477700562999,0.0,-5.544921975638808,0.0,-0.567346426192315,0.0
sim_raptor_glider_3dof,raptor_glider_3dof,0.02,-14.762074682054783,0.0,-0.004508321716885973,11.801586010106561,0.0,-0.6525730280581765,0.0,0.0,0.0,-115.60666726712726,-2.0177169810689257,-0.08535460284517693,0.0,0.0,0.0,0.0,0.0,-0.02263780884292946,-1.2970509041237916,0.0,0.0,11.819614372342777,0.004508321716885973,0.03473394567087712,-0.05523911340703167,-3.1649680622674365,0.0,0.0,0.03260130456410221,1.8679171581436445,-8.228751437996436,0.0,-21.68133888554085,11.813333719283301,0.0,-0.3852665930704161,0.0,69.98532208576006,0.0,0.0,-2.0177169810689257,0.0,-0.4363323129985824,0.3490658503988659,1.0,0.14,0.14,0.75,0.08726646259971647,5.0,0.184,0.175,0.174,0.0,0.0,0.0,-0.7862219687804541,0.0,0.1231896763018474,0.0,5.876855711138754,0.0,-0.6324964420589247,0.0,0.13898935889022696,0.0,-3.102058882280748,0.0,0.1988501974378929,0.0,-0.04312990603154591,0.25514398805474414,0.2771926919764251,0.15379214380872708,0.0,0.0,0.0,0.18491765212637198,0.15379214380872708,0.0,0.0,0.31426119252234486,0.0,0.0,-0.011949644398324771,0.0,1.8423620290870533,0.0,2.215231886027094,0.0,0.527059460627859,0.0,85.56827711277717,-1.9618571128682973,0.0,-2.110134314156563,0.0,0.527059460627859,0.0
sim_raptor_glider_3dof,raptor_glider_3dof,0.021,-14.750264827385442,0.0,-0.0048925465535604494,11.793378449311835,0.0,-0.6737180089664198,0.0,0.0,0.0,-111.60829933067417,-1.9479322958716478,-0.08245141763107104,0.0,0.0,0.0,0.0,0.0,-0.024620561327532847,-1.4106542533106434,0.0,0.0,11.81260645261233,0.0048925465535604494,0.03471335170769735,-0.057064780634077404,-3.269571089172509,0.0,0.0,0.03244421930654456,1.8589168358618655,-8.186379991070892,0.0,-20.6111049298883,11.806389861543524,0.0,-0.3831835611567442,0.0,69.58487839909381,0.0,0.0,-1.9479322958716478,0.0,-0.4363323129985824,0.3490658503988659,1.0,0.14,0.14,0.75,0.08726646259971647,5.0,0.184,0.175,0.174,0.0,0.0,0.0,-0.7906660685954292,0.0,0.12217351372687636,0.0,5.870903323439765,0.0,-0.6337652908636086,0.0,0.13679979321709274,0.0,-3.087300253187106,0.0,0.200467908609402,0.0,-0.042651770663467925,0.24785902055651898,0.2771965779625085,0.15351301648655288,0.0,0.0,0.0,0.18009001830555849,0.15351301648655288,0.0,0.0,0.3128338975164343,0.0,0.0,-0.011543198468349948,0.0,1.8368381237160945,0.0,2.1548414518540553,0.0,0.5240437192235755,0.0,85.46683931135637,-1.9567470336385857,0.0,-2.046572017230752,0.0,0.5240437192235755,0.0
sim_raptor_glider_3dof,raptor_glider_3dof,0.022,-14.73846189969726,0.0,-0.00527461421725851,11.785214632041386,0.0,-0.693801562609501,0.0,0.0,0.0,-107.63279887346488,-1.8785467234788058,-0.07956155000251991,0.0,0.0,0.0,0.0,0.0,-0.026533738807977287,-1.5202712483995824,0.0,0.0,11.80561919306064,0.00527461421725851,0.0346928184579642,-0.05880263836236283,-3.369143002397457,0.0,0.0,0.03226889955438554,1.8488717539978743,-8.140178147961626,0.0,-19.562730757897494,11.799473237729586,0.0,-0.3808882298851404,0.0,69.18725856374665,0.0,0.0,-1.8785467234788058,0.0,-0.4363323129985824,0.3490658503988659,1.0,0.14,0.14,0.75,0.08726646259971647,5.0,0.184,0.175,0.174,0.0,0.0,0.0,-0.7948875829665557,0.0,0.12120458275646027,0.0,5.865248263880618,0.0,-0.6349674855062906,0.0,0.13470125617674,0.0,-3.073245917569938,0.0,0.20200688585259247,0.0,-0.0422125112142391,0.240932042939122,0.27718290212098495,0.15324896863016868,0.0,0.0,0.0,0.17560128891577165,0.15324896863016868,0.0,0.0,0.3114146113446943,0.0,0.0,-0.011138617000352789,0.0,1.8315100644640803,0.0,2.0986472591423833,0.0,0.521049244243576,0.0,85.36576045573875,-1.9516794148125391,0.0,-1.9873844359700619,0.0,0.521049244243576,0.0
sim_raptor_glider_3dof,raptor_glider_3dof,0.023,-14.726665866754495,0.0,-0.005654233747794529,11.7770997428379,0.0,-0.7128537120798014,0.0,0.0,0.0,-103.67993513264226,-1.8095562363187512,-0.07668485827735223,0.0,0.0,0.0,0.0,0.0,-0.028377845374000166,-1.6259307716050566,0.0,0.0,11.798654108311611,0.005654233747794529,0.03467235037265747,-0.06045504132422827,-3.4638187181672633,0.0,0.0,0.03207719595022811,1.8378879465622069,-8.090558084553088,0.0,-18.5356425251995,11.792584536852177,0.0,-0.37840283927761903,0.0,68.79282894099843,0.0,0.0,-1.8095562363187512,0.0,-0.4363323129985824,0.3490658503988659,1.0,0.14,0.14,0.75,0.08726646259971647,5.0,0.184,0.175,0.174,0.0,0.0,0.0,-0.7988944568418336,0.0,0.12028129256128452,0.0,5.859880272325473,0.0,-0.6361054859839017,0.0,0.13269375642462422,0.0,-3.059877166535758,0.0,0.20346932605217805,0.0,-0.041808322867545405,0.234352453805661,0.27715447914483826,0.15299995847339073,0.0,0.0,0.0,0.17144148145688665,0.15299995847339073,0.0,0.0,0.31000495370550435,0.0,0.0,-0.010735880158829314,0.0,1.8263771303360616,0.0,2.0465155941741515,0.0,0.5180787947546592,0.0,85.26506190680246,-1.946687449203379,0.0,-1.9324304578759388,0.0,0.5180787947546592,0.0
sim_raptor_glider_3dof,raptor_glider_3dof,0.024,-14.714876717484696,0.0,-0.006031324643158642,11.769035130488737,0.0,-0.7308837226394697,0.0,0.0,0.0,-99.74961971499103,-1.7409592916388412,-0.07382133627781755,0.0,0.0,0.0,0.0,0.0,-0.030153054510521738,-1.727642762880806,0.0,0.0,11.791708057728421,0.006031324643158642,0.03465193822248206,-0.06202261147341438,-3.5536338718063205,0.0,0.0,0.03186955696289265,1.8259911089255147,-8.037882824313002,0.0,-17.52959218153301,11.78572033038273,0.0,-0.375732900742744,0.0,68.40189894360189,0.0,0.0,-1.7409592916388412,0.0,-0.4363323129985824,0.3490658503988659,1.0,0.14,0.14,0.75,0.08726646259971647,5.0,0.184,0.175,0.174,0.0,0.0,0.0,-0.8026900631967829,0.0,0.11940315423243948,0.0,5.854795127108169,0.0,-0.6371804947095712,0.0,0.13077902734673055,0.0,-3.047189389247874,0.0,0.2048558893302941,0.0,-0.04143625897206102,0.22811666600240005,0.27711387708626345,0.15276605907194557,0.0,0.0,0.0,0.1676074340141629,0.15276605907194557,0.0,0.0,0.3086065400510845,0.0,0.0,-0.010334987078894457,0.0,1.8214385342170207,0.0,1.9983931037381633,0.0,0.5151347009442658,0.0,85.1646977309277,-1.9418024069190005,0.0,-1.8816526628159815,0.0,0.5151347009442658,0.0
sim_raptor_glider_3dof,raptor_glider_3dof,0.025,-14.70309441899286,0.0,-0.006405653780031643,11.761024709441461,0.0,-0.7479188339560245,0.0,0.0,0.0,-95.841589263629,-1.6727512929943738,-0.07097082088468383,0.0,0.0,0.0,0.0,0.0,-0.031859877389874475,-1.8254365102440846,0.0,0.0,11.784781915601101,0.006405653780031643,0.03463158457668783,-0.06350748168697698,-3.6387106681681463,0.0,0.0,0.031647604297102505,1.8132741579240619,-7.9825095385816445,0.0,-16.54404815831314,11.778880761095353,0.0,-0.37289786024661237,0.0,68.01472408324129,0.0,0.0,-1.6727512929943738,0.0,-0.4363323129985824,0.3490658503988659,1.0,0.14,0.14,0.75,0.08726646259971647,5.0,0.184,0.175,0.174,0.0,0.0,0.0,-0.8062811170833952,0.0,0.11856894631713276,0.0,5.8499840551321505,0.0,-0.6381946950167323,0.0,0.12895663124253715,0.0,-3.0351658124845446,0.0,0.20616856947005865,0.0,-0.04109338589543344,0.22221518017261305,0.27706338768803773,0.15254699371911065,0.0,0.0,0.0,0.16409023629490743,0.15254699371911065,0.0,0.0,0.30722053698067964,0.0,0.0,-0.009935914923855736,0.0,1.816690570157489,0.0,1.954159683282747,0.0,0.5122188870708901,0.0,85.06468006379986,-1.9370486174628434,0.0,-1.834924344231161,0.0,0.5122188870708901,0.0
sim_raptor_glider_3dof,raptor_glider_3dof,0.026000000000000002,-14.691318948322728,0.0,-0.00677707136074843,11.753070863770684,0.0,-0.7639784705109719,0.0,0.0,0.0,-91.95562935234032,-1.6049284979418794,-0.06813319498127295,0.0,0.0,0.0,0.0,0.0,-0.033498685043437636,-1.9193332722269913,0.0,0.0,11.777874928535269,0.00677707136074843,0.03461128722129733,-0.0649111352604495,-3.7191340938265784,0.0,0.0,0.03141245021701187,1.7998008215995869,-7.924764673070131,0.0,-15.578603613755751,11.772064544238038,0.0,-0.36991106838448107,0.0,67.63151456091045,0.0,0.0,-1.6049284979418794,0.0,-0.4363323129985824,0.3490658503988659,1.0,0.14,0.14,0.75,0.08726646259971647,5.0,0.184,0.175,0.174,0.0,0.0,0.0,-0.8096724784684041,0.0,0.11777790171429296,0.0,5.845440705619876,0.0,-0.6391497660796651,0.0,0.12722662146887886,0.0,-3.023794963254155,0.0,0.20740878123040515,0.0,-0.04077726839214,0.21664117968627508,0.2770050831634973,0.15234248379738283,0.0,0.0,0.0,0.16088358249762946,0.15234248379738283,0.0,0.0,0.3058479968175674,0.0,0.0,-0.009538647297378213,0.0,1.8121290263121717,0.0,1.9137262465065032,0.0,0.5093329361582166,0.0,84.96499752877878,-1.9324476316336618,0.0,-1.792151194951034,0.0,0.5093329361582166,0.0
sim_raptor_glider_3dof,raptor_glider_3dof,0.027,-14.679550282546682,0.0,-0.007145431051551927,11.745175843059467,0.0,-0.7790825692091553,0.0,0.0,0.0,-88.09150879490275,-1.5374868715205952,-0.06530832654263813,0.0,0.0,0.0,0.0,0.0,-0.0350698611120226,-2.009355029828867,0.0,0.0,11.770986587114658,0.007145431051551927,0.03459104465930429,-0.0662351032247964,-3.794991870394182,0.0,0.0,0.031165242112773793,1.7856368405653151,-7.864954326352607,0.0,-14.632845750229212,11.765270633081059,0.0,-0.3667862652739918,0.0,67.25243920812188,0.0,0.0,-1.5374868715205952,0.0,-0.4363323129985824,0.3490658503988659,1.0,0.14,0.14,0.75,0.08726646259971647,5.0,0.184,0.175,0.174,0.0,0.0,0.0,-0.8128688810864433,0.0,0.1170293000746578,0.0,5.8411588439645605,0.0,-0.6400473661259718,0.0,0.1255887296764787,0.0,-3.0130650124961127,0.0,0.20857797707510783,0.0,-0.0404857593781817,0.21138774646026778,0.27694082303517037,0.1521521633964566,0.0,0.0,0.0,0.1579810631765999,0.1521521633964566,0.0,0.0,0.30448977575741154,0.0,0.0,-0.00914316571596934,0.0,1.8077487502316472,0.0,1.8770030155510515,0.0,0.5064781196763659,0.0,84.86564229413978,-1.9280174278809978,0.0,-1.753238335805764,0.0,0.5064781196763659,0.0
sim_raptor_glider_3dof,raptor_glider_3dof,0.028,-14.667788399955649,0.0,-0.007510602132447151,11.737341553565246,0.0,-0.7932505959139832,0.0,0.0,0.0,-84.2489862752586,-1.4704222019707762,-0.062496075332664616,0.0,0.0,0.0,0.0,0.0,-0.036573784493769204,-2.0955234923139896,0.0,0.0,11.764116339656256,0.007510602132447151,0.03457085526949442,-0.06748088224289212,-3.866369750337019,0.0,0.0,0.03090709774912291,1.7708462580230293,-7.803364764898552,0.0,-13.706370584880135,11.758497958554827,0.0,-0.36353680918070597,0.0,66.87762873068289,0.0,0.0,-1.4704222019707762,0.0,-0.4363323129985824,0.3490658503988659,1.0,0.14,0.14,0.75,0.08726646259971647,5.0,0.184,0.175,0.174,0.0,0.0,0.0,-0.8158747677067982,0.0,0.1163224979123748,0.0,5.837132581334205,0.0,-0.6408890790142252,0.0,0.12404249725442462,0.0,-3.0029644268419733,0.0,0.20967757421383076,0.0,-0.040216983529030775,0.2064481805149654,0.2768722737286445,0.15197560894825043,0.0,0.0,0.0,0.1553764776607915,0.15197560894825043,0.0,0.0,0.3031465624744164,0.0,0.0,-0.008749450546573048,0.0,1.8035439178168855,0.0,1.843903131537067,0.0,0.5036554219707728,0.0,84.76660593754575,-1.9237729018270415,0.0,-1.718094073146883,0.0,0.5036554219707728,0.0
sim_raptor_glider_3dof,raptor_glider_3dof,0.029,-14.656033279866424,0.0,-0.007872467071675025,11.729569626527965,0.0,-0.8065016178855385,0.0,0.0,0.0,-80.42781410344784,-1.403730166287096,-0.05969629534305419,0.0,0.0,0.0,0.0,0.0,-0.03801082983348041,-2.1778601252483853,0.0,0.0,11.757263647771934,0.007872467071675025,0.034550717469722686,-0.06864994037788216,-3.933351847477384,0.0,0.0,0.03063911054440175,1.7554917222289983,-7.740264031667053,0.0,-12.798782569519997,11.75174548389988,0.0,-0.36017574162922134,0.0,66.50718002224785,0.0,0.0,-1.403730166287096,0.0,-0.4363323129985824,0.3490658503988659,1.0,0.14,0.14,0.75,0.08726646259971647,5.0,0.184,0.175,0.174,0.0,0.0,0.0,-0.8186943346159992,0.0,0.11565691136752758,0.0,5.833356322994292,0.0,-0.6416764209585455,0.0,0.12258729643169175,0.0,-2.993481910820358,0.0,0.2107089594423019,0.0,-0.03996930351093376,0.20181597050899025,0.2768009245609187,0.15181235366418155,0.0,0.0,0.0,0.15306380384316665,0.15181235366418155,0.0,0.0,0.3018188937962578,0.0,0.0,-0.008357481348027588,0.0,1.799508225227579,0.0,1.814342293972259,0.0,0.5008655727475486,0.0,84.667880247941,-1.919726195906198,0.0,-1.686629522186111,0.0,0.5008655727475486,0.0
sim_raptor_glider_3dof,raptor_glider_3dof,0.03,-14.644284902573911,0.0,-0.008230920556642124,11.721861448319606,0.0,-0.8188543308742358,0.0,0.0,0.0,-76.62774039379858,-1.3374063682352413,-0.05690883634257201,0.0,0.0,0.0,0.0,0.0,-0.039381367597814056,-2.2563861548079984,0.0,0.0,11.750428001940733,0.008230920556642124,0.034530629762675166,-0.06974371920761759,-3.9960207581419818,0.0,0.0,0.03036235160980353,1.7396346033339831,-7.6759033230330544,0.0,-11.909694453444864,11.745012220411029,0.0,-0.3567158129218805,0.0,66.14115969877041,0.0,0.0,-1.3374063682352413,0.0,-0.4363323129985824,0.3490658503988659,1.0,0.14,0.14,0.75,0.08726646259971647,5.0,0.184,0.175,0.174,0.0,0.0,0.0,-0.8213315639458106,0.0,0.11503200270045387,0.0,5.82982473201294,0.0,-0.6424108445886205,0.0,0.12122235297083403,0.0,-2.984606380097213,0.0,0.21167349080824857,0.0,-0.039741290400617975,0.19748477937329934,0.2767281024464632,0.1516619006411522,0.0,0.0,0.0,0.15103718355209889,0.1516619006411522,0.0,0.0,0.300507169090936,0.0,0.0,-0.007967237087960082,0.0,1.7956350514074522,0.0,1.7882385734681998,0.0,0.4981090736914399,0.0,84.56945744902627,-1.9158869941713597,0.0,-1.6587584088852896,0.0,0.4981090736914399,0.0
sim_raptor_glider_3dof,raptor_glider_3dof,0.03,-14.644284902573911,0.0,-0.008230920556642124,11.721861448319606,0.0,-0.8188543308742358,0.0,0.0,0.0,-76.62774039379858,-1.3374063682352413,-0.05690883634257201,0.0,0.0,0.0,0.0,0.0,-0.039381367597814056,-2.2563861548079984,0.0,0.0,11.750428001940733,0.008230920556642124,0.034530629762675166,-0.06974371920761759,-3.9960207581419818,0.0,0.0,0.03036235160980353,1.7396346033339831,-7.6759033230330544,0.0,-11.909694453444864,11.745012220411029,0.0,-0.3567158129218805,0.0,66.14115969877041,0.0,0.0,-1.3374063682352413,0.0,-0.4363323129985824,0.3490658503988659,1.0,0.14,0.14,0.75,0.08726646259971647,5.0,0.184,0.175,0.174,0.0,0.0,0.0,-0.8213315639458106,0.0,0.11503200270045387,0.0,5.82982473201294,0.0,-0.6424108445886205,0.0,0.12122235297083403,0.0,-2.984606380097213,0.0,0.21167349080824857,0.0,-0.039741290400617975,0.19748477937329934,0.2767281024464632,0.1516619006411522,0.0,0.0,0.0,0.15103718355209889,0.1516619006411522,0.0,0.0,0.300507169090936,0.0,0.0,-0.007967237087960082,0.0,1.7956350514074522,0.0,1.7882385734681998,0.0,0.4981090736914399,0.0,84.56945744902627,-1.9158869941713597,0.0,-1.6587584088852896,0.0,0.4981090736914399,0.0
sim_raptor_glider_3dof,raptor_glider_3dof,0.031,-14.632543267121203,0.0,-0.008585853628478824,11.71421841788221,0.0,-0.8303260064830821,0.0,0.0,0.0,-72.848548727839,-1.2714470306003172,-0.05413357261127779,0.0,0.0,0.0,0.0,0.0,-0.04068560415218206,-2.3311134048599698,0.0,0.0,11.743609088303856,0.008585853628478824,0.034510591226024435,-0.07076354284504036,-4.054452348413986,0.0,0.0,0.030077938692858297,1.7233389435540165,-7.610520194167045,0.0,-11.038750550042208,11.73829737056952,0.0,-0.35317029741142203,0.0,65.77961429808312,0.0,0.0,-1.2714470306003172,0.0,-0.4363323129985824,0.3490658503988659,1.0,0.14,0.14,0.75,0.08726646259971647,5.0,0.184,0.175,0.174,0.0,0.0,0.0,-0.8237900285678761,0.0,0.11444732178516848,0.0,5.826532996641884,0.0,-0.6430936806101477,0.0,0.11994688277453884,0.0,-2.9763276919031303,0.0,0.21257241728804824,0.0,-0.039531716157996825,0.1934487987916053,0.27665499222620166,0.1515237467740413,0.0,0.0,0.0,0.14929125220520456,0.1515237467740413,0.0,0.0,0.299211687397645,0.0,0.0,-0.007578700165578892,0.0,1.7919177934224182,0.0,1.7655163426479528,0.0,0.49538627527886403,0.0,84.47133259743876,-1.9122631198255173,0.0,-1.63440114265013,0.0,0.49538627527886403,0.0
sim_raptor_glider_3dof,raptor_glider_3dof,0.032,-14.62080831853584,0.0,-0.008937214221542698,11.706640990663947,0.0,-0.8409381349359456,0.0,0.0,0.0,-69.08988385706442,-1.2058459531262535,-0.051370276146162804,0.0,0.0,0.0,0.0,0.0,-0.04192425063708229,-2.4020826207534682,0.0,0.0,11.73680621937173,0.008937214221542698,0.03449059983946554,-0.07171110295559306,-4.108743543583606,0.0,0.0,0.02978685231851077,1.706660922830138,-7.544331661891118,0.0,-10.185508815777357,11.731599825118826,0.0,-0.34955081798625254,0.0,65.42254051955227,0.0,0.0,-1.2058459531262535,0.0,-0.4363323129985824,0.3490658503988659,1.0,0.14,0.14,0.75,0.08726646259971647,5.0,0.184,0.175,0.174,0.0,0.0,0.0,-0.8260740826803747,0.0,0.11390221816602913,0.0,5.8234752417378335,0.0,-0.6437264644353388,0.0,0.11875950492048991,0.0,-2.9686326998945667,0.0,0.21340730611117853,0.0,-0.03933943134676934,0.1897008253157574,0.27658261304442266,0.15139732772264491,0.0,0.0,0.0,0.14781933093397936,0.15139732772264491,0.0,0.0,0.29793254046423845,0.0,0.0,-0.007191838660462792,0.0,1.7883490425610937,0.0,1.7460847091838299,0.0,0.4926971526527482,0.0,84.3734953894342,-1.908859105900858,0.0,-1.613462433245391,0.0,0.4926971526527482,0.0
sim_raptor_glider_3dof,raptor_glider_3dof,0.033,-14.609080059280142,0.0,-0.009284924153889354,11.699130049968511,0.0,-0.850705712599026,0.0,0.0,0.0,-65.35154966704413,-1.1405997129705239,-0.048618835128156374,0.0,0.0,0.0,0.0,0.0,-0.04309747338670344,-2.4693033327354934,0.0,0.0,11.730018931592772,0.009284924153889354,0.03447065424077338,-0.07258754069400586,-4.15895972700065,0.0,0.0,0.02949006730730242,1.6896563942651568,-7.477547056270861,0.0,-9.34965683158512,11.724918713230522,0.0,-0.3458689110942679,0.0,65.06994183841371,0.0,0.0,-1.1405997129705239,0.0,-0.4363323129985824,0.3490658503988659,1.0,0.14,0.14,0.75,0.08726646259971647,5.0,0.184,0.175,0.174,0.0,0.0,0.0,-0.8281866677030034,0.0,0.113396360025752,0.0,5.8206474711053735,0.0,-0.6443103243705498,0.0,0.11765940890710047,0.0,-2.9615127019518876,0.0,0.2141792336082559,0.0,-0.03916353200996555,0.18623588826856344,0.2765118972924287,0.15128215024932687,0.0,0.0,0.0,0.1466168543054125,0.15128215024932687,0.0,0.0,0.2966698389824883,0.0,0.0,-0.006806636917941892,0.0,1.7849223322483054,0.0,1.7298782249090308,0.0,0.4900417319850937,0.0,84.27593876298546,-1.9056794292028898,0.0,-1.5958735282866552,0.0,0.4900417319850937,0.0
sim_raptor_glider_3dof,raptor_glider_3dof,0.034,-14.59735847529797,0.0,-0.009628932689797802,11.69168604062827,0.0,-0.859643904184722,0.0,0.0,0.0,-61.633321140361794,-1.0757043828383395,-0.04587911618673855,0.0,0.0,0.0,0.0,0.0,-0.044205582886595714,-2.532793330317673,0.0,0.0,11.723246568874336,0.009628932689797802,0.03445075250190818,-0.07339401724425679,-4.205167429606298,0.0,0.0,0.029188434357661074,1.6723740992886256,-7.410361914384415,0.0,-8.530876492981125,11.71825302729169,0.0,-0.342134627000912,0.0,64.72179662214589,0.0,0.0,-1.0757043828383395,0.0,-0.4363323129985824,0.3490658503988659,1.0,0.14,0.14,0.75,0.08726646259971647,5.0,0.184,0.175,0.174,0.0,0.0,0.0,-0.8301307042015109,0.0,0.11292940138910262,0.0,5.818045707577191,0.0,-0.6448463667321527,0.0,0.11664565838390503,0.0,-2.9549588055659193,0.0,0.21488928830616225,0.0,-0.039003222706544535,0.18304898647620158,0.2764436626731878,0.1511777210763195,0.0,0.0,0.0,0.14567923517652503,0.1511777210763195,0.0,0.0,0.2954235884446497,0.0,0.0,-0.006423076266143398,0.0,1.7816311673723115,0.0,1.7168314483218732,0.0,0.48741985036138075,0.0,84.17865290731397,-1.902726843381531,0.0,-1.5815658057680564,0.0,0.48741985036138075,0.0
sim_raptor_glider_3dof,raptor_glider_3dof,0.034999999999999996,-14.58564354895263,0.0,-0.009969184020152264,11.684309361162118,0.0,-0.8677723169859828,0.0,0.0,0.0,-57.934904220530065,-1.0111548304758087,-0.043150931653548885,0.0,0.0,0.0,0.0,0.0,-0.04524898320736139,-2.592575765040143,0.0,0.0,11.7164889809818,0.009969184020152264,0.03443089418138,-0.07413207529631843,-4.247455041025078,0.0,0.0,0.028883092088957042,1.6548792759849351,-7.342959294309246,0.0,-7.728775034953896,11.711602179797014,0.0,-0.338361380245711,0.0,64.37805382203422,0.0,0.0,-1.0111548304758087,0.0,-0.4363323129985824,0.3490658503988659,1.0,0.14,0.14,0.75,0.08726646259971647,5.0,0.184,0.175,0.174,0.0,0.0,0.0,-0.8319099776333188,0.0,0.11250076552943072,0.0,5.815664811488067,0.0,-0.6453359168340254,0.0,0.11571674930888431,0.0,-2.948958983970735,0.0,0.2155388889422645,0.0,-0.03885773015821068,0.18013365759966257,0.2763785876975054,0.15108350785212593,0.0,0.0,0.0,0.14500046792759666,0.15108350785212593,0.0,0.0,0.294193633556807,0.0,0.0,-0.006041130431496845,0.0,1.7784687768769902,0.0,1.706862704658571,0.0,0.48483112333373973,0.0,84.08163529468557,-1.900001580535901,0.0,-1.5704539079010842,0.0,0.48483112333373973,0.0
sim_raptor_glider_3dof,raptor_glider_3dof,0.036,-14.573935266360214,0.0,-0.010305646941406567,11.677000121895876,0.0,-0.8751068551593909,0.0,0.0,0.0,-54.256057244154285,-0.9469468380610132,-0.04043413341594693,0.0,0.0,0.0,0.0,0.0,-0.04622800558119648,-2.648669615109773,0.0,0.0,11.709745678480948,0.010305646941406567,0.03441107784090319,-0.07480294786774712,-4.28589320795903,0.0,0.0,0.028574942286550636,1.6372235928492578,-7.275511804783762,0.0,-6.943025960559513,11.70496534009983,0.0,-0.3345597730823378,0.0,64.0386549521658,0.0,0.0,-0.9469468380610132,0.0,-0.4363323129985824,0.3490658503988659,1.0,0.14,0.14,0.75,0.08726646259971647,5.0,0.184,0.175,0.174,0.0,0.0,0.0,-0.833527484884885,0.0,0.11211003981368749,0.0,5.813500696699834,0.0,-0.6457800611077068,0.0,0.11487149091363377,0.0,-2.94350368914906,0.0,0.21612917589319813,0.0,-0.0387264267036996,0.17748470640402988,0.2763172778502663,0.15099903434502823,0.0,0.0,0.0,0.14457576561426128,0.15099903434502823,0.0,0.0,0.2929798007731002,0.0,0.0,-0.005660778678232571,0.0,1.7754289782249946,0.0,1.699904936041571,0.0,0.4822751104447607,0.0,83.98487853751969,-1.8975034529257513,0.0,-1.5624677578863497,0.0,0.4822751104447607,0.0
sim_raptor_glider_3dof,raptor_glider_3dof,0.037,-14.562233613914644,0.0,-0.010638298594501092,11.669758284891147,0.0,-0.8816636831268725,0.0,0.0,0.0,-50.59653371172897,-0.8830761033659781,-0.037728568632514295,0.0,0.0,0.0,0.0,0.0,-0.0471429889466589,-2.7010943002754453,0.0,0.0,11.703016247016425,0.010638298594501092,0.034391302262824136,-0.07540789433687878,-4.320554087471615,0.0,0.0,0.028264905390219877,1.6194597871961702,-7.2081818417017285,0.0,-6.173300620351927,11.698341759858714,0.0,-0.33074060451684445,0.0,63.70352619144143,0.0,0.0,-0.8830761033659781,0.0,-0.4363323129985824,0.3490658503988659,1.0,0.14,0.14,0.75,0.08726646259971647,5.0,0.184,0.175,0.174,0.0,0.0,0.0,-0.8349862550718142,0.0,0.11175677763388624,0.0,5.811549234504484,0.0,-0.6461798726574387,0.0,0.11410859480779763,0.0,-2.938583119334725,0.0,0.21666130719404753,0.0,-0.03860875040598263,0.1750968732432629,0.2762602460860741,0.15092384064608536,0.0,0.0,0.0,0.14440027246152953,0.15092384064608536,0.0,0.0,0.29178184097209764,0.0,0.0,-0.005281999608552002,0.0,1.7725058320237097,0.0,1.6958906160099272,0.0,0.47975125574774546,0.0,83.88837634152063,-1.8952310512790014,0.0,-1.5575368914720715,0.0,0.47975125574774546,0.0
sim_raptor_glider_3dof,raptor_glider_3dof,0.038,-14.550538578671041,0.0,-0.010967126070861536,11.662583664643384,0.0,-0.8874586830770994,0.0,0.0,0.0,-46.95609108451266,-0.8195383932911008,-0.03503408652508856,0.0,0.0,0.0,0.0,0.0,-0.04799426869721933,-2.7498690371675076,0.0,0.0,11.696300297486195,0.010967126070861536,0.034371566303700356,-0.07594815425776018,-4.351508700778192,0.0,0.0,0.027953885560540848,1.601639663610684,-7.141122324510271,0.0,-5.419277643092627,11.691730735220338,0.0,-0.3269144598816683,0.0,63.37258137482442,0.0,0.0,-0.8195383932911008,0.0,-0.4363323129985824,0.3490658503988659,1.0,0.14,0.14,0.75,0.08726646259971647,5.0,0.184,0.175,0.174,0.0,0.0,0.0,-0.8362892474419281,0.0,0.11144052190817202,0.0,5.809806392385007,0.0,-0.6465363822444007,0.0,0.11342674262465331,0.0,-2.9341875925137333,0.0,0.2171364179712831,0.0,-0.03850420329198373,0.17296501371870093,0.27620792384318943,0.1508574925655021,0.0,0.0,0.0,0.14446923734042488,0.1508574925655021,0.0,0.0,0.2905994453227649,0.0,0.0,-0.004904772113512399,0.0,1.7696937356881632,0.0,1.694753770416716,0.0,0.47725891033380274,0.0,83.79212278860578,-1.8931820010855533,0.0,-1.5555925466655145,0.0,0.47725891033380274,0.0
sim_raptor_glider_3dof,raptor_glider_3dof,0.039,-14.538850148471948,0.0,-0.01129212833541089,11.655475906609048,0.0,-0.8925073770783089,0.0,0.0,0.0,-43.33449267664995,-0.7563295768889121,-0.03235053993733383,0.0,0.0,0.0,0.0,0.0,-0.04878217547936806,-2.7950127704343637,0.0,0.0,11.689597427956329,0.01129212833541089,0.0343518687823807,-0.07642494080210761,-4.378826557497927,0.0,0.0,0.02764276532273955,1.5838137870635631,-7.074477293255907,0.0,-4.68064421729744,11.685131570281666,0.0,-0.3230916478182695,0.0,63.04572330309328,0.0,0.0,-0.7563295768889121,0.0,-0.4363323129985824,0.3490658503988659,1.0,0.14,0.14,0.75,0.08726646259971647,5.0,0.184,0.175,0.174,0.0,0.0,0.0,-0.8374393433480639,0.0,0.11116080645380327,0.0,5.8082682464673745,0.0,-0.6468505756049666,0.0,0.11282460267647867,0.0,-2.930307598652697,0.0,0.21755561480375715,0.0,-0.03841234308674542,0.17108412189709263,0.2761606682703442,0.15079958502243626,0.0,0.0,0.0,0.1447780359547199,0.15079958502243626,0.0,0.0,0.28943225289018837,0.0,0.0,-0.004529075591226736,0.0,1.766987449638331,0.0,1.6964302154890916,0.0,0.47479734219559555,0.0,83.69611179042867,-1.8913530825011484,0.0,-1.5565679042422609,0.0,0.47479734219559555,0.0
sim_raptor_glider_3dof,raptor_glider_3dof,0.04,-14.52716831178749,0.0,-0.01161331374823515,11.648434528276649,0.0,-0.8968250024495581,0.0,0.0,0.0,-39.73150733861825,-0.6934456198391781,-0.02967778500718032,0.0,0.0,0.0,0.0,0.0,-0.04950703617554024,-2.836544229059944,0.0,0.0,11.682907259948882,0.01161331374823515,0.0343322085866434,-0.07683944685148691,-4.402576004710002,0.0,0.0,0.027332410675946675,1.5660317756500581,-7.008382475183926,0.0,-3.9570949237953137,11.678543611336016,0.0,-0.319282261782571,0.0,62.72284517518918,0.0,0.0,-0.6934456198391781,0.0,-0.4363323129985824,0.3490658503988659,1.0,0.14,0.14,0.75,0.08726646259971647,5.0,0.184,0.175,0.174,0.0,0.0,0.0,-0.8384393674256323,0.0,0.11091715060811866,0.0,5.806930954558157,0.0,-0.647123399044117,0.0,0.11230082949900586,0.0,-2.9269337495636467,0.0,0.21791998122919362,0.0,-0.03833277382327797,0.16944930382460835,0.27611876765916676,0.1507497431833324,0.0,0.0,0.0,0.14532214504567992,0.1507497431833324,0.0,0.0,0.2882798551361402,0.0,0.0,-0.004154889901005245,0.0,1.7643821194261713,0.0,1.7008572542868745,0.0,0.47236574701434975,0.0,83.60033760817755,-1.8897403207099088,0.0,-1.5603977643839038,0.0,0.47236574701434975,0.0
sim_raptor_glider_3dof,raptor_glider_3dof,0.04,-14.52716831178749,0.0,-0.01161331374823515,11.648434528276649,0.0,-0.8968250024495581,0.0,0.0,0.0,-39.73150733861825,-0.6934456198391781,-0.02967778500718032,0.0,0.0,0.0,0.0,0.0,-0.04950703617554024,-2.836544229059944,0.0,0.0,11.682907259948882,0.01161331374823515,0.0343322085866434,-0.07683944685148691,-4.402576004710002,0.0,0.0,0.027332410675946675,1.5660317756500581,-7.008382475183926,0.0,-3.9570949237953137,11.678543611336016,0.0,-0.319282261782571,0.0,62.72284517518918,0.0,0.0,-0.6934456198391781,0.0,-0.4363323129985824,0.3490658503988659,1.0,0.14,0.14,0.75,0.08726646259971647,5.0,0.184,0.175,0.174,0.0,0.0,0.0,-0.8384393674256323,0.0,0.11091715060811866,0.0,5.806930954558157,0.0,-0.647123399044117,0.0,0.11230082949900586,0.0,-2.9269337495636467,0.0,0.21791998122919362,0.0,-0.03833277382327797,0.16944930382460835,0.27611876765916676,0.1507497431833324,0.0,0.0,0.0,0.14532214504567992,0.1507497431833324,0.0,0.0,0.2882798551361402,0.0,0.0,-0.004154889901005245,0.0,1.7643821194261713,0.0,1.7008572542868745,0.0,0.47236574701434975,0.0,83.60033760817755,-1.8897403207099088,0.0,-1.5603977643839038,0.0,0.47236574701434975,0.0
sim_raptor_glider_3dof,raptor_glider_3dof,0.041,-14.515493064367575,0.0,-0.011930699078947657,11.641458928387614,0.0,-0.9004268889726398,0.0,0.0,0.0,-36.14691321656187,-0.6308826500616588,-0.027015683952172152,0.0,0.0,0.0,0.0,0.0,-0.050169128662003425,-2.874479334181607,0.0,0.0,11.67622946690072,0.011930699078947657,0.03431258475682718,-0.07719287708182827,-4.422826065260899,0.0,0.0,0.02702374841982485,1.5483467310792913,-6.942966149956101,0.0,-3.248326742244709,11.671966250539096,0.0,-0.31549708397534654,0.0,62.40383133067552,0.0,0.0,-0.6308826500616588,0.0,-0.4363323129985824,0.3490658503988659,1.0,0.14,0.14,0.75,0.08726646259971647,5.0,0.184,0.175,0.174,0.0,0.0,0.0,-0.8392921703309089,0.0,0.11070903906436153,0.0,5.805790646573667,0.0,-0.6473557820046902,0.0,0.11185402945777637,0.0,-2.9240565175729225,0.0,0.21823060610297737,0.0,-0.038265132718869777,0.168055648793511,0.2760824435687978,0.15070761994916093,0.0,0.0,0.0,0.1460970120654674,0.15070761994916093,0.0,0.0,0.2871417977119833,0.0,0.0,-0.0037821957533041017,0.0,1.7618732526873973,0.0,1.7079721512590185,0.0,0.46996325375131737,0.0,83.5047952586102,-1.888338972893412,0.0,-1.5670169595328198,0.0,0.46996325375131737,0.0
sim_raptor_glider_3dof,raptor_glider_3dof,0.042,-14.503824381820813,0.0,-0.012244320050243495,11.634548271246182,0.0,-0.903328071103376,0.0,0.0,0.0,-32.580469065323555,-0.5686364570340555,-0.024364084020333597,0.0,0.0,0.0,0.0,0.0,-0.05076888820712487,-2.908843024839752,0.0,0.0,11.669563619947443,0.012244320050243495,0.034292996032641104,-0.0774864156208267,-4.439644584669945,0.0,0.0,0.026717527413701828,1.5308015598301925,-6.8783470643809945,0.0,-2.5540393406882753,11.665398847157864,0.0,-0.3117447942289218,0.0,62.088555742753215,0.0,0.0,-0.5686364570340555,0.0,-0.4363323129985824,0.3490658503988659,1.0,0.14,0.14,0.75,0.08726646259971647,5.0,0.184,0.175,0.174,0.0,0.0,0.0,-0.8400005549899687,0.0,0.11053594009023165,0.0,5.80484352395808,0.0,-0.6475486171586161,0.0,0.11148280682148576,0.0,-2.9216664990162933,0.0,0.218488555336891,0.0,-0.03820909050778484,0.16689835489371246,0.2760518589656965,0.150672900649973,0.0,0.0,0.0,0.1470981975457479,0.150672900649973,0.0,0.0,0.2860175808942963,0.0,0.0,-0.003410971762846704,0.0,1.7594567253571671,0.0,1.717713748413389,0.0,0.46758891329867447,0.0,83.40947830732381,-1.8871436813416933,0.0,-1.5763620192915915,0.0,0.46758891329867447,0.0
sim_raptor_glider_3dof,raptor_glider_3dof,0.043000000000000003,-14.492162261981754,0.0,-0.012554209900574069,11.6277017771987,0.0,-0.9055420718998941,0.0,0.0,0.0,-29.031985399754763,-0.5067037336166428,-0.021722870227871092,0.0,0.0,0.0,0.0,0.0,-0.05130655827459506,-2.939649250476308,0.0,0.0,11.662909373884828,0.012554209900574069,0.03427344139964391,-0.07772112010443959,-4.45309216101376,0.0,0.0,0.02641456182984453,1.5134429105374525,-6.814640140741137,0.0,-1.8739661007521473,11.658840834960252,0.0,-0.30803481704818403,0.0,61.7768926372462,0.0,0.0,-0.5067037336166428,0.0,-0.4363323129985824,0.3490658503988659,1.0,0.14,0.14,0.75,0.08726646259971647,5.0,0.184,0.175,0.174,0.0,0.0,0.0,-0.8405670241737357,0.0,0.1103973678803731,0.0,5.8040861976554945,0.0,-0.6477026922605988,0.0,0.1111859022064543,0.0,-2.9197552777639495,0.0,0.21869477901302786,0.0,-0.038164366665167065,0.16597314469645724,0.2760271340244242,0.15064531567741996,0.0,0.0,0.0,0.1483217471196305,0.15064531567741996,0.0,0.0,0.2849066991238653,0.0,0.0,-0.003041201831901953,0.0,1.757128982841898,0.0,1.7300268480151197,0.0,0.46524177845110115,0.0,83.3143815297192,-1.8861489177142405,0.0,-1.5883757166997778,0.0,0.46524177845110115,0.0
sim_raptor_glider_3dof,raptor_glider_3dof,0.044,-14.480506696836873,0.0,-0.012860409018108334,11.620918601993118,0.0,-0.9070812525062842,0.0,0.0,0.0,-25.501283793923072,-0.44508136568942874,-0.019091935263981157,0.0,0.0,0.0,0.0,0.0,-0.05178241241825598,-2.9669136845718906,0.0,0.0,11.656266364183605,0.012860409018108334,0.03425391978660438,-0.07789795199044308,-4.463223881765099,0.0,0.0,0.026115539572187103,1.4963101971932085,-6.751954145484605,0.0,-1.207861361278436,11.652291678499148,0.0,-0.3043750843574053,0.0,61.46871241876371,0.0,0.0,-0.44508136568942874,0.0,-0.4363323129985824,0.3490658503988659,1.0,0.14,0.14,0.75,0.08726646259971647,5.0,0.184,0.175,0.174,0.0,0.0,0.0,-0.8409938559962186,0.0,0.11029286506558894,0.0,5.803515587387704,0.0,-0.6478187115113816,0.0,0.1109621579745079,0.0,-2.918315179800302,0.0,0.21885013825888444,0.0,-0.03813071946581275,0.16527614381526615,0.2760083474645191,0.1506246364714279,0.0,0.0,0.0,0.1497640956695585,0.1506246364714279,0.0,0.0,0.2838086272934888,0.0,0.0,-0.002672870936957362,0.0,1.7548869590048712,0.0,1.7448610305361332,0.0,0.4629208732257095,0.0,83.2194994370164,-1.885348922949236,0.0,-1.6030058307764004,0.0,0.4629208732257095,0.0
