name,vehicle,t,north,east,down,u,v,w,p_rad,p_deg,p_hat_div_b,q_deg,q_rad,q_hat_div_c,r_rad,r_deg,r_hat_div_b,phi_rad,phi_deg,theta_rad,theta_deg,psi_rad,psi_deg,speed,altitude,mach,alpha_rad,alpha_deg,beta_rad,beta_deg,gamma_rad,gamma_deg,u_dot,v_dot,w_dot,north_dot,east_dot,down_dot,p_rad_dot,q_rad_dot,r_rad_dot,phi_rad_dot,theta_rad_dot,psi_rad_dot,del_tail_alt_rad,del_tail_splay_rad,DIM_b,DIM_c_bar,DIM_S,DIM_wing_position,DIM_wing_incidence_rad,DIM_wing_incidence_deg,DIM_empennage_length,DIM_nose_length,DIM_tail_length,CDp,CDq,CDr,CYp,CYq,CYr,CLp,CLq,CLr,Clp,Clq,Clr,Cmp,Cmq,Cmr,Cnp,Cnq,Cnr,CL_0,Cm_0,CD_0,Cl_0,CY_0,Cn_0,CL,CD,CY,Cl,Cm,Cn,p_hat,q_hat,r_hat,drag_force_wind,side_force_wind,lift_force_wind,roll_moment_wind,pitch_moment_wind,yaw_moment_wind,qbar,X_total,Y_total,Z_total,L_total,M_total,N_total
sim_raptor_glider_3dof,raptor_glider_3dof,0.0,-15.0,0.0,0.0,12.0,0.0,0.0,0.0,0.0,0.0,0.0,0.0,0.0,0.0,0.0,0.0,0.0,0.0,0.0,0.0,0.0,0.0,12.0,-0.0,0.035264039495724236,0.0,0.0,0.0,0.0,0.0,0.0,-7.487178041450953,0.0,-25.024054441263395,12.0,0.0,0.0,0.0,-89.41363838472799,0.0,0.0,0.0,0.0,0.4363323129985824,0.3490658503988659,1.0,0.14,0.14,0.75,0.08726646259971647,5.0,0.184,0.175,0.174,0.0,0.0,0.0,-0.053153656886407115,0.0,0.055671173493162154,0.0,6.024209384397437,0.0,-0.5269202128147928,0.0,0.19813275846416445,0.0,-3.4552995296441478,0.0,-0.03588346466142729,0.0,-0.029845922084054996,0.7757079658211316,-0.38952171953159265,0.1667455120831285,0.0,0.0,0.0,0.7757079658211316,0.1667455120831285,0.0,0.0,-0.38952171953159265,0.0,0.0,0.0,0.0,2.0589739613990123,0.0,9.578443721347433,0.0,-0.6733741106753866,0.0,88.20001620075907,-2.0589739613990123,0.0,-9.578443721347433,0.0,-0.6733741106753866,0.0
sim_raptor_glider_3dof,raptor_glider_3dof,0.001,-14.988003746590733,0.0,-0.000012415174634177188,11.992502827180262,0.0,-0.02526770405029525,0.0,0.0,0.0,-5.103039651887635,-0.0890648437852645,-0.0037133468875430262,0.0,0.0,0.0,0.0,0.0,-0.000044590487564095195,-0.0025548467438532376,0.0,0.0,11.992529446150822,0.000012415174634177188,0.03524208600355821,-0.002106955238988487,-0.12071964281701804,0.0,0.0,0.002062364751424392,0.1181647960731648,-7.507675599275719,0.0,-25.508550485583747,11.99250394195709,0.0,-0.024732952477174667,0.0,-88.71856693472195,0.0,0.0,-0.0890648437852645,0.0,0.4363323129985824,0.3490658503988659,1.0,0.14,0.14,0.75,0.08726646259971647,5.0,0.184,0.175,0.174,0.0,0.0,0.0,-0.053430186057496054,0.0,0.0554080780660455,0.0,6.0240249874908525,0.0,-0.5274002219771142,0.0,0.1957017793236076,0.0,-3.453669819760639,0.0,-0.03525814560644711,0.0,-0.029499655008724115,0.7671435812705255,-0.38877083359862435,0.165760584735996,0.0,0.0,0.0,0.7640118800492363,0.165760584735996,0.0,0.0,-0.386975379228011,0.0,0.0,-0.0005198685642560238,0.0,2.0442643995802876,0.0,9.422277857722193,0.0,-0.6681395275853911,0.0,88.09023322213056,-2.064112165078258,0.0,-9.417949773357746,0.0,-0.6681395275853911,0.0
sim_raptor_glider_3dof,raptor_glider_3dof,0.002,-14.976014997218163,0.0,-0.000049270492086499364,11.984983638081903,0.0,-0.051011581957007696,0.0,0.0,0.0,-10.166686259086081,-0.1774421492383174,-0.0074026192836820276,0.0,0.0,0.0,0.0,0.0,-0.00017790069037163533,-0.010192958730758345,0.0,0.0,11.985092197667264,0.000049270492086499364,0.03522023038486956,-0.004256265628603735,-0.24386605700559036,0.0,0.0,0.0040783649382321,0.233673098274832,-7.5312069778045,0.0,-25.97647568606275,11.984992523423195,0.0,-0.04887944429772272,0.0,-88.03854836579413,0.0,0.0,-0.1774421492383174,0.0,0.4363323129985824,0.3490658503988659,1.0,0.14,0.14,0.75,0.08726646259971647,5.0,0.184,0.175,0.174,0.0,0.0,0.0,-0.05371000072613438,0.0,0.05518325282971427,0.0,6.023796383437123,0.0,-0.5278990096560925,0.0,0.1932332307470952,0.0,-3.4519868033346692,0.0,-0.03462545852853912,0.0,-0.029153229463314653,0.758374006898808,-0.388063512765844,0.16478068235403653,0.0,0.0,0.0,0.7521311449211472,0.16478068235403653,0.0,0.0,-0.38448598859501065,0.0,0.0,-0.001036366699715484,0.0,2.0296598650783366,0.0,9.264255835778041,0.0,-0.6630183077427956,0.0,87.98100758981425,-2.069072495287059,0.0,-9.25553317577674,0.0,-0.6630183077427956,0.0
sim_raptor_glider_3dof,raptor_glider_3dof,0.003,-14.964033765483153,0.0,-0.00010997650410396534,11.977439408842296,0.0,-0.07721526894416839,0.0,0.0,0.0,-15.191799193026208,-0.2651469152201249,-0.011068367643203196,0.0,0.0,0.0,0.0,0.0,-0.0003992506169425001,-0.022875375318799577,0.0,0.0,11.97768829909372,0.00010997650410396534,0.035198472770559576,-0.006446636600632963,-0.3693650692708328,0.0,0.0,0.006047385983690463,0.3464896939520332,-7.557751963901034,0.0,-26.428240508352538,11.977469282477013,0.0,-0.07243326284374174,0.0,-87.37346069275941,0.0,0.0,-0.2651469152201249,0.0,0.4363323129985824,0.3490658503988659,1.0,0.14,0.14,0.75,0.08726646259971647,5.0,0.184,0.175,0.174,0.0,0.0,0.0,-0.0539933342342998,0.0,0.0549956890768542,0.0,6.023523849844041,0.0,-0.5284156910211553,0.0,0.1907277346999606,0.0,-3.450251759098094,0.0,-0.033984927296559594,0.0,-0.028807107836358457,0.7494038488665931,-0.387399686775176,0.16380724554970857,0.0,0.0,0.0,0.7400699681597184,0.16380724554970857,0.0,0.0,-0.38205327508479314,0.0,0.0,-0.0015495714700484477,0.0,2.015177614704102,0.0,9.104435082498677,0.0,-0.6580095324771711,0.0,87.87233904709669,-2.0738283182350847,0.0,-9.09125486919839,0.0,-0.6580095324771711,0.0
sim_raptor_glider_3dof,raptor_glider_3dof,0.004,-14.95206006146447,0.0,-0.00019393750269191865,11.969867139046595,0.0,-0.10386280993339823,0.0,0.0,0.0,-20.179227607931264,-0.35219396226773997,-0.01471113674262299,0.0,0.0,0.0,0.0,0.0,-0.0007079751977142588,-0.040563990828967035,0.0,0.0,11.970317740549529,0.00019393750269191865,0.03517681313159225,-0.008676805031272569,-0.49714430794979647,0.0,0.0,0.00796882983355831,0.4565803171208294,-7.587282867422961,0.0,-26.864252771312174,11.96993767151242,0.0,-0.09538841555743248,0.0,-86.72306067972036,0.0,0.0,-0.35219396226773997,0.0,0.4363323129985824,0.3490658503988659,1.0,0.14,0.14,0.75,0.08726646259971647,5.0,0.184,0.175,0.174,0.0,0.0,0.0,-0.054280487125545326,0.0,0.054843901706905056,0.0,6.023207997132767,0.0,-0.5289492506950555,0.0,0.18818569052618506,0.0,-3.4484661334741316,0.0,-0.033335929119057396,0.0,-0.028461722112779208,0.7402377623774763,-0.38677875516894367,0.16284159593212236,0.0,0.0,0.0,0.727832609270965,0.16284159593212236,0.0,0.0,-0.37967643521108574,0.0,0.0,-0.0020595591439672187,0.0,2.000833340210975,0.0,8.942873240625298,0.0,-0.6531113699789741,0.0,87.76422654166264,-2.078352616244555,0.0,-8.925175978978858,0.0,-0.6531113699789741,0.0
sim_raptor_glider_3dof,raptor_glider_3dof,0.005,-14.94009389182307,0.0,-0.0003005518855746,11.962263859629724,0.0,-0.13093865674169305,0.0,0.0,0.0,-25.12980322664479,-0.4385978066832464,-0.01833146045868009,0.0,0.0,0.0,0.0,0.0,-0.0011034240774344013,-0.06322154265010774,0.0,0.0,11.962980463882431,0.0003005518855746,0.035155251297077285,-0.010945539172903748,-0.6271331991024985,0.0,0.0,0.009842115095469346,0.5639116564523908,-7.619764933048298,0.0,-27.284916404279006,11.96240105817221,0.0,-0.11773912974501546,0.0,-86.08698535636344,0.0,0.0,-0.4385978066832464,0.0,0.4363323129985824,0.3490658503988659,1.0,0.14,0.14,0.75,0.08726646259971647,5.0,0.184,0.175,0.174,0.0,0.0,0.0,-0.05457182683161292,0.0,0.05472593032343835,0.0,6.022849768199583,0.0,-0.529498543215881,0.0,0.18560727572066893,0.0,-3.446631540314975,0.0,-0.03267769521599154,0.0,-0.028117473742245224,0.7308804509402165,-0.3861995880247053,0.16188493539638366,0.0,0.0,0.0,0.7154233824078116,0.16188493539638366,0.0,0.0,-0.37735413745313595,0.0,0.0,-0.002566404464215213,0.0,1.9866411722863777,0.0,8.779628219436473,0.0,-0.6483210867187731,0.0,87.65666831823584,-2.0826180146542357,0.0,-8.757357879177162,0.0,-0.6483210867187731,0.0
sim_raptor_glider_3dof,raptor_glider_3dof,0.006,-14.92813525992473,0.0,-0.0004292124397594923,11.954626639550906,0.0,-0.15842765930436845,0.0,0.0,0.0,-30.04433358782197,-0.5243725426750143,-0.02192985685369944,0.0,0.0,0.0,0.0,0.0,-0.0015849610904613313,-0.09081158117588696,0.0,0.0,11.955676367913814,0.0004292124397594923,0.03513378696968413,-0.01325163807797221,-0.7592629335026617,0.0,0.0,0.01166667698751088,0.6684513523267749,-7.65515672930522,0.0,-27.690630360815796,11.954862725505864,0.0,-0.13947985016959272,0.0,-85.46475387002384,0.0,0.0,-0.5243725426750143,0.0,0.4363323129985824,0.3490658503988659,1.0,0.14,0.14,0.75,0.08726646259971647,5.0,0.184,0.175,0.174,0.0,0.0,0.0,-0.05486778710977721,0.0,0.05463934182373924,0.0,6.022450437086101,0.0,-0.5300622937916623,0.0,0.18299244783751023,0.0,-3.444749760445701,0.0,-0.03200931203935526,0.0,-0.02777473367758559,0.7213366671206888,-0.3856605284654083,0.16093834608201854,0.0,0.0,0.0,0.7028466604815571,0.16093834608201854,0.0,0.0,-0.37508452678533377,0.0,0.0,-0.003070179959517922,0.0,1.9726136922696764,0.0,8.61475825857789,0.0,-0.6436350613951496,0.0,87.54966199755503,-2.0865968109073574,0.0,-8.58786227075033,0.0,-0.6436350613951496,0.0
sim_raptor_glider_3dof,raptor_glider_3dof,0.007,-14.916184165882276,0.0,-0.0005793064854676666,11.946952592434664,0.0,-0.18631506489291877,0.0,0.0,0.0,-34.923595341205655,-0.6095317253381911,-0.025506823267053384,0.0,0.0,0.0,0.0,0.0,-0.00215196395569408,-0.12329845232554847,0.0,0.0,11.94840531406963,0.0005793064854676666,0.03511241974218939,-0.015593931681301612,-0.8934664713539263,0.0,0.0,0.013441967725607532,0.7701680190283778,-7.693410528399182,0.0,-28.081787400130356,11.947325872576652,0.0,-0.1606052419691676,0.0,-84.85576962259707,0.0,0.0,-0.6095317253381911,0.0,0.4363323129985824,0.3490658503988659,1.0,0.14,0.14,0.75,0.08726646259971647,5.0,0.184,0.175,0.174,0.0,0.0,0.0,-0.05516886739682447,0.0,0.05458123429015566,0.0,6.022011606567932,0.0,-0.5306390995932566,0.0,0.18034094615955698,0.0,-3.442822740123928,0.0,-0.031329722669104235,0.0,-0.027433842397851762,0.7116112100401488,-0.3851593965008954,0.16000279048359145,0.0,0.0,0.0,0.6901068760336266,0.16000279048359145,0.0,0.0,-0.3728652305367967,0.0,0.0,-0.0035709552573874744,0.0,1.9587619456352325,0.0,8.448321951825605,0.0,-0.6390488010277785,0.0,87.4432046606849,-2.090261009781001,0.0,-8.416751218395161,0.0,-0.6390488010277785,0.0
sim_raptor_glider_3dof,raptor_glider_3dof,0.008,-14.904240606651282,0.0,-0.0007502161182813057,11.939238882633015,0.0,-0.21458650998107728,0.0,0.0,0.0,-39.768327695755914,-0.6940882563029905,-0.02906283149078703,0.0,0.0,0.0,0.0,0.0,-0.0028038236298313884,-0.16064726048838937,0.0,0.0,11.941167131685324,0.0007502161182813057,0.035091149113066274,-0.017971280258754233,-1.0296785112733915,0.0,0.0,0.015167456628922844,0.8690312507850021,-7.734472659743328,0.0,-28.458772998507442,11.939793614875626,0.0,-0.18111019026309105,0.0,-84.25932271685393,0.0,0.0,-0.6940882563029905,0.0,0.4363323129985824,0.3490658503988659,1.0,0.14,0.14,0.75,0.08726646259971647,5.0,0.184,0.175,0.174,0.0,0.0,0.0,-0.05547563193059443,0.0,0.054548242134604644,0.0,6.021535204946049,0.0,-0.5312274312413525,0.0,0.17765229454057654,0.0,-3.440852589499303,0.0,-0.030637728722487007,0.0,-0.027095110104628704,0.7017089249620452,-0.38469349440195466,0.1590791122370665,0.0,0.0,0.0,0.6772085241452388,0.1590791122370665,0.0,0.0,-0.37069336574289874,0.0,0.0,-0.004068796408710184,0.0,1.9450954633896698,0.0,8.280378294547667,0.0,-0.634556959380627,0.0,87.33729292823296,-2.0935823601488033,0.0,-8.244087212286694,0.0,-0.634556959380627,0.0
sim_raptor_glider_3dof,raptor_glider_3dof,0.009000000000000001,-14.892304576113405,0.0,-0.0009413184291606596,11.931482731000013,0.0,-0.24322801242629782,0.0,0.0,0.0,-44.57922600410458,-0.7780542717623,-0.03259832301805841,0.0,0.0,0.0,0.0,0.0,-0.0035399435977275817,-0.2028238278641469,0.0,0.0,11.933961623290918,0.0009413184291606596,0.03506997450201568,-0.020382573901800104,-1.1678354601866447,0.0,0.0,0.01684263030407252,0.9650116323224979,-7.778283843616755,0.0,-28.821964269395146,11.932268984822977,0.0,-0.20098980076623565,0.0,-83.67459264387269,0.0,0.0,-0.7780542717623,0.0,0.4363323129985824,0.3490658503988659,1.0,0.14,0.14,0.75,0.08726646259971647,5.0,0.184,0.175,0.174,0.0,0.0,0.0,-0.055788708736007504,0.0,0.0545365423304085,0.0,6.021023482042527,0.0,-0.531825634606743,0.0,0.17492580464570248,0.0,-3.4388415806117196,0.0,-0.029931992558805562,0.0,-0.02675881698380161,0.6916347024036031,-0.3842596132891834,0.15816803727685969,0.0,0.0,0.0,0.6641561648322319,0.15816803727685969,0.0,0.0,-0.3685655476778038,0.0,0.0,-0.004563765222528177,0.0,1.9316222876944662,0.0,8.110986723910683,0.0,-0.6301533572010052,0.0,87.23192303897322,-2.096532395351765,0.0,-8.0699332223392,0.0,-0.6301533572010052,0.0
sim_raptor_glider_3dof,raptor_glider_3dof,0.01,-14.88037606515921,0.0,-0.0011519857253842968,11.923681420343334,0.0,-0.27222596258209436,0.0,0.0,0.0,-49.356935507178044,-0.8614410332947542,-0.03611370438294382,0.0,0.0,0.0,0.0,0.0,-0.004359739052099519,-0.24979464746366856,0.0,0.0,11.926788569792983,0.0011519857253842968,0.03504889526519434,-0.022826731891997996,-1.3078753974881616,0.0,0.0,0.01846699283989848,1.058080750024493,-7.824779502619,0.0,-29.171728920063018,11.924754932281528,0.0,-0.22023940058925584,0.0,-83.10065118556057,0.0,0.0,-0.8614410332947542,0.0,0.4363323129985824,0.3490658503988659,1.0,0.14,0.14,0.75,0.08726646259971647,5.0,0.184,0.175,0.174,0.0,0.0,0.0,-0.05610878847395166,0.0,0.05454186162840115,0.0,6.020479004498773,0.0,-0.5324319328652451,0.0,0.17216057968112747,0.0,-3.4367921450673697,0.0,-0.02921103978427371,0.0,-0.02642521354291394,0.6813934773072167,-0.3838540408424605,0.15727017538811427,0.0,0.0,0.0,0.6509544254455103,0.15727017538811427,0.0,0.0,-0.3664778994650984,0.0,0.0,-0.0050559186136121355,0.0,1.9183490019530007,0.0,7.940207158086878,0.0,-0.6258310040784566,0.0,87.12709092666549,-2.099082476605616,0.0,-7.894352751368246,0.0,-0.6258310040784566,0.0
sim_raptor_glider_3dof,raptor_glider_3dof,0.01,-14.88037606515921,0.0,-0.0011519857253842968,11.923681420343334,0.0,-0.27222596258209436,0.0,0.0,0.0,-49.356935507178044,-0.8614410332947542,-0.03611370438294382,0.0,0.0,0.0,0.0,0.0,-0.004359739052099519,-0.24979464746366856,0.0,0.0,11.926788569792983,0.0011519857253842968,0.03504889526519434,-0.022826731891997996,-1.3078753974881616,0.0,0.0,0.01846699283989848,1.058080750024493,-5.3677869414555275,0.0,-20.79523724813732,11.924754932281528,0.0,-0.22023940058925584,0.0,13.798518886402015,0.0,0.0,-0.8614410332947542,0.0,-0.16718470598354956,0.34906585039886584,1.0,0.14,0.14,0.75,0.08726646259971647,5.0,0.184,0.175,0.174,0.0,0.0,0.0,0.002773220766292243,0.0,0.006485571908922713,0.0,6.047838399833913,0.0,-0.5173927749082067,0.0,0.16548146419517742,0.0,-3.6541656929426356,0.0,-0.03885110198924017,0.0,-0.010435185397029563,0.4914681415579122,0.04237697273386821,0.10620197571883336,0.0,0.0,0.0,0.4608907628200737,0.10620197571883336,0.0,0.0,0.06085213707803977,0.0,0.0,-0.0050559186136121355,0.0,1.2954296873064843,0.0,5.62184999592787,0.0,0.10391664573349357,0.0,87.12709092666549,-1.4234095222856609,0.0,-5.590817541588679,0.0,0.10391664573349357,0.0
sim_raptor_glider_3dof,raptor_glider_3dof,0.011,-14.868453853895097,0.0,-0.0013774383977421933,11.918305925946337,0.0,-0.29277367449479097,0.0,0.0,0.0,-48.565084552839025,-0.847620626956479,-0.035548886028196336,0.0,0.0,0.0,0.0,0.0,-0.005214269333983603,-0.2987556260817511,0.0,0.0,11.921901382284823,0.0013774383977421933,0.03503453343408511,-0.024560101666847464,-1.407190169922578,0.0,0.0,0.019345832332863862,1.108434543840827,-5.382966878848324,0.0,-20.30123591464752,11.919670499134284,0.0,-0.23062471895401754,0.0,13.841892260443803,0.0,0.0,-0.847620626956479,0.0,-0.16718470598354956,0.34906585039886584,1.0,0.14,0.14,0.75,0.08726646259971647,5.0,0.184,0.175,0.174,0.0,0.0,0.0,0.002775185563353227,0.0,0.006494936450572435,0.0,6.047919079661248,0.0,-0.5175974361107375,0.0,0.1634767177189628,0.0,-3.6528213385560786,0.0,-0.03834412959300899,0.0,-0.010267082254046088,0.4842332321667022,0.04291395138527535,0.10589270893206743,0.0,0.0,0.0,0.45413368211681376,0.10589270893206743,0.0,0.0,0.061093473507672455,0.0,0.0,-0.004976844043947487,0.0,1.2905989785892402,0.0,5.534889721812008,0.0,0.10424329061340229,0.0,87.05570218903556,-1.4261335428913207,0.0,-5.501526431273056,0.0,0.10424329061340229,0.0
sim_raptor_glider_3dof,raptor_glider_3dof,0.012,-14.856536723079062,0.0,-0.0016131202039070126,11.912916203652848,0.0,-0.31283101617289694,0.0,0.0,0.0,-47.77084093291632,-0.8337584607258695,-0.03498182662814543,0.0,0.0,0.0,0.0,0.0,-0.0060549618161840615,-0.3469237571802145,0.0,0.0,11.917022938634227,0.0016131202039070126,0.03502019729828742,-0.026253784835517067,-1.5042310673196901,0.0,0.0,0.020198823019333005,1.1573073101394755,-5.3962013242196445,0.0,-19.814497439866425,11.914591993585654,0.0,-0.24069346962260665,0.0,13.88196742829413,0.0,0.0,-0.8337584607258695,0.0,-0.16718470598354956,0.34906585039886584,1.0,0.14,0.14,0.75,0.08726646259971647,5.0,0.184,0.175,0.174,0.0,0.0,0.0,0.002777035845802776,0.0,0.00650410606696862,0.0,6.047984499005173,0.0,-0.5177937642701043,0.0,0.1615169036203624,0.0,-3.6514970435314638,0.0,-0.03784913159146721,0.0,-0.0101048837916076,0.477151589358879,0.04343748122395571,0.10559642063591927,0.0,0.0,0.0,0.44753185303173165,0.10559642063591927,0.0,0.0,0.061320526335356174,0.0,0.0,-0.004897455727940361,0.0,1.2859348208698616,0.0,5.449964968473166,0.0,0.1045450967024831,0.0,86.98447035594491,-1.4285574451975698,0.0,-5.4143300736915645,0.0,0.1045450967024831,0.0
sim_raptor_glider_3dof,raptor_glider_3dof,0.013000000000000001,-14.844624667870148,0.0,-0.0018587247977263027,11.90751412490545,0.0,-0.33240503195668303,0.0,0.0,0.0,-46.97438816659781,-0.8198577376169944,-0.03441266021810105,0.0,0.0,0.0,0.0,0.0,-0.0068817738562326905,-0.39429659752560253,0.0,0.0,11.912152859164163,0.0018587247977263027,0.035005885742055785,-0.02790832103168293,-1.5990290084116234,0.0,0.0,0.02102654717545024,1.204732410886021,-5.407577673301906,0.0,-19.3349985595927,11.909519681363152,0.0,-0.25045298823665113,0.0,13.918826013848603,0.0,0.0,-0.8198577376169944,0.0,-0.16718470598354956,0.34906585039886584,1.0,0.14,0.14,0.75,0.08726646259971647,5.0,0.184,0.175,0.174,0.0,0.0,0.0,0.0027787747963225196,0.0,0.006513068516583969,0.0,6.048035585638461,0.0,-0.5179820775674023,0.0,0.15960148078025355,0.0,-3.6501931450666856,0.0,-0.03736592289371886,0.0,-0.00994839080837659,0.47022239371228225,0.043947824195533114,0.10531265659636257,0.0,0.0,0.0,0.44108433460890384,0.10531265659636257,0.0,0.0,0.061533624095960124,0.0,0.0,-0.004817772430534147,0.0,1.281431195280061,0.0,5.367058854887156,0.0,0.10482267871029384,0.0,86.9133897302358,-1.4306983489514922,0.0,-5.329210907288901,0.0,0.10482267871029384,0.0
sim_raptor_glider_3dof,raptor_glider_3dof,0.014,-14.83271768161426,0.0,-0.002113931947847538,11.902101597525927,0.0,-0.35150328305084544,0.0,0.0,0.0,-46.17591704524551,-0.8059217875673056,-0.03384152588300347,0.0,0.0,0.0,0.0,0.0,-0.007694666553176719,-0.44087191825750244,0.0,0.0,11.907290917577548,0.002113931947847538,0.03499159810037776,-0.029524293754540208,-1.6916174252396092,0.0,0.0,0.02182962720136349,1.2507455069821067,-5.417181675052531,0.0,-18.862704347209082,11.904453923948877,0.0,-0.2599110778765547,0.0,13.952551998192384,0.0,0.0,-0.8059217875673056,0.0,-0.16718470598354956,0.34906585039886584,1.0,0.14,0.14,0.75,0.08726646259971647,5.0,0.184,0.175,0.174,0.0,0.0,0.0,0.0027804057472890246,0.0,0.006521813749003544,0.0,6.048073232825835,0.0,-0.5181626881855813,0.0,0.15772985225407005,0.0,-3.648909912419848,0.0,-0.036894306931432856,0.0,-0.009797406620332523,0.46344452544585607,0.04444525034265037,0.1050409656980225,0.0,0.0,0.0,0.43478988168671945,0.1050409656980225,0.0,0.0,0.06173310543707697,0.0,0.0,-0.004737813623620487,0.0,1.2770821745225984,0.0,5.286151016177799,0.0,0.10507666909838685,0.0,86.84245686134247,-1.4325728114415384,0.0,-5.2461477853982945,0.0,0.10507666909838685,0.0
sim_raptor_glider_3dof,raptor_glider_3dof,0.015,-14.820815757751836,0.0,-0.0023784495527116,11.896680317265478,0.0,-0.37013282707432404,0.0,0.0,0.0,-45.375601406995855,-0.7919536446246492,-0.03326855082028873,0.0,0.0,0.0,0.0,0.0,-0.008493606979553087,-0.4866478327712508,0.0,0.0,11.902436762314256,0.0023784495527116,0.03497733334013416,-0.031102245350824606,-1.7820273919826364,0.0,0.0,0.02260863837127152,1.2953795592113857,-5.42509562525646,0.0,-18.397579248183668,11.899394923463621,0.0,-0.2690749641606449,0.0,13.983223322843108,0.0,0.0,-0.7919536446246492,0.0,-0.16718470598354956,0.34906585039886584,1.0,0.14,0.14,0.75,0.08726646259971647,5.0,0.184,0.175,0.174,0.0,0.0,0.0,0.0027819320717924474,0.0,0.006530333289191853,0.0,6.048098297439598,0.0,-0.5183358929348748,0.0,0.15590146394791415,0.0,-3.647647614883374,0.0,-0.03643410043958336,0.0,-0.009651744893792792,0.45681692813218344,0.044930011835095394,0.10478091458294836,0.0,0.0,0.0,0.4286473229517575,0.10478091458294836,0.0,0.0,0.061919284842130745,0.0,0.0,-0.004657597114840422,0.0,1.2728820402823442,0.0,5.207221956136559,0.0,0.10530765484433145,0.0,86.77166647794192,-1.434196613646776,0.0,-5.165120449936101,0.0,0.10530765484433145,0.0
sim_raptor_glider_3dof,raptor_glider_3dof,0.016,-14.808918889428321,0.0,-0.0026519867660224094,11.891251937124954,0.0,-0.3883008144301706,0.0,0.0,0.0,-44.57361422977679,-0.7779563278234012,-0.032693861587732534,0.0,0.0,0.0,0.0,0.0,-0.00927856433641316,-0.5316225764170774,0.0,0.0,11.897590098615144,0.0026519867660224094,0.03496309059512517,-0.03264272668821626,-1.8702904710338466,0.0,0.0,0.023364162351803098,1.3386678946167692,-5.431399516896851,0.0,-17.939581647893583,11.894342893808743,0.0,-0.2779519367923087,0.0,14.010917116722798,0.0,0.0,-0.7779563278234012,0.0,-0.16718470598354956,0.34906585039886584,1.0,0.14,0.14,0.75,0.08726646259971647,5.0,0.184,0.175,0.174,0.0,0.0,0.0,0.0027833572191466507,0.0,0.006538620360549811,0.0,6.048111602517232,0.0,-0.5185019792790552,0.0,0.15411574737323305,0.0,-3.646406483813788,0.0,-0.035985118894489646,0.0,-0.009511224701257884,0.45033840812361337,0.045402358558117306,0.10453207904380198,0.0,0.0,0.0,0.4226553508196333,0.10453207904380198,0.0,0.0,0.0620924738005359,0.0,0.0,-0.004577140622282556,0.0,1.2688252169318308,0.0,5.130250656991191,0.0,0.1055162168060394,0.0,86.70101414515169,-1.4355849113546364,0.0,-5.08610707682915,0.0,0.1055162168060394,0.0
sim_raptor_glider_3dof,raptor_glider_3dof,0.017,-14.797027069579128,0.0,-0.0029342602057622863,11.885818029000859,0.0,-0.40601435057528734,0.0,0.0,0.0,-43.77012399485036,-0.7639327777163123,-0.03211758156747114,0.0,0.0,0.0,0.0,0.0,-0.010049510895415848,-0.575794560478065,0.0,0.0,11.892750643622986,0.0029342602057622863,0.03494886903412673,-0.03414628570723668,-1.956438057072547,0.0,0.0,0.024096774811820827,1.3806434965944818,-5.436170810019471,0.0,-17.48866554231207,11.889298020768667,0.0,-0.28654920125726824,0.0,14.03570857802589,0.0,0.0,-0.7639327777163123,0.0,-0.16718470598354956,0.34906585039886584,1.0,0.14,0.14,0.75,0.08726646259971647,5.0,0.184,0.175,0.174,0.0,0.0,0.0,0.0027846846864690725,0.0,0.006546669685482439,0.0,6.048113937746831,0.0,-0.518661224349336,0.0,0.15237213313651557,0.0,-3.6451867226613888,0.0,-0.03554717980904785,0.0,-0.009375671391858525,0.4440076893838854,0.045862534821565916,0.1042940459635134,0.0,0.0,0.0,0.4168125784023934,0.1042940459635134,0.0,0.0,0.06225297628668951,0.0,0.0,-0.00449646141944596,0.0,1.2649062847197359,0.0,5.055215234011275,0.0,0.10570292130111299,0.0,86.63049560869571,-1.4367522170605591,0.0,-5.009084950175502,0.0,0.10570292130111299,0.0
sim_raptor_glider_3dof,raptor_glider_3dof,0.018000000000000002,-14.785140290955388,0.0,-0.003224994121252193,11.880380083477707,0.0,-0.4232804901629923,0.0,0.0,0.0,-42.96529464631592,-0.7498858556677053,-0.0315398309402601,0.0,0.0,0.0,0.0,0.0,-0.010806422023501353,-0.6191623735838504,0.0,0.0,11.887918123088095,0.003224994121252193,0.03493466785120954,-0.035613466950586016,-2.0405013500972204,0.0,0.0,0.024807044927084663,1.4213389765133702,-5.4394844574434345,0.0,-17.044780924455146,11.884260460803551,0.0,-0.2948738730843092,0.0,14.057670998598999,0.0,0.0,-0.7498858556677053,0.0,-0.16718470598354956,0.34906585039886584,1.0,0.14,0.14,0.75,0.08726646259971647,5.0,0.184,0.175,0.174,0.0,0.0,0.0,0.002785918003344935,0.0,0.006554477353738146,0.0,6.04810606034362,0.0,-0.5188138952164107,0.0,0.15067005171356188,0.0,-3.643988508369795,0.0,-0.03512010282211879,0.0,-0.009244916420671278,0.4378234219962983,0.04631077944917231,0.10406641333102021,0.0,0.0,0.0,0.41111754802501826,0.10406641333102021,0.0,0.0,0.06240108885948505,0.0,0.0,-0.004415576331636414,0.0,1.2611199785329268,0.0,4.9820930379396,0.0,0.10586832029044907,0.0,86.56010674655056,-1.4377124137304647,0.0,-4.934030568850019,0.0,0.10586832029044907,0.0
sim_raptor_glider_3dof,raptor_glider_3dof,0.019000000000000003,-14.773258546175475,0.0,-0.0035239193872519314,11.87493952235994,0.0,-0.4401062384747725,0.0,0.0,0.0,-42.15928625276241,-0.7358183554014864,-0.03096072714055044,0.0,0.0,0.0,0.0,0.0,-0.01154927572753308,-0.6617247556205288,0.0,0.0,11.883092281087889,0.0035239193872519314,0.03492048629430159,-0.037044811664998276,-2.122511361261401,0.0,0.0,0.025495535937465195,1.4607866056408725,-5.441412963484343,0.0,-16.60787421945767,11.879230352488499,0.0,-0.302932984943072,0.0,14.076875910555588,0.0,0.0,-0.7358183554014864,0.0,-0.16718470598354956,0.34906585039886584,1.0,0.14,0.14,0.75,0.08726646259971647,5.0,0.184,0.175,0.174,0.0,0.0,0.0,0.002787060718197091,0.0,0.0065620407017489045,0.0,6.048088695925902,0.0,-0.518960249217551,0.0,0.14900893354947375,0.0,-3.642811992290212,0.0,-0.034703709622670914,0.0,-0.009118797131527611,0.4317841878855781,0.046747326033132065,0.10384879014952732,0.0,0.0,0.0,0.4055687365484808,0.10384879014952732,0.0,0.0,0.06253710116959917,0.0,0.0,-0.004334501799677062,0.0,1.2574611881329394,0.0,4.9108607292922715,0.0,0.10601295248239413,0.0,86.48984371015204,-1.4384787730076372,0.0,-4.860919723855988,0.0,0.10601295248239413,0.0
sim_raptor_glider_3dof,raptor_glider_3dof,0.02,-14.761381827728384,0.0,-0.0038307738817801923,11.869497696000897,0.0,-0.4564985454977431,0.0,0.0,0.0,-41.35225482555297,-0.7217329998296127,-0.030380384735410472,0.0,0.0,0.0,0.0,0.0,-0.012278052779720801,-0.7034806049168706,0.0,0.0,11.878272874345502,0.0038307738817801923,0.034906323648492464,-0.03844085732494306,-2.2024988855837933,0.0,0.0,0.02616280454522226,1.4990182806669228,-5.442026413079086,0.0,-16.1778885988087,11.874207812821341,0.0,-0.31073347960072234,0.0,14.093393088054619,0.0,0.0,-0.7217329998296127,0.0,-0.16718470598354956,0.34906585039886584,1.0,0.14,0.14,0.75,0.08726646259971647,5.0,0.184,0.175,0.174,0.0,0.0,0.0,0.0027881163852886493,0.0,0.006569358196466727,0.0,6.048062539387775,0.0,-0.5191005342168875,0.0,0.1473882098191323,0.0,-3.641657301544077,0.0,-0.03429782404379153,0.0,-0.008997156596972145,0.4258885086163951,0.04717240300217263,0.1036407964203333,0.0,0.0,0.0,0.4001645632573357,0.1036407964203333,0.0,0.0,0.06266129598753224,0.0,0.0,-0.004253253862957466,0.0,1.253924956041326,0.0,4.84149437019675,0.0,0.10613734334613933,0.0,86.41970284116242,-1.439063969614584,0.0,-4.789727593860342,0.0,0.10613734334613933,0.0
sim_raptor_glider_3dof,raptor_glider_3dof,0.02,-14.761381827728384,0.0,-0.0038307738817801923,11.869497696000897,0.0,-0.4564985454977431,0.0,0.0,0.0,-41.35225482555297,-0.7217329998296127,-0.030380384735410472,0.0,0.0,0.0,0.0,0.0,-0.012278052779720801,-0.7034806049168706,0.0,0.0,11.878272874345502,0.0038307738817801923,0.034906323648492464,-0.03844085732494306,-2.2024988855837933,0.0,0.0,0.02616280454522226,1.4990182806669228,-5.456041861995084,0.0,-16.1437673447456,11.874207812821341,0.0,-0.31073347960072234,0.0,14.476948667420947,0.0,0.0,-0.7217329998296127,0.0,-0.16993538952411225,0.3490658503988659,1.0,0.14,0.14,0.75,0.08726646259971647,5.0,0.184,0.175,0.174,0.0,0.0,0.0,0.002984072947151873,0.0,0.006784395071094557,0.0,6.047038965336978,0.0,-0.5190748476596861,0.0,0.1473666813114988,0.0,-3.6377127973246046,0.0,-0.034341643965372946,0.0,-0.009091169575363437,0.4251214083408206,0.04889452443012067,0.1039889326460583,0.0,0.0,0.0,0.39940181650204676,0.1039889326460583,0.0,0.0,0.06436664043767136,0.0,0.0,-0.004253253862957466,0.0,1.2581369721258817,0.0,4.832266081485831,0.0,0.10902590041434716,0.0,86.41970284116242,-1.4429182180664837,0.0,-4.78034424899299,0.0,0.10902590041434716,0.0
sim_raptor_glider_3dof,raptor_glider_3dof,0.021,-14.749510140647239,0.0,-0.0041452801869749974,11.864042050554465,0.0,-0.4724283834127274,0.0,0.0,0.0,-40.52245709831973,-0.7072502973638268,-0.029782861335206728,0.0,0.0,0.0,0.0,0.0,-0.012992527712885032,-0.7444170031550725,0.0,0.0,11.873444418313438,0.0041452801869749974,0.03489213440980763,-0.03979916095108968,-2.28032395065931,0.0,0.0,0.026806633238204647,1.5359069475042375,-5.455188032826015,0.0,-15.717260979643656,11.86917857140194,0.0,-0.3182489512183379,0.0,14.48829838392241,0.0,0.0,-0.7072502973638268,0.0,-0.16993538952411225,0.3490658503988659,1.0,0.14,0.14,0.75,0.08726646259971647,5.0,0.184,0.175,0.174,0.0,0.0,0.0,0.002985627291856921,0.0,0.006791689710981775,0.0,6.047002276437968,0.0,-0.5192088175565333,0.0,0.1457894392728232,0.0,-3.636574123343329,0.0,-0.03394706500196853,0.0,-0.008974246236761744,0.4193811812632879,0.04930644372859199,0.10379154464975915,0.0,0.0,0.0,0.3941675970222915,0.10379154464975915,0.0,0.0,0.06446950532769494,0.0,0.0,-0.004169600586928942,0.0,1.2547281192389084,0.0,4.7650622152856394,0.0,0.10911137512931968,0.0,86.34945880314675,-1.4433299389905472,0.0,-4.711364903715826,0.0,0.10911137512931968,0.0
sim_raptor_glider_3dof,raptor_glider_3dof,0.022,-14.737643473458919,0.0,-0.004467184989260426,11.85858778841922,0.0,-0.48793526113752483,0.0,0.0,0.0,-39.69207470536198,-0.6927573905561247,-0.02918440733862956,0.0,0.0,0.0,0.0,0.0,-0.013692532324515255,-0.7845243130411786,0.0,0.0,11.868621872597794,0.004467184989260426,0.03487796253959209,-0.04112295579586687,-2.356171808206219,0.0,0.0,0.027430423471351613,1.5716474951650403,-5.45314661964594,0.0,-15.297635441043411,11.86415701007425,0.0,-0.3255204986061756,0.0,14.497095705222117,0.0,0.0,-0.6927573905561247,0.0,-0.16993538952411225,0.3490658503988659,1.0,0.14,0.14,0.75,0.08726646259971647,5.0,0.184,0.175,0.174,0.0,0.0,0.0,0.0029870878082163136,0.0,0.006798733739469137,0.0,6.046958210923832,0.0,-0.519337174622714,0.0,0.1442517730853854,0.0,-3.635457940595401,0.0,-0.033562724351213415,0.0,-0.00886151752605565,0.4137825631271923,0.049707269282883305,0.10360305409309548,0.0,0.0,0.0,0.38907579830497424,0.10360305409309548,0.0,0.0,0.06456108523899412,0.0,0.0,-0.0040858170274081385,0.0,1.2514322822322557,0.0,4.69968784700701,0.0,0.10917762775602777,0.0,86.27932925522126,-1.4435848728625056,0.0,-4.644266500876211,0.0,0.10917762775602777,0.0
sim_raptor_glider_3dof,raptor_glider_3dof,0.023,-14.725781823028338,0.0,-0.004796217559026042,11.85313625188367,0.0,-0.5030266491334954,0.0,0.0,0.0,-38.86127472088052,-0.6782571954014055,-0.028585145388743217,0.0,0.0,0.0,0.0,0.0,-0.01437803948310436,-0.8238009800543395,0.0,0.0,11.863805241804053,0.004796217559026042,0.03486380805137986,-0.04241282471538638,-2.4300758534197864,0.0,0.0,0.028034785232282016,1.6062748733654468,-5.449982710835312,0.0,-14.88481945799277,11.859143373130056,0.0,-0.33255566602122255,0.0,14.503411716461025,0.0,0.0,-0.6782571954014055,0.0,-0.16993538952411225,0.3490658503988659,1.0,0.14,0.14,0.75,0.08726646259971647,5.0,0.184,0.175,0.174,0.0,0.0,0.0,0.002988458515936878,0.0,0.00680552883431656,0.0,6.0469073764978525,0.0,-0.519460146163111,0.0,0.14275305145102218,0.0,-3.6343642597646952,0.0,-0.03318843556192586,0.0,-0.008752837457000187,0.4083236844800141,0.050097232814493416,0.1034231041633345,0.0,0.0,0.0,0.3841244427686904,0.1034231041633345,0.0,0.0,0.06464166912103705,0.0,0.0,-0.004001920354424051,0.0,1.2482448829444839,0.0,4.6361146668222375,0.0,0.109225193636668,0.0,86.20931415957047,-1.4436941225868682,0.0,-4.57901973921597,0.0,0.109225193636668,0.0
sim_raptor_glider_3dof,raptor_glider_3dof,0.024,-14.713925183523148,0.0,-0.005132201402291718,11.84768826028774,0.0,-0.5177076750490311,0.0,0.0,0.0,-38.03016329576915,-0.6637515645822698,-0.02798515478589375,0.0,0.0,0.0,0.0,0.0,-0.015049044534432735,-0.8622467375274147,0.0,0.0,11.858993985569121,0.005132201402291718,0.034849669357222134,-0.04366915580141278,-2.5020583223201864,0.0,0.0,0.028620111266980042,1.6398115847927717,-5.4457559328354055,0.0,-14.478763703762874,11.854137402248186,0.0,-0.33935939413135663,0.0,14.507297169014404,0.0,0.0,-0.6637515645822698,0.0,-0.16993538952411225,0.3490658503988659,1.0,0.14,0.14,0.75,0.08726646259971647,5.0,0.184,0.175,0.174,0.0,0.0,0.0,0.0029897431595943755,0.0,0.006812076401110486,0.0,6.046850361221239,0.0,-0.5195779330335211,0.0,0.14129286647080308,0.0,-3.633293233032857,0.0,-0.032824069569016005,0.0,-0.008648081082582441,0.40300344371280056,0.05047650390646845,0.10325137513283292,0.0,0.0,0.0,0.37931235764717264,0.10325137513283292,0.0,0.0,0.06471146219772353,0.0,0.0,-0.003917921670025125,0.0,1.2451616908288485,0.0,4.574323741379808,0.0,0.10925445497984748,0.0,86.1394055614927,-1.4436679938026535,0.0,-4.515604948501203,0.0,0.10925445497984748,0.0
sim_raptor_glider_3dof,raptor_glider_3dof,0.025,-14.702073545817772,0.0,-0.005474869418538241,11.842245035197143,0.0,-0.531986192999632,0.0,0.0,0.0,-37.19890141603872,-0.6492433078346567,-0.027384553856280157,0.0,0.0,0.0,0.0,0.0,-0.015705542187575985,-0.8998612823127663,0.0,0.0,11.854188153694611,0.005474869418538241,0.03483554660346942,-0.04489256600158751,-2.5721545634034535,0.0,0.0,0.029187023814011524,1.6722932810906874,-5.440527251679147,0.0,-14.079384973152031,11.849139325242291,0.0,-0.3459393504507072,0.0,14.508823117059022,0.0,0.0,-0.6492433078346567,0.0,-0.16993538952411225,0.3490658503988659,1.0,0.14,0.14,0.75,0.08726646259971647,5.0,0.184,0.175,0.174,0.0,0.0,0.0,0.002990945650041876,0.0,0.006818379719436624,0.0,6.046787716993734,0.0,-0.5196907501291914,0.0,0.13987054155777132,0.0,-3.6322447952496515,0.0,-0.0324694317495922,0.0,-0.00854710872210079,0.39781971821568146,0.050845318195595055,0.10308752541990833,0.0,0.0,0.0,0.3746373164705903,0.10308752541990833,0.0,0.0,0.06477075464565409,0.0,0.0,-0.003833837539879222,0.0,1.2421783499189905,0.0,4.514283970790172,0.0,0.1092659468945715,0.0,86.06960408914674,-1.443516579881874,0.0,-4.453989975914482,0.0,0.1092659468945715,0.0
sim_raptor_glider_3dof,raptor_glider_3dof,0.026000000000000002,-14.690226902254375,0.0,-0.005824008161672722,11.83680751533491,0.0,-0.5458686410071517,0.0,0.0,0.0,-36.36761825354745,-0.634734679632793,-0.026783438311450247,0.0,0.0,0.0,0.0,0.0,-0.016347531235858713,-0.936644545272987,0.0,0.0,11.84938752545143,0.005824008161672722,0.034821439141471774,-0.04608355473028138,-2.640393191005264,0.0,0.0,0.02973602349442267,1.703748645732277,-5.434353745925063,0.0,-13.686613869643727,11.844149113022707,0.0,-0.35230174113587315,0.0,14.508048588242852,0.0,0.0,-0.634734679632793,0.0,-0.16993538952411225,0.3490658503988659,1.0,0.14,0.14,0.75,0.08726646259971647,5.0,0.184,0.175,0.174,0.0,0.0,0.0,0.0029920696943966005,0.0,0.006824442046353708,0.0,6.046719974315783,0.0,-0.519798793707941,0.0,0.13848553408458855,0.0,-3.6312189587030272,0.0,-0.03212436239423325,0.0,-0.008449794932903995,0.39277083448609457,0.05120387283206352,0.10293123962060333,0.0,0.0,0.0,0.37009756128747645,0.10293123962060333,0.0,0.0,0.06481978688867428,0.0,0.0,-0.0037496813636030348,0.0,1.2392907768369537,0.0,4.455969790357125,0.0,0.10926011391805693,0.0,85.99990644273683,-1.4432493255914955,0.0,-4.394148357339356,0.0,0.10926011391805693,0.0
sim_raptor_glider_3dof,raptor_glider_3dof,0.027,-14.67838524497126,0.0,-0.006179402953785757,11.831376620098231,0.0,-0.5593615935026792,0.0,0.0,0.0,-35.53644406235578,-0.6202279533388974,-0.026181904649629145,0.0,0.0,0.0,0.0,0.0,-0.016975012348988967,-0.9725965647795215,0.0,0.0,11.844591935516094,0.006179402953785757,0.03480734648539802,-0.04724263366784035,-2.7068035222499005,0.0,0.0,0.030267621318851384,1.734206957470379,-5.427290650410641,0.0,-13.300377272918581,11.839166763222625,0.0,-0.35845288602211317,0.0,14.50503280291893,0.0,0.0,-0.6202279533388974,0.0,-0.16993538952411225,0.3490658503988659,1.0,0.14,0.14,0.75,0.08726646259971647,5.0,0.184,0.175,0.174,0.0,0.0,0.0,0.0029931189299212983,0.0,0.006830267230171713,0.0,6.046647637870306,0.0,-0.5199022539982764,0.0,0.1371372847082405,0.0,-3.6302157037955207,0.0,-0.03178869901139275,0.0,-0.008356017424105211,0.38785502251097,0.051552365866842906,0.10278221028821849,0.0,0.0,0.0,0.3656912372443224,0.10278221028821849,0.0,0.0,0.0648588004648534,0.0,0.0,-0.00366546665094808,0.0,1.236495008852016,0.0,4.399354600037766,0.0,0.10923740203878246,0.0,85.9303101316767,-1.4428752152123596,0.0,-4.336052573149372,0.0,0.10923740203878246,0.0
sim_raptor_glider_3dof,raptor_glider_3dof,0.028,-14.66654856611296,0.0,-0.006540845602303054,11.82595321279456,0.0,-0.5724715487352267,0.0,0.0,0.0,-34.70550562729991,-0.6057253417658034,-0.025580046920396407,0.0,0.0,0.0,0.0,0.0,-0.01758798851747205,-1.0077175121757023,0.0,0.0,11.839801225751946,0.006540845602303054,0.03479326817053673,-0.04837030899299219,-2.7714145590421437,0.0,0.0,0.03078232047552014,1.7636970468664412,-5.41939113867601,0.0,-12.92060090823149,11.834192259423077,0.0,-0.36439900154667426,0.0,14.499833539258097,0.0,0.0,-0.6057253417658034,0.0,-0.16993538952411225,0.3490658503988659,1.0,0.14,0.14,0.75,0.08726646259971647,5.0,0.184,0.175,0.174,0.0,0.0,0.0,0.0029940969028965456,0.0,0.006835859553719525,0.0,6.046571188101178,0.0,-0.5200013137836423,0.0,0.1358252381588907,0.0,-3.6292349949689884,0.0,-0.03146228144842371,0.0,-0.008265658380533066,0.38307049451206504,0.051890991032455765,0.10264014020127052,0.0,0.0,0.0,0.3614164740541847,0.10264014020127052,0.0,0.0,0.06488803123635896,0.0,0.0,-0.0035812065688554974,0.0,1.233787220522774,0.0,4.3444117096883526,0.0,0.10919824638415274,0.0,85.86081277359624,-1.4424027666182635,0.0,-4.279675018930125,0.0,0.10919824638415274,0.0
sim_raptor_glider_3dof,raptor_glider_3dof,0.029,-14.654716857847857,0.0,-0.006908134486889704,11.820538101060421,0.0,-0.5852049254391087,0.0,0.0,0.0,-33.87492624569428,-0.5912289968576069,-0.02497795671215872,0.0,0.0,0.0,0.0,0.0,-0.018186465061630543,-1.0420076922935588,0.0,0.0,11.835015243056484,0.006908134486889704,0.03477920374697018,-0.049467081104190895,-2.8342549721014825,0.0,0.0,0.031280616042560355,1.7922472798079239,-5.41070637508271,0.0,-12.547209543781696,11.829225570418057,0.0,-0.37014619753126293,0.0,14.492507149164062,0.0,0.0,-0.5912289968576069,0.0,-0.16993538952411225,0.3490658503988659,1.0,0.14,0.14,0.75,0.08726646259971647,5.0,0.184,0.175,0.174,0.0,0.0,0.0,0.002995007066230389,0.0,0.0068412236741070415,0.0,6.04649108204123,0.0,-0.5200961486346534,0.0,0.13454884369801692,0.0,-3.628276781740629,0.0,-0.031144951940146923,0.0,-0.00817860432515883,0.3784154494239355,0.05221993780057492,0.10250474220764078,0.0,0.0,0.0,0.3572713904728604,0.10250474220764078,0.0,0.0,0.06490770945574163,0.0,0.0,-0.003496913939702221,0.0,1.2311637207993529,0.0,4.2911143909685165,0.0,0.10914307134035456,0.0,85.79141206291158,-1.4418400481216889,0.0,-4.224988059086328,0.0,0.10914307134035456,0.0
sim_raptor_glider_3dof,raptor_glider_3dof,0.03,-14.642890112380064,0.0,-0.0072810736552379384,11.8151320457938,0.0,-0.5975680711951016,0.0,0.0,0.0,-33.04482623532612,-0.5767410185558434,-0.024375723508370452,0.0,0.0,0.0,0.0,0.0,-0.01877044928468166,-1.075467523576614,0.0,0.0,11.830233846347054,0.0072810736552379384,0.03476515280010301,-0.05053344529101877,-2.8953531394306196,0.0,0.0,0.03176299600633711,1.8198856158540055,-5.40128559090243,0.0,-12.180127120394417,11.82426665807634,0.0,-0.37570048969840447,0.0,14.483108699425367,0.0,0.0,-0.5767410185558434,0.0,-0.16993538952411225,0.3490658503988659,1.0,0.14,0.14,0.75,0.08726646259971647,5.0,0.184,0.175,0.174,0.0,0.0,0.0,0.0029958527782767454,0.0,0.006846364571623752,0.0,6.046407754054567,0.0,-0.5201869272161944,0.0,0.13330755446385653,0.0,-3.627340998884569,0.0,-0.03083655488375679,0.0,-0.008094745911396715,0.3738880731214311,0.0525393917176625,0.10237573894696599,0.0,0.0,0.0,0.3532540942129929,0.10237573894696599,0.0,0.0,0.06491806029397662,0.0,0.0,-0.0034126012911718634,0.0,1.2286209505816912,0.0,4.2394358809334305,0.0,0.10907229161537245,0.0,85.72210587190538,-1.44119469734241,0.0,-4.171964030658245,0.0,0.10907229161537245,0.0
sim_raptor_glider_3dof,raptor_glider_3dof,0.03,-14.642890112380064,0.0,-0.0072810736552379384,11.8151320457938,0.0,-0.5975680711951016,0.0,0.0,0.0,-33.04482623532612,-0.5767410185558434,-0.024375723508370452,0.0,0.0,0.0,0.0,0.0,-0.01877044928468166,-1.075467523576614,0.0,0.0,11.830233846347054,0.0072810736552379384,0.03476515280010301,-0.05053344529101877,-2.8953531394306196,0.0,0.0,0.03176299600633711,1.8198856158540055,-5.404984690888569,0.0,-12.171159801202563,11.82426665807634,0.0,-0.37570048969840447,0.0,14.583921625541228,0.0,0.0,-0.5767410185558434,0.0,-0.17066521034958398,0.3490658503988659,1.0,0.14,0.14,0.75,0.08726646259971647,5.0,0.184,0.175,0.174,0.0,0.0,0.0,0.0030397336246458053,0.0,0.006905581819640618,0.0,6.046128561636436,0.0,-0.5201808769931756,0.0,0.13330246917787925,0.0,-3.626268578294642,0.0,-0.030845679164831233,0.0,-0.008120488270596042,0.373686181897601,0.05299492817889422,0.10247077336157767,0.0,0.0,0.0,0.3530531557615694,0.10247077336157767,0.0,0.0,0.06536993701131848,0.0,0.0,-0.0034126012911718634,0.0,1.229761467602806,0.0,4.237024399524498,0.0,0.109831513761951,0.0,85.72210587190538,-1.4422119498385984,0.0,-4.169498017880485,0.0,0.109831513761951,0.0
sim_raptor_glider_3dof,raptor_glider_3dof,0.031,-14.631068336901686,0.0,-0.0076594686184143015,11.809732173990632,0.0,-0.6095573569801372,0.0,0.0,0.0,-32.20957657901827,-0.5621631619771204,-0.02376920236994311,0.0,0.0,0.0,0.0,0.0,-0.019339861204719692,-1.1080924233992342,0.0,0.0,11.825452811323467,0.0076594686184143015,0.03475110291611116,-0.051569070846930264,-2.954690112940238,0.0,0.0,0.03222920964221057,1.8465976895410037,-5.394809477398911,0.0,-11.80943561022653,11.81931166420326,0.0,-0.38105902071315256,0.0,14.571847946805516,0.0,0.0,-0.5621631619771204,0.0,-0.17066521034958398,0.3490658503988659,1.0,0.14,0.14,0.75,0.08726646259971647,5.0,0.184,0.175,0.174,0.0,0.0,0.0,0.003040607970759052,0.0,0.006910547598133283,0.0,6.0460419706728015,0.0,-0.5202676583729069,0.0,0.13209674019110834,0.0,-3.6253541297453737,0.0,-0.030546315228839854,0.0,-0.008039806642329768,0.3692883412216311,0.053304595269729436,0.10234817185552943,0.0,0.0,0.0,0.34916899790229833,0.10234817185552943,0.0,0.0,0.06536864390589718,0.0,0.0,-0.0033276883317920353,0.0,1.2272975209912558,0.0,4.187023937637044,0.0,0.10974058688739234,0.0,85.65283292600057,-1.441491208643216,0.0,-4.1181952060072655,0.0,0.10974058688739234,0.0
sim_raptor_glider_3dof,raptor_glider_3dof,0.032,-14.619251498900228,0.0,-0.008043116754271721,11.804342773585244,0.0,-0.6211890105427916,0.0,0.0,0.0,-31.375073219815263,-0.5475983307400749,-0.023162733030222586,0.0,0.0,0.0,0.0,0.0,-0.019894741959140403,-1.1398847487605759,0.0,0.0,11.820676127155895,0.008043116754271721,0.034737065817849175,-0.052575273507594104,-3.01234127873111,0.0,0.0,0.0326805315484537,1.8724565299705338,-5.3839908256289535,0.0,-11.453871799324213,11.814364346574758,0.0,-0.3862372192015377,0.0,14.557814226122556,0.0,0.0,-0.5475983307400749,0.0,-0.17066521034958398,0.3490658503988659,1.0,0.14,0.14,0.75,0.08726646259971647,5.0,0.184,0.175,0.174,0.0,0.0,0.0,0.0030414223717657655,0.0,0.006915300339476632,0.0,6.045952984160765,0.0,-0.5203507044606224,0.0,0.13092502267803624,0.0,-3.624461988129877,0.0,-0.030255575746141714,0.0,-0.007962111226800545,0.3650144698748259,0.05360513707693296,0.10223142841707059,0.0,0.0,0.0,0.34540875859087083,0.10223142841707059,0.0,0.0,0.06535847943422686,0.0,0.0,-0.0032427826242311625,0.0,1.2249074444844348,0.0,4.138587969856014,0.0,0.10963489893692897,0.0,85.58365098333664,-1.4407020819668859,0.0,-4.068499249453857,0.0,0.10963489893692897,0.0
sim_raptor_glider_3dof,raptor_glider_3dof,0.033,-14.607439604416749,0.0,-0.008431855554419899,11.79896449162345,0.0,-0.6324681485655718,0.0,0.0,0.0,-30.54142876077851,-0.5330484901388766,-0.022556399662289034,0.0,0.0,0.0,0.0,0.0,-0.020435065378222247,-1.1708430002460442,0.0,0.0,11.81590364862294,0.008431855554419899,0.03472304107855929,-0.05355244711376912,-3.0683292022165176,0.0,0.0,0.033117381735546875,1.8974862019704732,-5.372572365464938,0.0,-11.10440700858655,11.809424629825289,0.0,-0.39124026635407616,0.0,14.541865849845044,0.0,0.0,-0.5330484901388766,0.0,-0.17066521034958398,0.3490658503988659,1.0,0.14,0.14,0.75,0.08726646259971647,5.0,0.184,0.175,0.174,0.0,0.0,0.0,0.0030421804351522283,0.0,0.006919846691711264,0.0,6.045861982990091,0.0,-0.5204301572393767,0.0,0.12978688218399537,0.0,-3.6235921227996535,0.0,-0.029973335795576952,0.0,-0.007887311520408188,0.3608630967724329,0.05389670079361278,0.10212030298003213,0.0,0.0,0.0,0.34177089368564195,0.10212030298003213,0.0,0.0,0.06533962769251156,0.0,0.0,-0.0031578959527204654,0.0,1.2225881581804323,0.0,4.091694161076977,0.0,0.10951479171518302,0.0,85.5145578655324,-1.4398509841256117,0.0,-4.020387052987181,0.0,0.10951479171518302,0.0
sim_raptor_glider_3dof,raptor_glider_3dof,0.034,-14.595632646825367,0.0,-0.008825533033319882,11.79359783866598,0.0,-0.64340010590916,0.0,0.0,0.0,-29.708738635021508,-0.5185153057955713,-0.021950273997426644,0.0,0.0,0.0,0.0,0.0,-0.02096084533408875,-1.2009679726697693,0.0,0.0,11.811135156134265,0.008825533033319882,0.034709028052937976,-0.05450100514682388,-3.1226775741337858,0.0,0.0,0.03354015981273513,1.9217096014640165,-5.360595626854075,0.0,-10.760972031871582,11.80449235600613,0.0,-0.3960730910622806,0.0,14.524046660360556,0.0,0.0,-0.5185153057955713,0.0,-0.17066521034958398,0.3490658503988659,1.0,0.14,0.14,0.75,0.08726646259971647,5.0,0.184,0.175,0.174,0.0,0.0,0.0,0.003042886779991251,0.0,0.006924196165814077,0.0,6.045769332212832,0.0,-0.5205061545467059,0.0,0.12868185942904634,0.0,-3.6227444682958914,0.0,-0.029699464382871063,0.0,-0.007815319721287885,0.3568326439079378,0.05417943458413689,0.10201455924503622,0.0,0.0,0.0,0.33825376283651426,0.10201455924503622,0.0,0.0,0.0653122673023828,0.0,0.0,-0.0030730383596397305,0.0,1.220336621771798,0.0,4.04631904795095,0.0,0.10938059539917536,0.0,85.44555032165151,-1.4389439477491583,0.0,-3.9738343729305274,0.0,0.10938059539917536,0.0
sim_raptor_glider_3dof,raptor_glider_3dof,0.034999999999999996,-14.583830617500801,0.0,-0.00922395452666199,11.788243446101244,0.0,-0.6539918275464306,0.0,0.0,0.0,-28.877125747007785,-0.5040009227977129,-0.021344447673961205,0.0,0.0,0.0,0.0,0.0,-0.02147210186208324,-1.2302608139723656,0.0,0.0,11.8063706893798,0.00922395452666199,0.03469502685762085,-0.05542149731756773,-3.175417890592244,0.0,0.0,0.03394939545548449,1.9451570766198785,-5.34810180633095,0.0,-10.423476759185913,11.799567558965201,0.0,-0.4007421570816574,0.0,14.504411859710409,0.0,0.0,-0.5040009227977129,0.0,-0.17066521034958398,0.3490658503988659,1.0,0.14,0.14,0.75,0.08726646259971647,5.0,0.184,0.175,0.174,0.0,0.0,0.0,0.003043545879274689,0.0,0.006928358671722319,0.0,6.045675363477831,0.0,-0.520578839860336,0.0,0.12760933495268773,0.0,-3.621918821899119,0.0,-0.02943379186101694,0.0,-0.007746040558667323,0.3529209320818657,0.05445352581541596,0.10191395416052104,0.0,0.0,0.0,0.33485510787893447,0.10191395416052104,0.0,0.0,0.0652766257636865,0.0,0.0,-0.002988222674354569,0.0,1.218149777543566,0.0,4.00243203722207,0.0,0.1092327257154791,0.0,85.37662885586947,-1.437986695557728,0.0,-3.9288096615272687,0.0,0.1092327257154791,0.0
sim_raptor_glider_3dof,raptor_glider_3dof,0.036,-14.572033509272176,0.0,-0.009626965151439184,11.782901790568282,0.0,-0.6642490000769498,0.0,0.0,0.0,-28.046688918443014,-0.489507065909438,-0.02073899497950087,0.0,0.0,0.0,0.0,0.0,-0.021968854142535122,-1.2587226231057576,0.0,0.0,11.801610116432437,0.009626965151439184,0.03468103710491768,-0.05631436839263249,-3.2265756348427637,0.0,0.0,0.03434551425009737,1.9678530117370057,-5.335129539164668,0.0,-10.091845543696705,11.794650126330207,0.0,-0.4052526838150321,0.0,14.483007005440204,0.0,0.0,-0.489507065909438,0.0,-0.17066521034958398,0.3490658503988659,1.0,0.14,0.14,0.75,0.08726646259971647,5.0,0.184,0.175,0.174,0.0,0.0,0.0,0.0030441617368981225,0.0,0.006932343037399364,0.0,6.045580398192691,0.0,-0.5206483431311939,0.0,0.12656881018802946,0.0,-3.6211150596776003,0.0,-0.029176179672028315,0.0,-0.007679389378438848,0.349126207524603,0.05471912963492627,0.10181826505408549,0.0,0.0,0.0,0.3315731109109228,0.10181826505408549,0.0,0.0,0.0652328898209251,0.0,0.0,-0.0029034592971301223,0.0,1.216024785521192,0.0,3.960007773319162,0.0,0.10907152575797018,0.0,85.30779149043109,-1.4369845859256194,0.0,-3.885286751780649,0.0,0.10907152575797018,0.0
sim_raptor_glider_3dof,raptor_glider_3dof,0.037,-14.5602413148324,0.0,-0.010034409259771218,11.777573330997086,0.0,-0.6741774408088858,0.0,0.0,0.0,-27.2175281007864,-0.4750354796128017,-0.020133991065827216,0.0,0.0,0.0,0.0,0.0,-0.022451123559562587,-1.286354625289666,0.0,0.0,11.796853342680388,0.010034409259771218,0.034667058516795635,-0.05718007495500178,-3.2761769671633028,0.0,0.0,0.034728951395439196,1.989822341873637,-5.321716077310204,0.0,-9.766000251805265,11.789739964885431,0.0,-0.4096099963290835,0.0,14.459878269564223,0.0,0.0,-0.4750354796128017,0.0,-0.17066521034958398,0.3490658503988659,1.0,0.14,0.14,0.75,0.08726646259971647,5.0,0.184,0.175,0.174,0.0,0.0,0.0,0.0030447380080558546,0.0,0.006936157591978167,0.0,6.045484737323473,0.0,-0.5207147904288459,0.0,0.12555977153647668,0.0,-3.6203330330075243,0.0,-0.02892648657655744,0.0,-0.007615283137372252,0.34544664772296124,0.05497640380969786,0.10172727616093828,0.0,0.0,0.0,0.32840588472638005,0.10172727616093828,0.0,0.0,0.06518124922156282,0.0,0.0,-0.0028187587492158103,0.0,1.2139589049315185,0.0,3.919020180632601,0.0,0.10889734324808817,0.0,85.23903678996484,-1.4359426643220659,0.0,-3.8432387466624767,0.0,0.10889734324808817,0.0
sim_raptor_glider_3dof,raptor_glider_3dof,0.038,-14.54845402695264,0.0,-0.010446135941518947,11.772258492748378,0.0,-0.6837829013528218,0.0,0.0,0.0,-26.389740921517365,-0.4605878678287605,-0.0195295094507512,0.0,0.0,0.0,0.0,0.0,-0.02291893313257383,-1.3131581394390273,0.0,0.0,11.792100282658252,0.010446135941518947,0.03465309084210012,-0.058019068874463904,-3.3242477777856214,0.0,0.0,0.035100135741890075,2.011089638346594,-5.307897181560363,0.0,-9.445862777861766,11.784836979496468,0.0,-0.41381933613755295,0.0,14.435071007987592,0.0,0.0,-0.4605878678287605,0.0,-0.17066521034958398,0.3490658503988659,1.0,0.14,0.14,0.75,0.08726646259971647,5.0,0.184,0.175,0.174,0.0,0.0,0.0,0.00304527801525168,0.0,0.006939810128432099,0.0,6.045388663732803,0.0,-0.5207783027838848,0.0,0.1245817096925037,0.0,-3.619572583844565,0.0,-0.028684573381260205,0.0,-0.0075536415802667616,0.3418804333970622,0.05522550380670082,0.10164078023891807,0.0,0.0,0.0,0.32535154689120543,0.10164078023891807,0.0,0.0,0.06512189058444295,0.0,0.0,-0.0027341313231051684,0.0,1.2119495072501647,0.0,3.8794433298426694,0.0,0.10871051976115456,0.0,85.17036345348092,-1.4348656719028006,0.0,-3.8026389075456035,0.0,0.10871051976115456,0.0
sim_raptor_glider_3dof,raptor_glider_3dof,0.039,-14.536671638514358,0.0,-0.010862000176572437,11.766957661368766,0.0,-0.6930710450771803,0.0,0.0,0.0,-25.563422090401072,-0.4461658835545502,-0.01892562159237406,0.0,0.0,0.0,0.0,0.0,-0.023372307790569112,-1.339134593880344,0.0,0.0,11.787350850719998,0.010862000176572437,0.03463913382914572,-0.05883179542659262,-3.370813579120816,0.0,0.0,0.03545948763602351,2.0316789852404717,-5.293707142733626,0.0,-9.131355339860269,11.779941065485122,0.0,-0.41788583568564025,0.0,14.408629575091226,0.0,0.0,-0.4461658835545502,0.0,-0.17066521034958398,0.3490658503988659,1.0,0.14,0.14,0.75,0.08726646259971647,5.0,0.184,0.175,0.174,0.0,0.0,0.0,0.003045784773806044,0.0,0.006943307932105578,0.0,6.045292443142666,0.0,-0.520838996220195,0.0,0.12363412190380402,0.0,-3.6188335469507376,0.0,-0.02845030343757816,0.0,-0.007494387295385191,0.3384257581162825,0.055466582246419954,0.10155857851380337,0.0,0.0,0.0,0.3224082297091006,0.10155857851380337,0.0,0.0,0.06505499665057295,0.0,0.0,-0.0026495870229323684,0.0,1.2099940731802843,0.0,3.841251549612199,0.0,0.10851138933001203,0.0,85.1017701794232,-1.4337580572212547,0.0,-3.763460768744995,0.0,0.10851138933001203,0.0
sim_raptor_glider_3dof,raptor_glider_3dof,0.04,-14.524894142499196,0.0,-0.01128186163561234,11.761671191564227,0.0,-0.7020474634993306,0.0,0.0,0.0,-24.73866399708356,-0.431771139293689,-0.01832239731466418,0.0,0.0,0.0,0.0,0.0,-0.02381127396441112,-1.3642855029904972,0.0,0.0,11.782604969168649,0.01128186163561234,0.03462518724960665,-0.05961869463200131,-3.4158995824929317,0.0,0.0,0.03580742066759019,2.0516140795024347,-5.279178851883304,0.0,-8.822400422340152,11.775052116818234,0.0,-0.42181453945086794,0.0,14.38059748749938,0.0,0.0,-0.431771139293689,0.0,-0.17066521034958398,0.3490658503988659,1.0,0.14,0.14,0.75,0.08726646259971647,5.0,0.184,0.175,0.174,0.0,0.0,0.0,0.003046261017681438,0.0,0.006946657821097322,0.0,6.0451963247162,0.0,-0.5208969820294039,0.0,0.12271651047441388,0.0,-3.6181157491965172,0.0,-0.02822354221427483,0.0,-0.007437445533174716,0.3350808241069008,0.05569978931468571,0.10148048028991109,0.0,0.0,0.0,0.31957407565997714,0.10148048028991109,0.0,0.0,0.06498074691489686,0.0,0.0,-0.0025651356240529856,0.0,1.2080901892464908,0.0,3.8044193764100322,0.0,0.10830027967835783,0.0,85.03325578301215,-1.4326239904620353,0.0,-3.72567808578658,0.0,0.10830027967835783,0.0
sim_raptor_glider_3dof,raptor_glider_3dof,0.04,-14.524894142499196,0.0,-0.01128186163561234,11.761671191564227,0.0,-0.7020474634993306,0.0,0.0,0.0,-24.73866399708356,-0.431771139293689,-0.01832239731466418,0.0,0.0,0.0,0.0,0.0,-0.02381127396441112,-1.3642855029904972,0.0,0.0,11.782604969168649,0.01128186163561234,0.03462518724960665,-0.05961869463200131,-3.4158995824929317,0.0,0.0,0.03580742066759019,2.0516140795024347,-5.273870800388941,0.0,-8.835256209051963,11.775052116818234,0.0,-0.42181453945086794,0.0,14.235893417443348,0.0,0.0,-0.431771139293689,0.0,-0.16960604320458011,0.34906585039886595,1.0,0.14,0.14,0.75,0.08726646259971647,5.0,0.184,0.175,0.174,0.0,0.0,0.0,0.0029800313785375947,0.0,0.006860300831371706,0.0,6.045607854607564,0.0,-0.520906405981068,0.0,0.12272337365984418,0.0,-3.619693304642214,0.0,-0.028209672531975177,0.0,-0.007399861448525496,0.3353710174965194,0.055041877032812665,0.10134038650162887,0.0,0.0,0.0,0.319863213419611,0.10134038650162887,0.0,0.0,0.06432688127669649,0.0,0.0,-0.0025651356240529856,0.0,1.2064224209159249,0.0,3.807861461920038,0.0,0.10721051332676586,0.0,85.03325578301215,-1.4311642763010854,0.0,-3.729213427132328,0.0,0.10721051332676586,0.0
sim_raptor_glider_3dof,raptor_glider_3dof,0.041,-14.513121553424298,0.0,-0.011705600133214897,11.756404759038912,0.0,-0.710730061999541,0.0,0.0,0.0,-23.923836559207345,-0.4175497176671595,-0.0177260304839767,0.0,0.0,0.0,0.0,0.0,-0.02423586201905787,-1.3886126065534259,0.0,0.0,11.777868656059239,0.011705600133214897,0.03461126878856046,-0.06038122352439266,-3.4595892697837414,0.0,0.0,0.03614536150533479,2.0709766632303155,-5.259139112040775,0.0,-8.533060284752406,11.770175676602916,0.0,-0.42562262779104554,0.0,14.207227637168376,0.0,0.0,-0.4175497176671595,0.0,-0.16960604320458011,0.34906585039886595,1.0,0.14,0.14,0.75,0.08726646259971647,5.0,0.184,0.175,0.174,0.0,0.0,0.0,0.0029803755539617384,0.0,0.006863457149922399,0.0,6.045512489829048,0.0,-0.5209619061575684,0.0,0.12183400839363423,0.0,-3.6189974688563944,0.0,-0.02798997154081253,0.0,-0.007345062417627926,0.33212944888379975,0.05526792920590322,0.10126592466333995,0.0,0.0,0.0,0.3171266374677637,0.10126592466333995,0.0,0.0,0.06424899352951684,0.0,0.0,-0.002481644267756738,0.0,1.2045669824079919,0.0,3.7722489376925448,0.0,0.10699463133551505,0.0,84.96490703014948,-1.4300064143831008,0.0,-3.69268538029619,0.0,0.10699463133551505,0.0
sim_raptor_glider_3dof,raptor_glider_3dof,0.042,-14.501353812602629,0.0,-0.012133062953909974,11.751153124215373,0.0,-0.7191146949432321,0.0,0.0,0.0,-23.110686514448503,-0.40335757207337847,-0.01713042218294036,0.0,0.0,0.0,0.0,0.0,-0.02464631567044018,-1.4121298684633663,0.0,0.0,11.773135762966467,0.012133062953909974,0.03459736037781441,-0.061119027054565664,-3.5018622981725076,0.0,0.0,0.036472711384125486,2.0897324297091413,-5.244130135969441,0.0,-8.23620594574936,11.765305973000206,0.0,-0.42930298732442385,0.0,14.177063310080698,0.0,0.0,-0.40335757207337847,0.0,-0.16960604320458011,0.34906585039886595,1.0,0.14,0.14,0.75,0.08726646259971647,5.0,0.184,0.175,0.174,0.0,0.0,0.0,0.0029806971580598565,0.0,0.006866480228621962,0.0,6.0454176219159645,0.0,-0.5210149217385157,0.0,0.1209733633573062,0.0,-3.6183222196281695,0.0,-0.02777744864572162,0.0,-0.007292419023183723,0.3289930531732996,0.05548646581517202,0.10119519575163172,0.0,0.0,0.0,0.31449457531431446,0.10119519575163172,0.0,0.0,0.06416414002543223,0.0,0.0,-0.0023982591056116507,0.0,1.2027584247961007,0.0,3.737934367362141,0.0,0.10676746378821773,0.0,84.89663508109678,-1.4288293528761562,0.0,-3.6574892813902418,0.0,0.10676746378821773,0.0
sim_raptor_glider_3dof,raptor_glider_3dof,0.043000000000000003,-14.48959093817388,0.0,-0.012564144348819263,11.745916622371801,0.0,-0.7272051171883476,0.0,0.0,0.0,-22.299306710075182,-0.3891963230028765,-0.016535642815882365,0.0,0.0,0.0,0.0,0.0,-0.025042592612743157,-1.4348348647756761,0.0,0.0,11.768406203992754,0.012564144348819263,0.03458346176494388,-0.06183239190285862,-3.542735093232684,0.0,0.0,0.036789799290115464,2.1079002284570083,-5.228872920870597,0.0,-7.94464413161627,11.760442896116489,0.0,-0.432859641637193,0.0,14.145433076058719,0.0,0.0,-0.3891963230028765,0.0,-0.16960604320458011,0.34906585039886595,1.0,0.14,0.14,0.75,0.08726646259971647,5.0,0.184,0.175,0.174,0.0,0.0,0.0,0.002980998136634483,0.0,0.0068693751092019474,0.0,6.045323471182582,0.0,-0.5210655405419219,0.0,0.12014111677842554,0.0,-3.617667489082809,0.0,-0.027572015109663024,0.0,-0.00724187403094139,0.32596065162659205,0.05569758896088081,0.1011280456134686,0.0,0.0,0.0,0.3119657882789597,0.1011280456134686,0.0,0.0,0.06407245300053528,0.0,0.0,-0.0023149899942235316,0.0,1.200994789667028,0.0,3.7048999019466664,0.0,0.10652925649579822,0.0,84.82843863804308,-1.4276365498836958,0.0,-3.6236067184074967,0.0,0.10652925649579822,0.0
sim_raptor_glider_3dof,raptor_glider_3dof,0.044,-14.477832924345487,0.0,-0.012998736745964282,11.740695461727764,0.0,-0.7350059759374072,0.0,0.0,0.0,-21.489770491004904,-0.375067250565954,-0.015941748467224414,0.0,0.0,0.0,0.0,0.0,-0.02542472066831461,-1.4567291895934609,0.0,0.0,11.763679854097468,0.012998736745964282,0.03456957258249572,-0.06252168157435127,-3.582228482271172,0.0,0.0,0.03709696090603666,2.125499292677711,-5.213394749186798,0.0,-7.658307551900595,11.755586285359463,0.0,-0.4362966847996155,0.0,14.112372605887296,0.0,0.0,-0.375067250565954,0.0,-0.16960604320458011,0.34906585039886595,1.0,0.14,0.14,0.75,0.08726646259971647,5.0,0.184,0.175,0.174,0.0,0.0,0.0,0.002981280274563798,0.0,0.006872146830901553,0.0,6.045230234729117,0.0,-0.521113852515556,0.0,0.11933685647426616,0.0,-3.617033129140893,0.0,-0.027373560500227344,0.0,-0.007193366523403883,0.3230307301289407,0.05590142278380571,0.10106431873205098,0.0,0.0,0.0,0.30953871455294907,0.10106431873205098,0.0,0.0,0.06397407931173915,0.0,0.0,-0.002231844785411418,0.0,1.1992741006397354,0.0,3.673123889479508,0.0,0.10628027809493723,0.0,84.7603158411383,-1.4264312024803807,0.0,-3.591015385725978,0.0,0.10628027809493723,0.0
