name,vehicle,t,north,east,down,u,v,w,p_rad,p_deg,p_hat_div_b,q_deg,q_rad,q_hat_div_c,r_rad,r_deg,r_hat_div_b,phi_rad,phi_deg,theta_rad,theta_deg,psi_rad,psi_deg,speed,altitude,mach,alpha_rad,alpha_deg,beta_rad,beta_deg,gamma_rad,gamma_deg,u_dot,v_dot,w_dot,north_dot,east_dot,down_dot,p_rad_dot,q_rad_dot,r_rad_dot,phi_rad_dot,theta_rad_dot,psi_rad_dot,del_tail_alt_rad,del_tail_splay_rad,DIM_b,DIM_c_bar,DIM_S,DIM_wing_position,DIM_wing_incidence_rad,DIM_wing_incidence_deg,DIM_empennage_length,DIM_nose_length,DIM_tail_length,CDp,CDq,CDr,CYp,CYq,CYr,CLp,CLq,CLr,Clp,Clq,Clr,Cmp,Cmq,Cmr,Cnp,Cnq,Cnr,CL_0,Cm_0,CD_0,Cl_0,CY_0,Cn_0,CL,CD,CY,Cl,Cm,Cn,p_hat,q_hat,r_hat,drag_force_wind,side_force_wind,lift_force_wind,roll_moment_wind,pitch_moment_wind,yaw_moment_wind,qbar,X_total,Y_total,Z_total,L_total,M_total,N_total
sim_raptor_glider_3dof,raptor_glider_3dof,0.0,-15.0,0.0,0.0,12.0,0.0,0.0,0.0,0.0,0.0,0.0,0.0,0.0,0.0,0.0,0.0,0.0,0.0,0.0,0.0,0.0,0.0,12.0,-0.0,0.035264039495724236,0.0,0.0,0.0,0.0,0.0,0.0,-7.487178041450953,0.0,-25.024054441263395,12.0,0.0,0.0,0.0,-89.41363838472799,0.0,0.0,0.0,0.0,0.4363323129985824,0.3490658503988659,1.0,0.14,0.14,0.75,0.08726646259971647,5.0,0.184,0.175,0.174,0.0,0.0,0.0,-0.053153656886407115,0.0,0.055671173493162154,0.0,6.024209384397437,0.0,-0.5269202128147928,0.0,0.19813275846416445,0.0,-3.4552995296441478,0.0,-0.03588346466142729,0.0,-0.029845922084054996,0.7757079658211316,-0.38952171953159265,0.1667455120831285,0.0,0.0,0.0,0.7757079658211316,0.1667455120831285,0.0,0.0,-0.38952171953159265,0.0,0.0,0.0,0.0,2.0589739613990123,0.0,9.578443721347433,0.0,-0.6733741106753866,0.0,88.20001620075907,-2.0589739613990123,0.0,-9.578443721347433,0.0,-0.6733741106753866,0.0
sim_raptor_glider_3dof,raptor_glider_3dof,0.001,-14.988003746590733,0.0,-0.000012415174634177188,11.992502827180262,0.0,-0.02526770405029525,0.0,0.0,0.0,-5.103039651887635,-0.0890648437852645,-0.0037133468875430262,0.0,0.0,0.0,0.0,0.0,-0.000044590487564095195,-0.0025548467438532376,0.0,0.0,11.992529446150822,0.000012415174634177188,0.03524208600355821,-0.002106955238988487,-0.12071964281701804,0.0,0.0,0.002062364751424392,0.1181647960731648,-7.507675599275719,0.0,-25.508550485583747,11.99250394195709,0.0,-0.024732952477174667,0.0,-88.71856693472195,0.0,0.0,-0.0890648437852645,0.0,0.4363323129985824,0.3490658503988659,1.0,0.14,0.14,0.75,0.08726646259971647,5.0,0.184,0.175,0.174,0.0,0.0,0.0,-0.053430186057496054,0.0,0.0554080780660455,0.0,6.0240249874908525,0.0,-0.5274002219771142,0.0,0.1957017793236076,0.0,-3.453669819760639,0.0,-0.03525814560644711,0.0,-0.029499655008724115,0.7671435812705255,-0.38877083359862435,0.165760584735996,0.0,0.0,0.0,0.7640118800492363,0.165760584735996,0.0,0.0,-0.386975379228011,0.0,0.0,-0.0005198685642560238,0.0,2.0442643995802876,0.0,9.422277857722193,0.0,-0.6681395275853911,0.0,88.09023322213056,-2.064112165078258,0.0,-9.417949773357746,0.0,-0.6681395275853911,0.0
sim_raptor_glider_3dof,raptor_glider_3dof,0.002,-14.976014997218163,0.0,-0.000049270492086499364,11.984983638081903,0.0,-0.051011581957007696,0.0,0.0,0.0,-10.166686259086081,-0.1774421492383174,-0.0074026192836820276,0.0,0.0,0.0,0.0,0.0,-0.00017790069037163533,-0.010192958730758345,0.0,0.0,11.985092197667264,0.000049270492086499364,0.03522023038486956,-0.004256265628603735,-0.24386605700559036,0.0,0.0,0.0040783649382321,0.233673098274832,-7.5312069778045,0.0,-25.97647568606275,11.984992523423195,0.0,-0.04887944429772272,0.0,-88.03854836579413,0.0,0.0,-0.1774421492383174,0.0,0.4363323129985824,0.3490658503988659,1.0,0.14,0.14,0.75,0.08726646259971647,5.0,0.184,0.175,0.174,0.0,0.0,0.0,-0.05371000072613438,0.0,0.05518325282971427,0.0,6.023796383437123,0.0,-0.5278990096560925,0.0,0.1932332307470952,0.0,-3.4519868033346692,0.0,-0.03462545852853912,0.0,-0.029153229463314653,0.758374006898808,-0.388063512765844,0.16478068235403653,0.0,0.0,0.0,0.7521311449211472,0.16478068235403653,0.0,0.0,-0.38448598859501065,0.0,0.0,-0.001036366699715484,0.0,2.0296598650783366,0.0,9.264255835778041,0.0,-0.6630183077427956,0.0,87.98100758981425,-2.069072495287059,0.0,-9.25553317577674,0.0,-0.6630183077427956,0.0
sim_raptor_glider_3dof,raptor_glider_3dof,0.003,-14.964033765483153,0.0,-0.00010997650410396534,11.977439408842296,0.0,-0.07721526894416839,0.0,0.0,0.0,-15.191799193026208,-0.2651469152201249,-0.011068367643203196,0.0,0.0,0.0,0.0,0.0,-0.0003992506169425001,-0.022875375318799577,0.0,0.0,11.97768829909372,0.00010997650410396534,0.035198472770559576,-0.006446636600632963,-0.3693650692708328,0.0,0.0,0.006047385983690463,0.3464896939520332,-7.557751963901034,0.0,-26.428240508352538,11.977469282477013,0.0,-0.07243326284374174,0.0,-87.37346069275941,0.0,0.0,-0.2651469152201249,0.0,0.4363323129985824,0.3490658503988659,1.0,0.14,0.14,0.75,0.08726646259971647,5.0,0.184,0.175,0.174,0.0,0.0,0.0,-0.0539933342342998,0.0,0.0549956890768542,0.0,6.023523849844041,0.0,-0.5284156910211553,0.0,0.1907277346999606,0.0,-3.450251759098094,0.0,-0.033984927296559594,0.0,-0.028807107836358457,0.7494038488665931,-0.387399686775176,0.16380724554970857,0.0,0.0,0.0,0.7400699681597184,0.16380724554970857,0.0,0.0,-0.38205327508479314,0.0,0.0,-0.0015495714700484477,0.0,2.015177614704102,0.0,9.104435082498677,0.0,-0.6580095324771711,0.0,87.87233904709669,-2.0738283182350847,0.0,-9.09125486919839,0.0,-0.6580095324771711,0.0
sim_raptor_glider_3dof,raptor_glider_3dof,0.004,-14.95206006146447,0.0,-0.00019393750269191865,11.969867139046595,0.0,-0.10386280993339823,0.0,0.0,0.0,-20.179227607931264,-0.35219396226773997,-0.01471113674262299,0.0,0.0,0.0,0.0,0.0,-0.0007079751977142588,-0.040563990828967035,0.0,0.0,11.970317740549529,0.00019393750269191865,0.03517681313159225,-0.008676805031272569,-0.49714430794979647,0.0,0.0,0.00796882983355831,0.4565803171208294,-7.587282867422961,0.0,-26.864252771312174,11.96993767151242,0.0,-0.09538841555743248,0.0,-86.72306067972036,0.0,0.0,-0.35219396226773997,0.0,0.4363323129985824,0.3490658503988659,1.0,0.14,0.14,0.75,0.08726646259971647,5.0,0.184,0.175,0.174,0.0,0.0,0.0,-0.054280487125545326,0.0,0.054843901706905056,0.0,6.023207997132767,0.0,-0.5289492506950555,0.0,0.18818569052618506,0.0,-3.4484661334741316,0.0,-0.033335929119057396,0.0,-0.028461722112779208,0.7402377623774763,-0.38677875516894367,0.16284159593212236,0.0,0.0,0.0,0.727832609270965,0.16284159593212236,0.0,0.0,-0.37967643521108574,0.0,0.0,-0.0020595591439672187,0.0,2.000833340210975,0.0,8.942873240625298,0.0,-0.6531113699789741,0.0,87.76422654166264,-2.078352616244555,0.0,-8.925175978978858,0.0,-0.6531113699789741,0.0
sim_raptor_glider_3dof,raptor_glider_3dof,0.005,-14.94009389182307,0.0,-0.0003005518855746,11.962263859629724,0.0,-0.13093865674169305,0.0,0.0,0.0,-25.12980322664479,-0.4385978066832464,-0.01833146045868009,0.0,0.0,0.0,0.0,0.0,-0.0011034240774344013,-0.06322154265010774,0.0,0.0,11.962980463882431,0.0003005518855746,0.035155251297077285,-0.010945539172903748,-0.6271331991024985,0.0,0.0,0.009842115095469346,0.5639116564523908,-7.619764933048298,0.0,-27.284916404279006,11.96240105817221,0.0,-0.11773912974501546,0.0,-86.08698535636344,0.0,0.0,-0.4385978066832464,0.0,0.4363323129985824,0.3490658503988659,1.0,0.14,0.14,0.75,0.08726646259971647,5.0,0.184,0.175,0.174,0.0,0.0,0.0,-0.05457182683161292,0.0,0.05472593032343835,0.0,6.022849768199583,0.0,-0.529498543215881,0.0,0.18560727572066893,0.0,-3.446631540314975,0.0,-0.03267769521599154,0.0,-0.028117473742245224,0.7308804509402165,-0.3861995880247053,0.16188493539638366,0.0,0.0,0.0,0.7154233824078116,0.16188493539638366,0.0,0.0,-0.37735413745313595,0.0,0.0,-0.002566404464215213,0.0,1.9866411722863777,0.0,8.779628219436473,0.0,-0.6483210867187731,0.0,87.65666831823584,-2.0826180146542357,0.0,-8.757357879177162,0.0,-0.6483210867187731,0.0
sim_raptor_glider_3dof,raptor_glider_3dof,0.006,-14.92813525992473,0.0,-0.0004292124397594923,11.954626639550906,0.0,-0.15842765930436845,0.0,0.0,0.0,-30.04433358782197,-0.5243725426750143,-0.02192985685369944,0.0,0.0,0.0,0.0,0.0,-0.0015849610904613313,-0.09081158117588696,0.0,0.0,11.955676367913814,0.0004292124397594923,0.03513378696968413,-0.01325163807797221,-0.7592629335026617,0.0,0.0,0.01166667698751088,0.6684513523267749,-7.65515672930522,0.0,-27.690630360815796,11.954862725505864,0.0,-0.13947985016959272,0.0,-85.46475387002384,0.0,0.0,-0.5243725426750143,0.0,0.4363323129985824,0.3490658503988659,1.0,0.14,0.14,0.75,0.08726646259971647,5.0,0.184,0.175,0.174,0.0,0.0,0.0,-0.05486778710977721,0.0,0.05463934182373924,0.0,6.022450437086101,0.0,-0.5300622937916623,0.0,0.18299244783751023,0.0,-3.444749760445701,0.0,-0.03200931203935526,0.0,-0.02777473367758559,0.7213366671206888,-0.3856605284654083,0.16093834608201854,0.0,0.0,0.0,0.7028466604815571,0.16093834608201854,0.0,0.0,-0.37508452678533377,0.0,0.0,-0.003070179959517922,0.0,1.9726136922696764,0.0,8.61475825857789,0.0,-0.6436350613951496,0.0,87.54966199755503,-2.0865968109073574,0.0,-8.58786227075033,0.0,-0.6436350613951496,0.0
sim_raptor_glider_3dof,raptor_glider_3dof,0.007,-14.916184165882276,0.0,-0.0005793064854676666,11.946952592434664,0.0,-0.18631506489291877,0.0,0.0,0.0,-34.923595341205655,-0.6095317253381911,-0.025506823267053384,0.0,0.0,0.0,0.0,0.0,-0.00215196395569408,-0.12329845232554847,0.0,0.0,11.94840531406963,0.0005793064854676666,0.03511241974218939,-0.015593931681301612,-0.8934664713539263,0.0,0.0,0.013441967725607532,0.7701680190283778,-7.693410528399182,0.0,-28.081787400130356,11.947325872576652,0.0,-0.1606052419691676,0.0,-84.85576962259707,0.0,0.0,-0.6095317253381911,0.0,0.4363323129985824,0.3490658503988659,1.0,0.14,0.14,0.75,0.08726646259971647,5.0,0.184,0.175,0.174,0.0,0.0,0.0,-0.05516886739682447,0.0,0.05458123429015566,0.0,6.022011606567932,0.0,-0.5306390995932566,0.0,0.18034094615955698,0.0,-3.442822740123928,0.0,-0.031329722669104235,0.0,-0.027433842397851762,0.7116112100401488,-0.3851593965008954,0.16000279048359145,0.0,0.0,0.0,0.6901068760336266,0.16000279048359145,0.0,0.0,-0.3728652305367967,0.0,0.0,-0.0035709552573874744,0.0,1.9587619456352325,0.0,8.448321951825605,0.0,-0.6390488010277785,0.0,87.4432046606849,-2.090261009781001,0.0,-8.416751218395161,0.0,-0.6390488010277785,0.0
sim_raptor_glider_3dof,raptor_glider_3dof,0.008,-14.904240606651282,0.0,-0.0007502161182813057,11.939238882633015,0.0,-0.21458650998107728,0.0,0.0,0.0,-39.768327695755914,-0.6940882563029905,-0.02906283149078703,0.0,0.0,0.0,0.0,0.0,-0.0028038236298313884,-0.16064726048838937,0.0,0.0,11.941167131685324,0.0007502161182813057,0.035091149113066274,-0.017971280258754233,-1.0296785112733915,0.0,0.0,0.015167456628922844,0.8690312507850021,-7.734472659743328,0.0,-28.458772998507442,11.939793614875626,0.0,-0.18111019026309105,0.0,-84.25932271685393,0.0,0.0,-0.6940882563029905,0.0,0.4363323129985824,0.3490658503988659,1.0,0.14,0.14,0.75,0.08726646259971647,5.0,0.184,0.175,0.174,0.0,0.0,0.0,-0.05547563193059443,0.0,0.054548242134604644,0.0,6.021535204946049,0.0,-0.5312274312413525,0.0,0.17765229454057654,0.0,-3.440852589499303,0.0,-0.030637728722487007,0.0,-0.027095110104628704,0.7017089249620452,-0.38469349440195466,0.1590791122370665,0.0,0.0,0.0,0.6772085241452388,0.1590791122370665,0.0,0.0,-0.37069336574289874,0.0,0.0,-0.004068796408710184,0.0,1.9450954633896698,0.0,8.280378294547667,0.0,-0.634556959380627,0.0,87.33729292823296,-2.0935823601488033,0.0,-8.244087212286694,0.0,-0.634556959380627,0.0
sim_raptor_glider_3dof,raptor_glider_3dof,0.009000000000000001,-14.892304576113405,0.0,-0.0009413184291606596,11.931482731000013,0.0,-0.24322801242629782,0.0,0.0,0.0,-44.57922600410458,-0.7780542717623,-0.03259832301805841,0.0,0.0,0.0,0.0,0.0,-0.0035399435977275817,-0.2028238278641469,0.0,0.0,11.933961623290918,0.0009413184291606596,0.03506997450201568,-0.020382573901800104,-1.1678354601866447,0.0,0.0,0.01684263030407252,0.9650116323224979,-7.778283843616755,0.0,-28.821964269395146,11.932268984822977,0.0,-0.20098980076623565,0.0,-83.67459264387269,0.0,0.0,-0.7780542717623,0.0,0.4363323129985824,0.3490658503988659,1.0,0.14,0.14,0.75,0.08726646259971647,5.0,0.184,0.175,0.174,0.0,0.0,0.0,-0.055788708736007504,0.0,0.0545365423304085,0.0,6.021023482042527,0.0,-0.531825634606743,0.0,0.17492580464570248,0.0,-3.4388415806117196,0.0,-0.029931992558805562,0.0,-0.02675881698380161,0.6916347024036031,-0.3842596132891834,0.15816803727685969,0.0,0.0,0.0,0.6641561648322319,0.15816803727685969,0.0,0.0,-0.3685655476778038,0.0,0.0,-0.004563765222528177,0.0,1.9316222876944662,0.0,8.110986723910683,0.0,-0.6301533572010052,0.0,87.23192303897322,-2.096532395351765,0.0,-8.0699332223392,0.0,-0.6301533572010052,0.0
sim_raptor_glider_3dof,raptor_glider_3dof,0.01,-14.88037606515921,0.0,-0.0011519857253842968,11.923681420343334,0.0,-0.27222596258209436,0.0,0.0,0.0,-49.356935507178044,-0.8614410332947542,-0.03611370438294382,0.0,0.0,0.0,0.0,0.0,-0.004359739052099519,-0.24979464746366856,0.0,0.0,11.926788569792983,0.0011519857253842968,0.03504889526519434,-0.022826731891997996,-1.3078753974881616,0.0,0.0,0.01846699283989848,1.058080750024493,-7.824779502619,0.0,-29.171728920063018,11.924754932281528,0.0,-0.22023940058925584,0.0,-83.10065118556057,0.0,0.0,-0.8614410332947542,0.0,0.4363323129985824,0.3490658503988659,1.0,0.14,0.14,0.75,0.08726646259971647,5.0,0.184,0.175,0.174,0.0,0.0,0.0,-0.05610878847395166,0.0,0.05454186162840115,0.0,6.020479004498773,0.0,-0.5324319328652451,0.0,0.17216057968112747,0.0,-3.4367921450673697,0.0,-0.02921103978427371,0.0,-0.02642521354291394,0.6813934773072167,-0.3838540408424605,0.15727017538811427,0.0,0.0,0.0,0.6509544254455103,0.15727017538811427,0.0,0.0,-0.3664778994650984,0.0,0.0,-0.0050559186136121355,0.0,1.9183490019530007,0.0,7.940207158086878,0.0,-0.6258310040784566,0.0,87.12709092666549,-2.099082476605616,0.0,-7.894352751368246,0.0,-0.6258310040784566,0.0
sim_raptor_glider_3dof,raptor_glider_3dof,0.01,-14.88037606515921,0.0,-0.0011519857253842968,11.923681420343334,0.0,-0.27222596258209436,0.0,0.0,0.0,-49.356935507178044,-0.8614410332947542,-0.03611370438294382,0.0,0.0,0.0,0.0,0.0,-0.004359739052099519,-0.24979464746366856,0.0,0.0,11.926788569792983,0.0011519857253842968,0.03504889526519434,-0.022826731891997996,-1.3078753974881616,0.0,0.0,0.01846699283989848,1.058080750024493,-5.251137365308173,0.0,-21.087307318221164,11.924754932281528,0.0,-0.22023940058925584,0.0,10.502173687119539,0.0,0.0,-0.8614410332947542,0.0,-0.1434327811818853,0.3490658503988659,1.0,0.14,0.14,0.75,0.08726646259971647,5.0,0.184,0.175,0.174,0.0,0.0,0.0,-0.0005682119883025139,0.0,0.005030094313650933,0.0,6.0561279370450105,0.0,-0.5177943916426518,0.0,0.16570988727238578,0.0,-3.6860910546933026,0.0,-0.0379770211427441,0.0,-0.00976464019016727,0.49803304916497454,0.027678518606480094,0.10342249386321656,0.0,0.0,0.0,0.4674137592016522,0.10342249386321656,0.0,0.0,0.04631509498137315,0.0,0.0,-0.0050559186136121355,0.0,1.2615261437356162,0.0,5.7014161537671635,0.0,0.07909187003769726,0.0,87.12709092666549,-1.3913308888451383,0.0,-5.671136810861736,0.0,0.07909187003769726,0.0
sim_raptor_glider_3dof,raptor_glider_3dof,0.011,-14.868453794928518,0.0,-0.0013775824942910105,11.918421827327865,0.0,-0.2930804821588673,0.0,0.0,0.0,-48.753310829322466,-0.8509057952198843,-0.035686295340696686,0.0,0.0,0.0,0.0,0.0,-0.005215913950376444,-0.29884985565997896,0.0,0.0,11.922024787054745,0.0013775824942910105,0.035034896079975154,-0.02458558969238527,-1.4086505262140159,0.0,0.0,0.019369675742008825,1.1098006705540369,-5.2678217015041495,0.0,-20.622687734098424,11.919788378487416,0.0,-0.23091131462993203,0.0,10.567887856353552,0.0,0.0,-0.8509057952198843,0.0,-0.1434327811818853,0.3490658503988659,1.0,0.14,0.14,0.75,0.08726646259971647,5.0,0.184,0.175,0.174,0.0,0.0,0.0,-0.000584007163265905,0.0,0.0050349716974523425,0.0,6.056229147068708,0.0,-0.5180065405691545,0.0,0.16367413587280727,0.0,-3.6848035327391297,0.0,-0.03745850223534367,0.0,-0.009591282167442006,0.49068522189212055,0.028232571508182945,0.10309794940198597,0.0,0.0,0.0,0.4604278084130684,0.10309794940198597,0.0,0.0,0.046642149708030906,0.0,0.0,-0.004996081347697537,0.0,1.2565630263317729,0.0,5.611717436697012,0.0,0.07958676344619861,0.0,87.05750444257815,-1.3941367636292534,0.0,-5.5791312865687885,0.0,0.07958676344619861,0.0
sim_raptor_glider_3dof,raptor_glider_3dof,0.012,-14.856536487316536,0.0,-0.0016136902406258683,11.913146458327686,0.0,-0.3134736360514342,0.0,0.0,0.0,-48.14601364263312,-0.8403064597740565,-0.035255828715753564,0.0,0.0,0.0,0.0,0.0,-0.006061524708904132,-0.34729978323447164,0.0,0.0,11.917270000216694,0.0016136902406258683,0.035020923330737586,-0.026307182472961804,-1.5072905265812433,0.0,0.0,0.02024565776405767,1.1599907433467715,-5.2826475008158935,0.0,-20.164576907793254,11.914827718651736,0.0,-0.24125648781548964,0.0,10.630301906597737,0.0,0.0,-0.8403064597740565,0.0,-0.1434327811818853,0.3490658503988659,1.0,0.14,0.14,0.75,0.08726646259971647,5.0,0.184,0.175,0.174,0.0,0.0,0.0,-0.0005994826888420021,0.0,0.005039707140505414,0.0,6.056314293591429,0.0,-0.518210426502735,0.0,0.1616804739843504,0.0,-3.6835321482328256,0.0,-0.036951371022465374,0.0,-0.00942372276816102,0.48348005959883245,0.028773827840515916,0.10278639762341624,0.0,0.0,0.0,0.4535872064851243,0.10278639762341624,0.0,0.0,0.04695506482870547,0.0,0.0,-0.0049358160202055,0.0,1.2517667511831725,0.0,5.523935043626678,0.0,0.08005680365858756,0.0,86.98807708621231,-1.3966360283559167,0.0,-5.489097026822604,0.0,0.08005680365858756,0.0
sim_raptor_glider_3dof,raptor_glider_3dof,0.013000000000000001,-14.844624137439911,0.0,-0.0018599916259024738,11.907857108260405,0.0,-0.3334117539397713,0.0,0.0,0.0,-47.535227909281,-0.8296462377028538,-0.03482243765644734,0.0,0.0,0.0,0.0,0.0,-0.0068965072148233116,-0.39514075679089794,0.0,0.0,11.912523842931567,0.0018599916259024738,0.03500697594090795,-0.027991994241559123,-1.6038231301958414,0.0,0.0,0.02109548702673581,1.2086823734049437,-5.295692497993479,0.0,-19.712964446247415,11.909873288093143,0.0,-0.25128185365935746,0.0,10.68949254059124,0.0,0.0,-0.8296462377028538,0.0,-0.1434327811818853,0.3490658503988659,1.0,0.14,0.14,0.75,0.08726646259971647,5.0,0.184,0.175,0.174,0.0,0.0,0.0,-0.0006146485646499985,0.0,0.005044290435527222,0.0,6.056384273987715,0.0,-0.5184063538190937,0.0,0.15972842457385095,0.0,-3.682277271333805,0.0,-0.03645545429716866,0.0,-0.009261775868236904,0.47641698168159596,0.029302524907464753,0.1024874094315602,0.0,0.0,0.0,0.44689125274897645,0.1024874094315602,0.0,0.0,0.047254146807533176,0.0,0.0,-0.0048751412719026275,0.0,1.2471316181346546,0.0,5.438055408583952,0.0,0.08050256832319264,0.0,86.91880335432626,-1.3988451914517113,0.0,-5.401019906474402,0.0,0.08050256832319264,0.0
sim_raptor_glider_3dof,raptor_glider_3dof,0.014,-14.832716738599641,0.0,-0.002116155970050296,11.902555603407531,0.0,-0.35290161115528146,0.0,0.0,0.0,-46.92114448953399,-0.8189284601463621,-0.034386260146101306,0.0,0.0,0.0,0.0,0.0,-0.007720799358862441,-0.44236921773012977,0.0,0.0,11.907786084716337,0.002116155970050296,0.03499305323317269,-0.02964054680411498,-1.6982782343357687,0.0,0.0,0.02191974744525254,1.255909016605639,-5.307033132309425,0.0,-19.26782952139014,11.904925500542982,0.0,-0.2609947621801116,0.0,10.745538465634999,0.0,0.0,-0.8189284601463621,0.0,-0.1434327811818853,0.3490658503988659,1.0,0.14,0.14,0.75,0.08726646259971647,5.0,0.184,0.175,0.174,0.0,0.0,0.0,-0.0006295143288649183,0.0,0.005048713160327133,0.0,6.056439954496617,0.0,-0.5185946210894278,0.0,0.15781746207089994,0.0,-3.681039214254904,0.0,-0.03597056935907584,0.0,-0.009105257419844628,0.46949513741903703,0.029818907006617174,0.10220055826268999,0.0,0.0,0.0,0.4403389726421983,0.10220055826268999,0.0,0.0,0.0475397110907289,0.0,0.0,-0.004814076420454183,0.0,1.2426520055299102,0.0,5.354061824793066,0.0,0.08092465018469717,0.0,86.84967973433697,-1.4007802556269593,0.0,-5.314882567470295,0.0,0.08092465018469717,0.0
sim_raptor_glider_3dof,raptor_glider_3dof,0.015,-14.820814284112371,0.0,-0.002381879903671897,11.897243578837767,0.0,-0.3719495626637715,0.0,0.0,0.0,-46.30393817594158,-0.808156177810078,-0.033947422906440164,0.0,0.0,0.0,0.0,0.0,-0.008534346245138472,-0.4889820207497559,0.0,0.0,11.903056382768346,0.002381879903671897,0.03497915420014795,-0.031253327646388544,-1.7906837698775981,0.0,0.0,0.022718981401250074,1.3017017491278424,-5.3167429469384695,0.0,-18.82914975914103,11.899984621027563,0.0,-0.2704020537452865,0.0,10.798513074364681,0.0,0.0,-0.808156177810078,0.0,-0.1434327811818853,0.3490658503988659,1.0,0.14,0.14,0.75,0.08726646259971647,5.0,0.184,0.175,0.174,0.0,0.0,0.0,-0.00064408847167915,0.0,0.005052968349242389,0.0,6.056482167862376,0.0,-0.5187755129678296,0.0,0.15594709614650384,0.0,-3.679818285760069,0.0,-0.035496545171634294,0.0,-0.008953992232316733,0.4627137152383749,0.030323203026874992,0.10192543296010982,0.0,0.0,0.0,0.43392944063149164,0.10192543296010982,0.0,0.0,0.04781205168605182,0.0,0.0,-0.004752639206901624,0.0,1.2383224742441512,0.0,5.2719381509075145,0.0,0.08132360196304042,0.0,86.78070108151576,-1.4024565336864971,0.0,-5.230668225794134,0.0,0.08132360196304042,0.0
sim_raptor_glider_3dof,raptor_glider_3dof,0.016,-14.808916766945178,0.0,-0.0026568609980931264,11.891922632091676,0.0,-0.39056205105147535,0.0,0.0,0.0,-45.68378301326292,-0.7973324283480943,-0.033506052125442415,0.0,0.0,0.0,0.0,0.0,-0.00933709477535282,-0.5349761235413681,0.0,0.0,11.898334446609566,0.0026568609980931264,0.03496527798821465,-0.03283083222510865,-1.8810681244008232,0.0,0.0,0.02349373744975583,1.346092000859455,-5.32489359390178,0.0,-18.396896972316426,11.895050920888458,0.0,-0.2795106310078531,0.0,10.84848902718323,0.0,0.0,-0.7973324283480943,0.0,-0.1434327811818853,0.3490658503988659,1.0,0.14,0.14,0.75,0.08726646259971647,5.0,0.184,0.175,0.174,0.0,0.0,0.0,-0.0006583788746967253,0.0,0.005057050484245203,0.0,6.056511715969073,0.0,-0.5189493054429988,0.0,0.15411682294323498,0.0,-3.6786147606257207,0.0,-0.0350332098395102,0.0,-0.008807809721999432,0.45607177218808675,0.03081563995601147,0.10166163022176956,0.0,0.0,0.0,0.427661600572581,0.10166163022176956,0.0,0.0,0.04807146006466409,0.0,0.0,-0.004690847297561938,0.0,1.2341377096133728,0.0,5.191666778005433,0.0,0.08169997086371691,0.0,86.71186302197968,-1.4038887762162755,0.0,-5.148358585427887,0.0,0.08169997086371691,0.0
sim_raptor_glider_3dof,raptor_glider_3dof,0.017,-14.797024179797356,0.0,-0.0029408038860643027,11.886594288101158,0.0,-0.40874548780200454,0.0,0.0,0.0,-45.06084881404354,-0.7864601755484418,-0.03306227102081321,0.0,0.0,0.0,0.0,0.0,-0.0101289949387493,-0.5803486606997066,0.0,0.0,11.893619997448951,0.0029408038860643027,0.03495142377809795,-0.034373554106634105,-1.9694595771747132,0.0,0.0,0.024244559167884806,1.3891109164750064,-5.331554616508373,0.0,-17.971038543075352,11.890124641783194,0.0,-0.2883273254092599,0.0,10.895537264571326,0.0,0.0,-0.7864601755484418,0.0,-0.1434327811818853,0.3490658503988659,1.0,0.14,0.14,0.75,0.08726646259971647,5.0,0.184,0.175,0.174,0.0,0.0,0.0,-0.0006723927778539156,0.0,0.0050609553505007706,0.0,6.056529370152222,0.0,-0.5191162649775151,0.0,0.15232613670957865,0.0,-3.67742888780681,0.0,-0.03458039344398316,0.0,-0.008666544701776583,0.4495682815557398,0.031296440001676536,0.10140875635676641,0.0,0.0,0.0,0.42153431538833147,0.10140875635676641,0.0,0.0,0.04831822107845764,0.0,0.0,-0.0046287179429138495,0.0,1.2300925336338673,0.0,5.113229198920672,0.0,0.08205429113948666,0.0,86.64316135906981,-1.40509115398583,0.0,-5.067934424495595,0.0,0.08205429113948666,0.0
sim_raptor_glider_3dof,raptor_glider_3dof,0.018000000000000002,-14.78513651512534,0.0,-0.0032334204356611715,11.881259998758939,0.0,-0.4265062478334542,0.0,0.0,0.0,-44.43530111008254,-0.7755423084860316,-0.03261619980755608,0.0,0.0,0.0,0.0,0.0,-0.010909999844803413,-0.6250969455956187,0.0,0.0,11.888912765158562,0.0032334204356611715,0.03493759077598096,-0.03588198452937094,-2.0558862740866686,0.0,0.0,0.02497198468456753,1.4307893284910498,-5.33679346002138,0.0,-17.551537775275865,11.885205994679447,0.0,-0.29685889170776464,0.0,10.939727027084547,0.0,0.0,-0.7755423084860316,0.0,-0.1434327811818853,0.3490658503988659,1.0,0.14,0.14,0.75,0.08726646259971647,5.0,0.184,0.175,0.174,0.0,0.0,0.0,-0.0006861368278839543,0.0,0.005064679924541658,0.0,6.056535871949513,0.0,-0.5192766487507253,0.0,0.1505745305104737,0.0,-3.676260891608156,0.0,-0.03413792810578194,0.0,-0.00853003726024106,0.4432021406822691,0.03176582066402033,0.10116642733275422,0.0,0.0,0.0,0.41554637490251,0.10116642733275422,0.0,0.0,0.04855261303397576,0.0,0.0,-0.004566267973057853,0.0,1.226181904270308,0.0,5.036606102680992,0.0,0.08238708424097373,0.0,86.57459202894732,-1.4060772680634153,0.0,-4.989375693627278,0.0,0.08238708424097373,0.0
sim_raptor_glider_3dof,raptor_glider_3dof,0.019000000000000003,-14.773253765202732,0.0,-0.0035344288133771656,11.87592115393175,0.0,-0.44385066912029597,0.0,0.0,0.0,-43.80730176631502,-0.7645816522369246,-0.032167956119850946,0.0,0.0,0.0,0.0,0.0,-0.011680065273257746,-0.6692184445949855,0.0,0.0,11.884212496875096,0.0035344288133771656,0.034923778238781907,-0.03735661235733678,-2.140376224981655,0.0,0.0,0.025676547084079036,1.4711577803866693,-5.340675511440805,0.0,-17.138354320955727,11.88029517016687,0.0,-0.3051120131884946,0.0,10.981125974184733,0.0,0.0,-0.7645816522369246,0.0,-0.1434327811818853,0.3490658503988659,1.0,0.14,0.14,0.75,0.08726646259971647,5.0,0.184,0.175,0.174,0.0,0.0,0.0,-0.0006996171272546321,0.0,0.005068222269958552,0.0,6.0565319338583254,0.0,-0.5194307049396385,0.0,0.1488614964755707,0.0,-3.675110972543671,0.0,-0.0337056479355744,0.0,-0.008398132607322707,0.43697217680632905,0.03222399492163778,0.10093426874302185,0.0,0.0,0.0,0.40969650131817276,0.10093426874302185,0.0,0.0,0.04877490811168923,0.0,0.0,-0.004503513856779133,0.0,1.2224009162012657,0.0,4.9617774499447345,0.0,0.08269885971158523,0.0,86.50615122554181,-1.4068601638417721,0.0,-4.912661594503011,0.0,0.08269885971158523,0.0
sim_raptor_glider_3dof,raptor_glider_3dof,0.02,-14.761375922122713,0.0,-0.003843553845762345,11.870579078968287,0.0,-0.4607850475373779,0.0,0.0,0.0,-43.177008807113225,-0.753580964846715,-0.03171765489385087,0.0,0.0,0.0,0.0,0.0,-0.01243914980288018,-0.7127107844360243,0.0,0.0,11.879518951964075,0.003843553845762345,0.034909985459355475,-0.03879792366783258,-2.2229572800375337,0.0,0.0,0.026358773864952396,1.5102464956015094,-5.343264115136741,0.0,-16.731444464269053,11.875392335350371,0.0,-0.3130932953214613,0.0,11.019800187752171,0.0,0.0,-0.753580964846715,0.0,-0.1434327811818853,0.3490658503988659,1.0,0.14,0.14,0.75,0.08726646259971647,5.0,0.184,0.175,0.174,0.0,0.0,0.0,-0.0007128392768237077,0.0,0.005071581438432458,0.0,6.056518240089824,0.0,-0.5195786729556626,0.0,0.14718652646413574,0.0,-3.673979308464634,0.0,-0.03328338909426472,0.0,-0.008270680955836501,0.43087715414355277,0.032671171295117256,0.10071191581841243,0.0,0.0,0.0,0.4039833563879053,0.10071191581841243,0.0,0.0,0.04898537238614148,0.0,0.0,-0.004440471685139122,0.0,1.2187447992934564,0.0,4.888722556788669,0.0,0.0829901152139616,0.0,86.43783532674817,-1.4074523421722294,0.0,-4.837770667112394,0.0,0.0829901152139616,0.0
sim_raptor_glider_3dof,raptor_glider_3dof,0.02,-14.761375922122713,0.0,-0.003843553845762345,11.870579078968287,0.0,-0.4607850475373779,0.0,0.0,0.0,-43.177008807113225,-0.753580964846715,-0.03171765489385087,0.0,0.0,0.0,0.0,0.0,-0.01243914980288018,-0.7127107844360243,0.0,0.0,11.879518951964075,0.003843553845762345,0.034909985459355475,-0.03879792366783258,-2.2229572800375337,0.0,0.0,0.026358773864952396,1.5102464956015094,-5.354133777175288,0.0,-16.703561463198106,11.875392335350371,0.0,-0.3130932953214613,0.0,11.334337615228076,0.0,0.0,-0.753580964846715,0.0,-0.1457583679985135,0.3490658503988659,1.0,0.14,0.14,0.75,0.08726646259971647,5.0,0.184,0.175,0.174,0.0,0.0,0.0,-0.0002591502772315299,0.0,0.0051937600960908605,0.0,6.055721151538474,0.0,-0.519522424003084,0.0,0.1471640730412277,0.0,-3.670909613773724,0.0,-0.033405369594030905,0.0,-0.008330524448486845,0.43025003600279177,0.03408298842967227,0.10098331884822397,0.0,0.0,0.0,0.4033597776962871,0.10098331884822397,0.0,0.0,0.050383558628339487,0.0,0.0,-0.004440471685139122,0.0,1.2220291279491804,0.0,4.8811764458723585,0.0,0.08535889658028264,0.0,86.43783532674817,-1.4104414992328298,0.0,-4.830102841817883,0.0,0.08535889658028264,0.0
sim_raptor_glider_3dof,raptor_glider_3dof,0.021,-14.749502988679291,0.0,-0.004160507760539644,11.865224320413146,0.0,-0.4772862346862872,0.0,0.0,0.0,-42.52662091473287,-0.7422295547095712,-0.03125224441058199,0.0,0.0,0.0,0.0,0.0,-0.013187042765198378,-0.7555618947043937,0.0,0.0,11.874820012258906,0.004160507760539644,0.03489617682640955,-0.04020396402406665,-2.303517458274817,0.0,0.0,0.027016921258868273,1.5479555635704232,-5.355312270645494,0.0,-16.300103919105865,11.870486476969964,0.0,-0.3207820500243222,0.0,11.368256926175722,0.0,0.0,-0.7422295547095712,0.0,-0.1457583679985135,0.3490658503988659,1.0,0.14,0.14,0.75,0.08726646259971647,5.0,0.184,0.175,0.174,0.0,0.0,0.0,-0.00027019084147943774,0.0,0.005197457230221195,0.0,6.055697277934757,0.0,-0.5196638190780873,0.0,0.14552962854469034,0.0,-3.669793057338467,0.0,-0.03299413691016639,0.0,-0.008207859672516688,0.42429961153734924,0.03451784090463679,0.10077162267197538,0.0,0.0,0.0,0.3978040331404374,0.10077162267197538,0.0,0.0,0.05057433864362461,0.0,0.0,-0.004375314217481479,0.0,1.2185028006754823,0.0,4.810137176013021,0.0,0.08561434291102936,0.0,86.36946793769128,-1.4108526536683959,0.0,-4.757274799394435,0.0,0.08561434291102936,0.0
sim_raptor_glider_3dof,raptor_glider_3dof,0.022,-14.737634951604717,0.0,-0.004485024109791516,11.85986892388485,0.0,-0.49338727178249164,0.0,0.0,0.0,-41.87435957387569,-0.7308454467281404,-0.030785072006583064,0.0,0.0,0.0,0.0,0.0,-0.013923582611230287,-0.7977625193252376,0.0,0.0,11.870127290458454,0.004485024109791516,0.034882386465833415,-0.0415774355312676,-2.3822115789189033,0.0,0.0,0.027653852920037317,1.5844490595936658,-5.355313037794022,0.0,-15.902889603872342,11.865588825349736,0.0,-0.3282129178171309,0.0,11.399579867642515,0.0,0.0,-0.7308454467281404,0.0,-0.1457583679985135,0.3490658503988659,1.0,0.14,0.14,0.75,0.08726646259971647,5.0,0.184,0.175,0.174,0.0,0.0,0.0,-0.0002810273987958086,0.0,0.005200963538131967,0.0,6.05566499835455,0.0,-0.5197995759832035,0.0,0.14393248603900072,0.0,-3.6686953710403625,0.0,-0.032592655408765096,0.0,-0.0080893681762554,0.41848241815211706,0.03494204498156739,0.10056902838021023,0.0,0.0,0.0,0.3923830465290245,0.10056902838021023,0.0,0.0,0.05075379214504476,0.0,0.0,-0.004309910080921629,0.0,1.2150921500702545,0.0,4.740838877905369,0.0,0.08585023598321578,0.0,86.30121801064195,-1.4110971837402946,0.0,-4.686235902882141,0.0,0.08585023598321578,0.0
sim_raptor_glider_3dof,raptor_glider_3dof,0.023,-14.72577180728141,0.0,-0.00481682542560395,11.854514178502036,0.0,-0.5090946875783997,0.0,0.0,0.0,-41.22038785786651,-0.7194314870688631,-0.030316256395542647,0.0,0.0,0.0,0.0,0.0,-0.014648720917045797,-0.8393098838117331,0.0,0.0,11.865440733880321,0.00481682542560395,0.0348686142228109,-0.0429188453238897,-2.4590686986336685,0.0,0.0,0.0282701244068439,1.6197588148219353,-5.354194888103802,0.0,-15.511863777883004,11.860699619925532,0.0,-0.33539280720481657,0.0,11.428371822121552,0.0,0.0,-0.7194314870688631,0.0,-0.1457583679985135,0.3490658503988659,1.0,0.14,0.14,0.75,0.08726646259971647,5.0,0.184,0.175,0.174,0.0,0.0,0.0,-0.00029166350751656664,0.0,0.005204280418612915,0.0,6.055624917932711,0.0,-0.5199299129340589,0.0,0.14237210334737807,0.0,-3.667616646026411,0.0,-0.03220075874535289,0.0,-0.007974911359459293,0.4127969343201516,0.0353558064264452,0.1003751943061525,0.0,0.0,0.0,0.3870951914495317,0.1003751943061525,0.0,0.0,0.050922183350654765,0.0,0.0,-0.004244275895375971,0.0,1.2117927681486418,0.0,4.673257738888424,0.0,0.08606706819239741,0.0,86.23308467262021,-1.4111861173572429,0.0,-4.616961484482633,0.0,0.08606706819239741,0.0
sim_raptor_glider_3dof,raptor_glider_3dof,0.024,-14.713913549046985,0.0,-0.005155712524911512,11.849160955439794,0.0,-0.5244134312191367,0.0,0.0,0.0,-40.56482081964885,-0.7079896837844174,-0.029845882190108256,0.0,0.0,0.0,0.0,0.0,-0.015362434636049553,-0.8802026676912342,0.0,0.0,11.860759874256031,0.005155712524911512,0.03485485872125549,-0.044228569596522826,-2.5341103717813884,0.0,0.0,0.028866134960473272,1.653907704090154,-5.3520123448966785,0.0,-15.126984213044375,11.85581870606719,0.0,-0.3423267498008563,0.0,11.454683571822766,0.0,0.0,-0.7079896837844174,0.0,-0.1457583679985135,0.3490658503988659,1.0,0.14,0.14,0.75,0.08726646259971647,5.0,0.184,0.175,0.174,0.0,0.0,0.0,-0.00030210139914199386,0.0,0.005207409644143603,0.0,6.055577620642241,0.0,-0.5200550280685673,0.0,0.14084808777682062,0.0,-3.6665570571151043,0.0,-0.03181831981769342,0.0,-0.007864365954420438,0.40724213723060226,0.03575928768788934,0.10018980645243367,0.0,0.0,0.0,0.38193936935437806,0.10018980645243367,0.0,0.0,0.05107971588368478,0.0,0.0,-0.004178423506615156,0.0,1.2086005100303898,0.0,4.607376068957103,0.0,0.08626522197939726,0.0,86.16506101376602,-1.4111298133388175,0.0,-4.54943316068614,0.0,0.08626522197939726,0.0
sim_raptor_glider_3dof,raptor_glider_3dof,0.025,-14.702060167243724,0.0,-0.00550140675326731,11.843810454734589,0.0,-0.5393505085556788,0.0,0.0,0.0,-39.90781964480649,-0.6965228500939471,-0.029374066823909684,0.0,0.0,0.0,0.0,0.0,-0.016064692986886828,-0.9204391073220276,0.0,0.0,11.856084727209046,0.00550140675326731,0.03484112000707939,-0.04550715711849353,-2.6073680405284,0.0,0.0,0.0294424641316067,1.6869289332063722,-5.348820907730715,0.0,-14.748183554201821,11.850946323352183,0.0,-0.34902191877451766,0.0,11.478581557165333,0.0,0.0,-0.6965228500939471,0.0,-0.1457583679985135,0.3490658503988659,1.0,0.14,0.14,0.75,0.08726646259971647,5.0,0.184,0.175,0.174,0.0,0.0,0.0,-0.0003123444212203859,0.0,0.005210354028383195,0.0,6.055523660176844,0.0,-0.5201751289864798,0.0,0.13935984316008185,0.0,-3.6655166188510395,0.0,-0.0314451620647416,0.0,-0.007757598099662221,0.40181622000867756,0.03615270162341331,0.10001253489080177,0.0,0.0,0.0,0.37691367007798543,0.10001253489080177,0.0,0.0,0.051226659838292776,0.0,0.0,-0.004112369355347356,0.0,1.2055111508491851,0.0,4.543166840862578,0.0,0.08644519770701213,0.0,86.09714716299004,-1.4109383749096314,0.0,-4.48362297488787,0.0,0.08644519770701213,0.0
sim_raptor_glider_3dof,raptor_glider_3dof,0.026000000000000002,-14.69021165355087,0.0,-0.005853679299293107,11.83846362773335,0.0,-0.5539118002027307,0.0,0.0,0.0,-39.24951698939578,-0.6850333012824086,-0.028900907477391716,0.0,0.0,0.0,0.0,0.0,-0.01675547297420794,-0.9600178851676279,0.0,0.0,11.851415077853332,0.005853679299293107,0.03482739744880346,-0.04675506341614202,-2.678867804611455,0.0,0.0,0.029999590441934083,1.7188499194438271,-5.344672747036459,0.0,-14.375404300759367,11.846082486634003,0.0,-0.35548427170900765,0.0,11.500122229826763,0.0,0.0,-0.6850333012824086,0.0,-0.1457583679985135,0.3490658503988659,1.0,0.14,0.14,0.75,0.08726646259971647,5.0,0.184,0.175,0.174,0.0,0.0,0.0,-0.00032239495709597077,0.0,0.0052131167045768876,0.0,6.0554635689335505,0.0,-0.5202904072529881,0.0,0.13790687922845754,0.0,-3.6644954002386787,0.0,-0.03108113707235361,0.0,-0.007654485833056038,0.3965177223038314,0.036536229675712545,0.09984307190488288,0.0,0.0,0.0,0.37201654737644635,0.09984307190488288,0.0,0.0,0.051363243627620125,0.0,0.0,-0.004046127046834841,0.0,1.202520699773124,0.0,4.480607320500798,0.0,0.08660742051282536,0.0,86.02933990243099,-1.410621324368368,0.0,-4.419507379012441,0.0,0.08660742051282536,0.0
sim_raptor_glider_3dof,raptor_glider_3dof,0.027,-14.678367999407612,0.0,-0.006212300139921639,11.833121407648509,0.0,-0.5681032996589968,0.0,0.0,0.0,-38.59004641963798,-0.6735233685201321,-0.028426502003564422,0.0,0.0,0.0,0.0,0.0,-0.017434752960537408,-0.9989377614920106,0.0,0.0,11.846750761589984,0.006212300139921639,0.03481369056272586,-0.047972754192178724,-2.748636346830368,0.0,0.0,0.030538001231641316,1.7496985853383573,-5.3396184475349315,0.0,-14.008585515099705,11.841227231535264,0.0,-0.36171986174463583,0.0,11.519362125897436,0.0,0.0,-0.6735233685201321,0.0,-0.1457583679985135,0.3490658503988659,1.0,0.14,0.14,0.75,0.08726646259971647,5.0,0.184,0.175,0.174,0.0,0.0,0.0,-0.00033225527401421106,0.0,0.005215701316112708,0.0,6.055397855522828,0.0,-0.5204010486596913,0.0,0.1364886914400139,0.0,-3.663493442193413,0.0,-0.030726094317965826,0.0,-0.007554910146781032,0.39134509546286483,0.03691005390712699,0.09968111697353563,0.0,0.0,0.0,0.3672463663647289,0.09968111697353563,0.0,0.0,0.051489696421564854,0.0,0.0,-0.00397971028049902,0.0,1.1996252755224563,0.0,4.4196738239989095,0.0,0.0867523161701336,0.0,85.96163674903909,-1.4101877508841183,0.0,-4.357061856282265,0.0,0.0867523161701336,0.0
sim_raptor_glider_3dof,raptor_glider_3dof,0.028,-14.666529196220893,0.0,-0.00657704543420825,11.82778467656599,0.0,-0.5819309370698672,0.0,0.0,0.0,-37.929538206014584,-0.6619953254559378,-0.027950945940033514,0.0,0.0,0.0,0.0,0.0,-0.018102513678242962,-1.0371976323411656,0.0,0.0,11.842091621446283,0.00657704543420825,0.03479999888755556,-0.04916069061096128,-2.816700089956494,0.0,0.0,0.03105817693271832,1.7795024576153282,-5.333706808997643,0.0,-13.64766488327684,11.836380578448221,0.0,-0.3677346500698912,0.0,11.536356471970633,0.0,0.0,-0.6619953254559378,0.0,-0.1457583679985135,0.3490658503988659,1.0,0.14,0.14,0.75,0.08726646259971647,5.0,0.184,0.175,0.174,0.0,0.0,0.0,-0.0003419274314293595,0.0,0.005218111921830077,0.0,6.0553270059778175,0.0,-0.5205072320481795,0.0,0.13510477823050504,0.0,-3.662510770114931,0.0,-0.03037988542596561,0.0,-0.007458756099112231,0.3862967682712053,0.03727435259974088,0.09952637873252618,0.0,0.0,0.0,0.36260147178014174,0.09952637873252618,0.0,0.0,0.05160624227537909,0.0,0.0,-0.003913132431604693,0.0,1.1968211208159962,0.0,4.360342508107489,0.0,0.08688030059041084,0.0,85.89403533426284,-1.409646306471305,0.0,-4.296261732470703,0.0,0.08688030059041084,0.0
sim_raptor_glider_3dof,raptor_glider_3dof,0.029,-14.654695235383311,0.0,-0.006947697643918907,11.822454265439356,0.0,-0.5954005757224443,0.0,0.0,0.0,-37.26811928492928,-0.6504513875480106,-0.027474332482377028,0.0,0.0,0.0,0.0,0.0,-0.01875873825416262,-1.0747965309541243,0.0,0.0,11.837437505810783,0.006947697643918907,0.034786321977756565,-0.0503193290082625,-2.8830851801036554,0.0,0.0,0.03156059075409988,1.8082886491495311,-5.326984885563171,0.0,-13.292578903706614,11.831542531704375,0.0,-0.37353450235054025,0.0,11.551159195452588,0.0,0.0,-0.6504513875480106,0.0,-0.1457583679985135,0.3490658503988659,1.0,0.14,0.14,0.75,0.08726646259971647,5.0,0.184,0.175,0.174,0.0,0.0,0.0,-0.0003514133020810342,0.0,0.005220352940739333,0.0,6.05525148448237,0.0,-0.5206091295186828,0.0,0.1337546414764557,0.0,-3.6615473948126187,0.0,-0.0300423642117283,0.0,-0.007365912704782449,0.38137115133294164,0.03762930029577278,0.09937857486408522,0.0,0.0,0.0,0.358080192376071,0.09937857486408522,0.0,0.0,0.05171310016928164,0.0,0.0,-0.003846406547532784,0.0,1.1941046000705715,0.0,4.302589421263155,0.0,0.08699177990095344,0.0,85.82653337097807,-1.4090052203287273,0.0,-4.23708222872317,0.0,0.08699177990095344,0.0
sim_raptor_glider_3dof,raptor_glider_3dof,0.03,-14.642866108290672,0.0,-0.007324044683580106,11.817130962120205,0.0,-0.6085180185376027,0.0,0.0,0.0,-36.605913735511876,-0.6388937203856989,-0.026996752817324762,0.0,0.0,0.0,0.0,0.0,-0.019403411862047876,-1.1117336078494213,0.0,0.0,11.83278827473833,0.007324044683580106,0.03477265942207626,-0.05144912140935144,-2.9478175164120035,0.0,0.0,0.03204570954730357,1.8360839085625824,-5.319498048180037,0.0,-12.943263032910357,11.826713086820345,0.0,-0.37912519939636674,0.0,11.563823045799762,0.0,0.0,-0.6388937203856989,0.0,-0.1457583679985135,0.3490658503988659,1.0,0.14,0.14,0.75,0.08726646259971647,5.0,0.184,0.175,0.174,0.0,0.0,0.0,-0.0003607145979436639,0.0,0.005222429102315716,0.0,6.055171734034389,0.0,-0.5207069067035301,0.0,0.1324377860102688,0.0,-3.6606033127409283,0.0,-0.029713386491979715,0.0,-0.007276272764166505,0.37656663781944966,0.03797506807930569,0.09923743187799569,0.0,0.0,0.0,0.3536808413796247,0.09923743187799569,0.0,0.0,0.051810484470794275,0.0,0.0,-0.0037795453944254676,0.0,1.1914721975408251,0.0,4.246390513458141,0.0,0.087087151357918,0.0,85.75912874471763,-1.4082723150575436,0.0,-4.179498471939249,0.0,0.087087151357918,0.0
sim_raptor_glider_3dof,raptor_glider_3dof,0.03,-14.642866108290672,0.0,-0.007324044683580106,11.817130962120205,0.0,-0.6085180185376027,0.0,0.0,0.0,-36.605913735511876,-0.6388937203856989,-0.026996752817324762,0.0,0.0,0.0,0.0,0.0,-0.019403411862047876,-1.1117336078494213,0.0,0.0,11.83278827473833,0.007324044683580106,0.03477265942207626,-0.05144912140935144,-2.9478175164120035,0.0,0.0,0.03204570954730357,1.8360839085625824,-5.325845528017479,0.0,-12.927094946970604,11.826713086820345,0.0,-0.37912519939636674,0.0,11.74608812698844,0.0,0.0,-0.6388937203856989,0.0,-0.1471191914524676,0.3490658503988659,1.0,0.14,0.14,0.75,0.08726646259971647,5.0,0.184,0.175,0.174,0.0,0.0,0.0,-0.00009408786773481408,0.0,0.00529885951060859,0.0,6.054695879614839,0.0,-0.5206724653060945,0.0,0.1324255781863372,0.0,-3.6587661590381115,0.0,-0.029784524738688915,0.0,-0.007313345097016441,0.3762024811662741,0.03879863107830136,0.0994016710035049,0.0,0.0,0.0,0.35331848323982895,0.0994016710035049,0.0,0.0,0.05262710386397361,0.0,0.0,-0.0037795453944254676,0.0,1.19344409814415,0.0,4.242039940887399,0.0,0.08845978968434995,0.0,85.75912874471763,-1.4100178720128402,0.0,-4.175052248305817,0.0,0.08845978968434995,0.0
sim_raptor_glider_3dof,raptor_glider_3dof,0.031,-14.631041822209639,0.0,-0.007705870781353097,11.811809300187834,0.0,-0.6212715524128413,0.0,0.0,0.0,-35.93264181799833,-0.6271429086638719,-0.026510638391698864,0.0,0.0,0.0,0.0,0.0,-0.020036397994853534,-1.1480010417494928,0.0,0.0,11.828136678523853,0.007705870781353097,0.034758989916024136,-0.05254906937692081,-3.010839892637721,0.0,0.0,0.032512671382067274,1.862838850888228,-5.317518429411823,0.0,-12.58189406749405,11.821885622510054,0.0,-0.3844965723271865,0.0,11.755473439759411,0.0,0.0,-0.6271429086638719,0.0,-0.1471191914524676,0.3490658503988659,1.0,0.14,0.14,0.75,0.08726646259971647,5.0,0.184,0.175,0.174,0.0,0.0,0.0,-0.00010236025590633492,0.0,0.0053010206852337725,0.0,6.054611899384919,0.0,-0.520765942012393,0.0,0.13114327923310637,0.0,-3.6578401765822104,0.0,-0.029464569540041525,0.0,-0.007227023442252075,0.37152395036155367,0.03913455286484452,0.09926748300061396,0.0,0.0,0.0,0.3490523226282198,0.09926748300061396,0.0,0.0,0.052710587815084364,0.0,0.0,-0.003711489374837842,0.0,1.1908961391381856,0.0,4.187524965980978,0.0,0.08853047047482814,0.0,85.69171632760721,-1.4092015235567035,0.0,-4.119192884647877,0.0,0.08853047047482814,0.0
sim_raptor_glider_3dof,raptor_glider_3dof,0.032,-14.619222346042086,0.0,-0.008092954691236501,11.806496285067045,0.0,-0.6336836774601519,0.0,0.0,0.0,-35.2588921309444,-0.6153837582904995,-0.02602377859844576,0.0,0.0,0.0,0.0,0.0,-0.020657661336011275,-1.1835968091640277,0.0,0.0,11.823489735792108,0.008092954691236501,0.034745334085021916,-0.05362100835383219,-3.0722574719103144,0.0,0.0,0.032963347017820915,1.888660662746287,-5.308511346829598,0.0,-12.24235624739152,11.817066720398262,0.0,-0.38967121787117676,0.0,11.762827043092209,0.0,0.0,-0.6153837582904995,0.0,-0.1471191914524676,0.3490658503988659,1.0,0.14,0.14,0.75,0.08726646259971647,5.0,0.184,0.175,0.174,0.0,0.0,0.0,-0.00011047071879051206,0.0,0.005303023753535061,0.0,6.054524549561575,0.0,-0.5208556144867786,0.0,0.12989334393979562,0.0,-3.656933559809798,0.0,-0.029152885821718485,0.0,-0.007143700070327427,0.36696349702262293,0.039461616034723423,0.09913942331823397,0.0,0.0,0.0,0.34490487212709264,0.09913942331823397,0.0,0.0,0.0527850281380837,0.0,0.0,-0.003643329003782406,0.0,1.1884254790063402,0.0,4.134518077168116,0.0,0.08858585046152742,0.0,85.6243978162478,-1.4083082063518375,0.0,-4.06488165209068,0.0,0.08858585046152742,0.0
sim_raptor_glider_3dof,raptor_glider_3dof,0.033,-14.607407684521078,0.0,-0.0084851173980061,11.801192596699135,0.0,-0.645759068964134,0.0,0.0,0.0,-34.584778087742464,-0.6036182487026943,-0.025536257192715385,0.0,0.0,0.0,0.0,0.0,-0.021267162351730134,-1.2185186449736551,0.0,0.0,11.818847299103915,0.0084851173980061,0.03473169149579451,-0.05466529725895209,-3.1320908187660224,0.0,0.0,0.03339813490722196,1.9135721737923677,-5.298864681682676,0.0,-11.908429238608395,11.812256331365377,0.0,-0.39465407847180417,0.0,11.768191011809439,0.0,0.0,-0.6036182487026943,0.0,-0.1471191914524676,0.3490658503988659,1.0,0.14,0.14,0.75,0.08726646259971647,5.0,0.184,0.175,0.174,0.0,0.0,0.0,-0.00011841595930033952,0.0,0.005304879325189466,0.0,6.054434228531418,0.0,-0.5209416215351392,0.0,0.12867537992969444,0.0,-3.656046330624798,0.0,-0.02884935777746854,0.0,-0.0070632862644954605,0.36251981937664335,0.0397799500480485,0.09901725033193783,0.0,0.0,0.0,0.34087475683038126,0.09901725033193783,0.0,0.0,0.052850593565073045,0.0,0.0,-0.0035750760069801543,0.0,1.1860290145558372,0.0,4.082999180195328,0.0,0.08862624650993689,0.0,85.5571709965316,-1.4073445704381065,0.0,-4.012097754155848,0.0,0.08862624650993689,0.0
sim_raptor_glider_3dof,raptor_glider_3dof,0.034,-14.595597830208836,0.0,-0.008882192226026582,11.795898781772253,0.0,-0.6575026361628172,0.0,0.0,0.0,-33.91039894726763,-0.5918481122946391,-0.025048147738615634,0.0,0.0,0.0,0.0,0.0,-0.021864896166898323,-1.2527662698550452,0.0,0.0,11.814209147732962,0.008882192226026582,0.034718061499700144,-0.05568231589537511,-3.1903616943192112,0.0,0.0,0.03381741972847679,1.9375954244641662,-5.288617099675381,0.0,-11.580053111022757,11.807454321122286,0.0,-0.39944992300390875,0.0,11.771607081930924,0.0,0.0,-0.5918481122946391,0.0,-0.1471191914524676,0.3490658503988659,1.0,0.14,0.14,0.75,0.08726646259971647,5.0,0.184,0.175,0.174,0.0,0.0,0.0,-0.0001261929734202258,0.0,0.005306597949466391,0.0,6.054341314855258,0.0,-0.5210240988649536,0.0,0.1274889688930333,0.0,-3.6551784787768904,0.0,-0.02855386414936158,0.0,-0.0069856944037419155,0.35819150119460885,0.04008968947852566,0.09890072716982436,0.0,0.0,0.0,0.336960496194579,0.09890072716982436,0.0,0.0,0.052907452555163326,0.0,0.0,-0.0035067406834061892,0.0,1.1837036945480757,0.0,4.032946932507214,0.0,0.08865197293402179,0.0,85.49003259713977,-1.406316918920923,0.0,-3.960819122411786,0.0,0.08865197293402179,0.0
sim_raptor_glider_3dof,raptor_glider_3dof,0.034999999999999996,-14.583792773386017,0.0,-0.009283964993954901,11.790615521956228,0.0,-0.668920774171089,0.0,0.0,0.0,-33.23588277780459,-0.5800755842795691,-0.024559544617380386,0.0,0.0,0.0,0.0,0.0,-0.022450858222201976,-1.2863394225787559,0.0,0.0,11.809575326349071,0.009283964993954901,0.03470444422800867,-0.05667256958613338,-3.247099051446913,0.0,0.0,0.0342217113639314,1.9607596288681572,-5.277807200897389,0.0,-11.257149199405976,11.80266075363422,0.0,-0.40406499889911435,0.0,11.773128054285689,0.0,0.0,-0.5800755842795691,0.0,-0.1471191914524676,0.3490658503988659,1.0,0.14,0.14,0.75,0.08726646259971647,5.0,0.184,0.175,0.174,0.0,0.0,0.0,-0.00013380025788692278,0.0,0.00530818966856313,0.0,6.054246156070735,0.0,-0.5211031876213947,0.0,0.12633354455815077,0.0,-3.654329872313893,0.0,-0.0282662479123776,0.0,-0.006910829904877018,0.35397656823676454,0.04039100669096474,0.09878961058070532,0.0,0.0,0.0,0.3331600342335173,0.09878961058070532,0.0,0.0,0.0529558215473654,0.0,0.0,-0.003438336246433254,0.0,1.1814464541748642,0.0,3.9843333606058553,0.0,0.08866342737682553,0.0,85.42298319125453,-1.4052312465512564,0.0,-3.911016900530489,0.0,0.08866342737682553,0.0
sim_raptor_glider_3dof,raptor_glider_3dof,0.036,-14.571992505935526,0.0,-0.009690264311094203,11.785343338939366,0.0,-0.6800187240074864,0.0,0.0,0.0,-32.561332857428276,-0.5683024671999367,-0.02407052439862123,0.0,0.0,0.0,0.0,0.0,-0.023025047293802104,-1.3192380330239781,0.0,0.0,11.804945704308988,0.009690264311094203,0.03469083929680269,-0.05763646749890313,-3.302326333730089,0.0,0.0,0.03461142020510102,1.9830883007061109,-5.266471162370278,0.0,-10.939651410803592,11.797875540395008,0.0,-0.4085043635415134,0.0,11.772797627625453,0.0,0.0,-0.5683024671999367,0.0,-0.1471191914524676,0.3490658503988659,1.0,0.14,0.14,0.75,0.08726646259971647,5.0,0.184,0.175,0.174,0.0,0.0,0.0,-0.0001412360781601731,0.0,0.005309663681166436,0.0,6.054149089217404,0.0,-0.5211790164512988,0.0,0.12520865135090295,0.0,-3.653500446918427,0.0,-0.027986380651158625,0.0,-0.00683860811647783,0.34987343363704404,0.040684044283365466,0.09868367634464649,0.0,0.0,0.0,0.32947171756595833,0.09868367634464649,0.0,0.0,0.05299587831407476,0.0,0.0,-0.0033698734158069724,0.0,1.1792544305168344,0.0,3.9371352695933988,0.0,0.08866093893364729,0.0,85.35602081589916,-1.4040932050902921,0.0,-3.862667137405078,0.0,0.08866093893364729,0.0
sim_raptor_glider_3dof,raptor_glider_3dof,0.037,-14.560197019549673,0.0,-0.010100917295574063,11.780082740451434,0.0,-0.690801850527797,0.0,0.0,0.0,-31.886853845548202,-0.5565305877070316,-0.023581164696468142,0.0,0.0,0.0,0.0,0.0,-0.023587463718274162,-1.3514621204750654,0.0,0.0,11.800320189239544,0.010100917295574063,0.03467724643462795,-0.05857442992903777,-3.3560676223186383,0.0,0.0,0.03498696621076361,2.004605501843573,-5.254643958226503,0.0,-10.627491243862949,11.793098611921152,0.0,-0.41277317993998575,0.0,11.77066018399649,0.0,0.0,-0.5565305877070316,0.0,-0.1471191914524676,0.3490658503988659,1.0,0.14,0.14,0.75,0.08726646259971647,5.0,0.184,0.175,0.174,0.0,0.0,0.0,-0.00014849924796647324,0.0,0.005311028574180547,0.0,6.054050432136259,0.0,-0.5212517104615662,0.0,0.12411381934372488,0.0,-3.6526901151712012,0.0,-0.027714131342082646,0.0,-0.006768945993145196,0.3458804432433447,0.04096894776703205,0.09858270657197482,0.0,0.0,0.0,0.3258938247984146,0.09858270657197482,0.0,0.0,0.05302780397377391,0.0,0.0,-0.0033013630575055397,0.0,1.1771248528297045,0.0,3.8913287522073223,0.0,0.08864484184567757,0.0,85.28914406433594,-1.4029081414509759,0.0,-3.815745159671348,0.0,0.08864484184567757,0.0
sim_raptor_glider_3dof,raptor_glider_3dof,0.038,-14.548406305976007,0.0,-0.010515755635117046,11.774834202765676,0.0,-0.7012754611977592,0.0,0.0,0.0,-31.212548175222512,-0.5447617335949808,-0.023091541566977895,0.0,0.0,0.0,0.0,0.0,-0.024138109518965646,-1.3830118008612893,0.0,0.0,11.795698698046612,0.010515755635117046,0.03466366539729822,-0.059486873067999935,-3.4083467632268394,0.0,0.0,0.03534876354903429,2.02533496236555,-5.242359236360975,0.0,-10.32060002965328,11.788329895708262,0.0,-0.4168765345391688,0.0,11.766759412904127,0.0,0.0,-0.5447617335949808,0.0,-0.1471191914524676,0.3490658503988659,1.0,0.14,0.14,0.75,0.08726646259971647,5.0,0.184,0.175,0.174,0.0,0.0,0.0,-0.00015558897786481412,0.0,0.005312292336983104,0.0,6.05395048549404,0.0,-0.5213213901224679,0.0,0.12304858209816048,0.0,-3.6518987800033633,0.0,-0.027449370743587602,0.0,-0.006701763183739114,0.34199594217983814,0.04124586091125995,0.09848649126305999,0.0,0.0,0.0,0.3224246352806085,0.09848649126305999,0.0,0.0,0.05305177705801804,0.0,0.0,-0.0032328158193769057,0.0,1.1750550549888052,0.0,3.8468899915160755,0.0,0.08861546513858098,0.0,85.2223516660634,-1.40168110663342,0.0,-3.77022639431483,0.0,0.08861546513858098,0.0
sim_raptor_glider_3dof,raptor_glider_3dof,0.039,-14.536620357047099,0.0,-0.010934616735210846,11.769598164661812,0.0,-0.7114447858228833,0.0,0.0,0.0,-30.53851546674062,-0.5329976435658367,-0.022601729089621905,0.0,0.0,0.0,0.0,0.0,-0.024676988724273288,-1.413887304992781,0.0,0.0,11.791081148091775,0.010934616735210846,0.03465009594196648,-0.060374207316853085,-3.459187270703536,0.0,0.0,0.035697218592579794,2.045299965710755,-5.2296493324002675,0.0,-10.01890919382635,11.783569309090188,0.0,-0.4208194134697767,0.0,11.761138136059925,0.0,0.0,-0.5329976435658367,0.0,-0.1471191914524676,0.3490658503988659,1.0,0.14,0.14,0.75,0.08726646259971647,5.0,0.184,0.175,0.174,0.0,0.0,0.0,-0.00016250482905433145,0.0,0.005313462397573659,0.0,6.053849533628227,0.0,-0.5213881712863193,0.0,0.1220124787063028,0.0,-3.6511263366371245,0.0,-0.027191971851239494,0.0,-0.006636982076421518,0.33821828365165085,0.041514925220288594,0.09839482827874042,0.0,0.0,0.0,0.31906243825647496,0.09839482827874042,0.0,0.0,0.05306797278686043,0.0,0.0,-0.003164242072547067,0.0,1.1730424729645887,0.0,3.8037953635349133,0.0,0.0885731313026673,0.0,85.15564235910448,-1.4004168665458518,0.0,-3.7260864738922095,0.0,0.0885731313026673,0.0
sim_raptor_glider_3dof,raptor_glider_3dof,0.04,-14.524839164675853,0.0,-0.011357342561339991,11.764375035792849,0.0,-0.7213149907514482,0.0,0.0,0.0,-29.86485309724246,-0.5212400171713072,-0.02211179977072025,0.0,0.0,0.0,0.0,0.0,-0.025204106944768493,-1.4440889543316024,0.0,0.0,11.786467464794901,0.011357342561339991,0.03463653784946634,-0.061236838443657085,-3.5086123935460196,0.0,0.0,0.036032731498888596,2.064523439214417,-5.216545331902253,0.0,-9.722350228701318,11.778816767001409,0.0,-0.4246067216557494,0.0,11.753838448603982,0.0,0.0,-0.5212400171713072,0.0,-0.1471191914524676,0.3490658503988659,1.0,0.14,0.14,0.75,0.08726646259971647,5.0,0.184,0.175,0.174,0.0,0.0,0.0,-0.00016924669133033677,0.0,0.005314545660616958,0.0,6.053747845072838,0.0,-0.5214521654230255,0.0,0.12100505250893288,0.0,-3.6503726720560086,0.0,-0.026941809529182476,0.0,-0.006574527634201209,0.3345458255297458,0.04177628027638452,0.09830752300663109,0.0,0.0,0.0,0.31580552909997067,0.09830752300663109,0.0,0.0,0.053076563622206134,0.0,0.0,-0.0030956519679008355,0.0,1.171084641958049,0.0,3.762021396363176,0.0,0.0885181573564366,0.0,85.08901499975862,-1.3991199148203044,0.0,-3.6833011944826852,0.0,0.0885181573564366,0.0
sim_raptor_glider_3dof,raptor_glider_3dof,0.04,-14.524839164675853,0.0,-0.011357342561339991,11.764375035792849,0.0,-0.7213149907514482,0.0,0.0,0.0,-29.86485309724246,-0.5212400171713072,-0.02211179977072025,0.0,0.0,0.0,0.0,0.0,-0.025204106944768493,-1.4440889543316024,0.0,0.0,11.786467464794901,0.011357342561339991,0.03463653784946634,-0.061236838443657085,-3.5086123935460196,0.0,0.0,0.036032731498888596,2.064523439214417,-5.2187050980636585,0.0,-9.716878651239819,11.778816767001409,0.0,-0.4246067216557494,0.0,11.8155565991723,0.0,0.0,-0.5212400171713072,0.0,-0.14758452174138792,0.3490658503988659,1.0,0.14,0.14,0.75,0.08726646259971647,5.0,0.184,0.175,0.174,0.0,0.0,0.0,-0.00007718625183354816,0.0,0.005341797240783573,0.0,6.053582871639051,0.0,-0.5214399115925639,0.0,0.12100116621766663,0.0,-3.6497348954189546,0.0,-0.026966262941663238,0.0,-0.006587626181571214,0.3344222911077553,0.04205695397872309,0.09836501799998756,0.0,0.0,0.0,0.31568250537831505,0.09836501799998756,0.0,0.0,0.053355262990043124,0.0,0.0,-0.0030956519679008355,0.0,1.1717695488873459,0.0,3.7605558809415562,0.0,0.08898295674836659,0.0,85.08901499975862,-1.399713850514691,0.0,-3.6817965106807726,0.0,0.08898295674836659,0.0
sim_raptor_glider_3dof,raptor_glider_3dof,0.041,-14.513062745502824,0.0,-0.011783783796546566,11.759163152776132,0.0,-0.7308843554377492,0.0,0.0,0.0,-29.188141340583197,-0.5094291689306484,-0.021619225660046405,0.0,0.0,0.0,0.0,0.0,-0.02571938149435797,-1.473612011313584,0.0,0.0,11.781855116857939,0.011783783796546566,0.03462298368114825,-0.06207460030981432,-3.556612612713833,0.0,0.0,0.03635521881545635,2.083000601400249,-5.205192876599292,0.0,-9.424863578470998,11.774069924036349,0.0,-0.4282375725391678,0.0,11.806220394392357,0.0,0.0,-0.5094291689306484,0.0,-0.14758452174138792,0.3490658503988659,1.0,0.14,0.14,0.75,0.08726646259971647,5.0,0.184,0.175,0.174,0.0,0.0,0.0,-0.000083537316409964,0.0,0.005342865283031946,0.0,6.053480626748198,0.0,-0.5215011274788349,0.0,0.12002265186869512,0.0,-3.6489997663312996,0.0,-0.02672343010967889,0.0,-0.006527490456910351,0.33085591508927953,0.04231045685423336,0.09828203823480171,0.0,0.0,0.0,0.3125338961715051,0.09828203823480171,0.0,0.0,0.05335485376768158,0.0,0.0,-0.0030266915924064973,0.0,1.1698649213750367,0.0,3.720134914156112,0.0,0.08891264579016885,0.0,85.02243298880593,-1.3983893642062508,0.0,-3.6403976293616553,0.0,0.08891264579016885,0.0
sim_raptor_glider_3dof,raptor_glider_3dof,0.042,-14.501291045076405,0.0,-0.012213764290394875,11.753964883627585,0.0,-0.7401657033196885,0.0,0.0,0.0,-28.512007694107524,-0.49762841061613255,-0.021126687357784793,0.0,0.0,0.0,0.0,0.0,-0.026222910290442963,-1.5024620861925575,0.0,0.0,11.777246526838145,0.012213764290394875,0.03460944055610845,-0.0628885381216939,-3.603247814120646,0.0,0.0,0.036665627831250935,2.1007857279280886,-5.191345042643114,0.0,-9.137832483245917,11.76933093545139,0.0,-0.43172339031849083,0.0,11.795296003688101,0.0,0.0,-0.49762841061613255,0.0,-0.14758452174138792,0.3490658503988659,1.0,0.14,0.14,0.75,0.08726646259971647,5.0,0.184,0.175,0.174,0.0,0.0,0.0,-0.00008972172807740768,0.0,0.005343857401770077,0.0,6.053378135286864,0.0,-0.5215597751908451,0.0,0.11907181897213248,0.0,-3.648283116837178,0.0,-0.02648756393537432,0.0,-0.006469531449805701,0.32739112588908026,0.04255655136339868,0.09820303576915347,0.0,0.0,0.0,0.3094868300639084,0.09820303576915347,0.0,0.0,0.053347210515693196,0.0,0.0,-0.002957736230089871,0.0,1.168010249805502,0.0,3.680983860256632,0.0,0.0888303742037751,0.0,84.9559312541556,-1.397040422841812,0.0,-3.6003011235265445,0.0,0.0888303742037751,0.0
sim_raptor_glider_3dof,raptor_glider_3dof,0.043000000000000003,-14.48952407976262,0.0,-0.012647160079932836,11.748780616116274,0.0,-0.7491624879841016,0.0,0.0,0.0,-27.836544521529785,-0.4858393542786843,-0.020634253997995587,0.0,0.0,0.0,0.0,0.0,-0.026714644176653726,-1.5306363625160004,0.0,0.0,11.772641606667214,0.012647160079932836,0.03459590821554325,-0.06367891439819916,-3.6485330389916624,0.0,0.0,0.03696427022154543,2.1178966764756617,-5.177189311168826,0.0,-8.855742031504182,11.764599705164747,0.0,-0.4350680133836526,0.0,11.7828148436259,0.0,0.0,-0.4858393542786843,0.0,-0.14758452174138792,0.3490658503988659,1.0,0.14,0.14,0.75,0.08726646259971647,5.0,0.184,0.175,0.174,0.0,0.0,0.0,-0.00009573911607267698,0.0,0.005344778977536948,0.0,6.0532756378891435,0.0,-0.5216159444499511,0.0,0.11814837506263025,0.0,-3.647584925124538,0.0,-0.026258582220431,0.0,-0.006413690700977543,0.324026853903718,0.04279533215759517,0.09812785014405322,0.0,0.0,0.0,0.30654017811922635,0.09812785014405322,0.0,0.0,0.053332459292994294,0.0,0.0,-0.0028887955597193824,0.0,1.1662034951237787,0.0,3.6430863062189704,0.0,0.08873637858734666,0.0,84.88950846208535,-1.3956708416027783,0.0,-3.5614900432963297,0.0,0.08873637858734666,0.0
sim_raptor_glider_3dof,raptor_glider_3dof,0.044,-14.477761842764885,0.0,-0.0130838481132083,11.743610611579525,0.0,-0.757879048556878,0.0,0.0,0.0,-27.161829782807963,-0.47406336057625525,-0.020141984192849717,0.0,0.0,0.0,0.0,0.0,-0.027194594053720402,-1.5581354648497439,0.0,0.0,11.768040229734291,0.0130838481132083,0.03458238628738514,-0.06444606782661906,-3.6924876926791144,0.0,0.0,0.037251473772898655,2.1343522278293703,-5.162751918571222,0.0,-8.578531581116234,11.759876082180819,0.0,-0.4382754617774425,0.0,11.76881190138228,0.0,0.0,-0.47406336057625525,0.0,-0.14758452174138792,0.3490658503988659,1.0,0.14,0.14,0.75,0.08726646259971647,5.0,0.184,0.175,0.174,0.0,0.0,0.0,-0.00010158994376655447,0.0,0.0053456351076005115,0.0,6.053173352751364,0.0,-0.5216697272651264,0.0,0.11725193782890037,0.0,-3.646905092636849,0.0,-0.026036381085176263,0.0,-0.006359906103733356,0.320761695204822,0.043026916452750086,0.09805631918350342,0.0,0.0,0.0,0.3036924861265444,0.09805631918350342,0.0,0.0,0.053310743114770125,0.0,0.0,-0.0028198777869989605,0.0,1.1644425965682936,0.0,3.606422003682222,0.0,0.08863092242930996,0.0,84.82316272528661,-1.3942841620325064,0.0,-3.5239435161266863,0.0,0.08863092242930996,0.0
