name,vehicle,t,north,east,down,u,v,w,p_rad,p_deg,p_hat_div_b,q_deg,q_rad,q_hat_div_c,r_rad,r_deg,r_hat_div_b,phi_rad,phi_deg,theta_rad,theta_deg,psi_rad,psi_deg,speed,altitude,mach,alpha_rad,alpha_deg,beta_rad,beta_deg,gamma_rad,gamma_deg,u_dot,v_dot,w_dot,north_dot,east_dot,down_dot,p_rad_dot,q_rad_dot,r_rad_dot,phi_rad_dot,theta_rad_dot,psi_rad_dot,del_tail_alt_rad,del_tail_splay_rad,DIM_b,DIM_c_bar,DIM_S,DIM_wing_position,DIM_wing_incidence_rad,DIM_wing_incidence_deg,DIM_empennage_length,DIM_nose_length,DIM_tail_length,CDp,CDq,CDr,CYp,CYq,CYr,CLp,CLq,CLr,Clp,Clq,Clr,Cmp,Cmq,Cmr,Cnp,Cnq,Cnr,CL_0,Cm_0,CD_0,Cl_0,CY_0,Cn_0,CL,CD,CY,Cl,Cm,Cn,p_hat,q_hat,r_hat,drag_force_wind,side_force_wind,lift_force_wind,roll_moment_wind,pitch_moment_wind,yaw_moment_wind,qbar,X_total,Y_total,Z_total,L_total,M_total,N_total
sim_raptor_glider_3dof,raptor_glider_3dof,0.0,-15.0,0.0,0.0,12.0,0.0,0.0,0.0,0.0,0.0,0.0,0.0,0.0,0.0,0.0,0.0,0.0,0.0,0.0,0.0,0.0,0.0,12.0,-0.0,0.035264039495724236,0.0,0.0,0.0,0.0,0.0,0.0,-4.817680662679606,0.0,-18.705110642190817,12.0,0.0,0.0,0.0,-17.766869679450444,0.0,0.0,0.0,0.0,0.04119449078915083,0.6108652381980153,1.0,0.14,0.14,0.75,0.08726646259971647,5.0,0.184,0.175,0.174,0.0,0.0,0.0,0.003443074579327804,0.0,-0.0004498070622535304,0.0,7.48666360498628,0.0,-0.5141419010827052,0.0,0.1923128408255795,0.0,-6.558846604591591,0.0,-0.046348010641154624,0.0,-0.009841342234176853,0.6349799754130557,-0.07739961993779354,0.10729364584414486,0.0,0.0,0.0,0.6349799754130557,0.10729364584414486,0.0,0.0,-0.07739961993779354,0.0,0.0,0.0,0.0,1.3248621822368916,0.0,7.840734176602476,0.0,-0.1338022955559413,0.0,88.20001620075907,-1.3248621822368916,0.0,-7.840734176602476,0.0,-0.1338022955559413,0.0
sim_raptor_glider_3dof,raptor_glider_3dof,0.001,-14.988002412201903,0.0,-9.293809581149624e-6,11.995171888801107,0.0,-0.018631787050973042,0.0,0.0,0.0,-1.006090654409938,-0.017559594492997824,-0.0007319433799346788,0.0,0.0,0.0,0.0,0.0,-8.815449063782393e-6,-0.000505088025867284,0.0,0.0,11.99518635892636,9.293809581149624e-6,0.03524989379331264,-0.0015532726199893533,-0.08899596555861769,0.0,0.0,0.001544457170925571,0.08849087753275041,-4.838452339730335,0.0,-18.558027499984124,11.995172052582593,0.0,-0.018526044223453414,0.0,-17.353321242824943,0.0,0.0,-0.017559594492997824,0.0,0.04119449078915083,0.6108652381980153,1.0,0.14,0.14,0.75,0.08726646259971647,5.0,0.184,0.175,0.174,0.0,0.0,0.0,0.003431242413204649,0.0,-0.0004541556413963443,0.0,7.487553865432082,0.0,-0.5143565362094892,0.0,0.19051054199629192,0.0,-6.559245001065346,0.0,-0.045878525820914534,0.0,-0.009657260878818368,0.6284507545056109,-0.0763308631060793,0.10686255039326585,0.0,0.0,0.0,0.6276834893378919,0.10686255039326585,0.0,0.0,-0.07565872367225338,0.0,0.0,-0.00010247207319085503,0.0,1.3184805957597596,0.0,7.744420266268889,0.0,-0.13068786227971466,0.0,88.1292698563052,-1.330508196360365,0.0,-7.74236296497453,0.0,-0.13068786227971466,0.0
sim_raptor_glider_3dof,raptor_glider_3dof,0.002,-14.976009662277367,0.0,-0.00003693449509254914,11.990323270402302,0.0,-0.03711525833437719,0.0,0.0,0.0,-1.9886541929081014,-0.03470856334983684,-0.0014473503459639593,0.0,0.0,0.0,0.0,0.0,-0.00003498380397488645,-0.0020044243190739867,0.0,0.0,11.990380714187193,0.00003693449509254914,0.03523577158948894,-0.0030954244481533537,-0.17735475668079909,0.0,0.0,0.0030604406441784673,0.1753503323617251,-4.858695860189951,0.0,-18.408511354610884,11.990324561497946,0.0,-0.03669579119286342,0.0,-16.945588894042544,0.0,0.0,-0.03470856334983684,0.0,0.04119449078915083,0.6108652381980153,1.0,0.14,0.14,0.75,0.08726646259971647,5.0,0.184,0.175,0.174,0.0,0.0,0.0,0.0034197096756828477,0.0,-0.00045867060678084074,0.0,7.4884249614653555,0.0,-0.5145666727708904,0.0,0.18872026337488415,0.0,-6.559624841239426,0.0,-0.04541278901864588,0.0,-0.009476350199133643,0.6219496706026216,-0.0752694561408325,0.10643970424247742,0.0,0.0,0.0,0.6204322981784034,0.10643970424247742,0.0,0.0,-0.07394028560116186,0.0,0.0,-0.00020262904843495433,0.0,1.312211420999829,0.0,7.648821963768386,0.0,-0.12761722996103442,0.0,88.0586693483769,-1.3358814471243965,0.0,-7.644723474793374,0.0,-0.12761722996103442,0.0
sim_raptor_glider_3dof,raptor_glider_3dof,0.003,-14.964021768984894,0.0,-0.00008256789541686314,11.985454677200567,0.0,-0.055448057487430244,0.0,0.0,0.0,-2.9480225850537245,-0.05145270053234206,-0.0021464413040556585,0.0,0.0,0.0,0.0,0.0,-0.00007809824789895575,-0.004474699991976614,0.0,0.0,11.985582935606764,0.00008256789541686314,0.035221672501709614,-0.004626246013268642,-0.26506437154951623,0.0,0.0,0.004548147765369686,0.2605896715575396,-4.878401044179898,0.0,-18.256701050010953,11.985458971045041,0.0,-0.0545120143087219,0.0,-16.54365197483403,0.0,0.0,-0.05145270053234206,0.0,0.04119449078915083,0.6108652381980153,1.0,0.14,0.14,0.75,0.08726646259971647,5.0,0.184,0.175,0.174,0.0,0.0,0.0,0.0034084614057299898,0.0,-0.0004633356700975173,0.0,7.489277047984337,0.0,-0.514772344550146,0.0,0.1869422789450753,0.0,-6.559986419237299,0.0,-0.044950848802224656,0.0,-0.009298586790703847,0.6154784905548104,-0.0742155674151371,0.10602507704402371,0.0,0.0,0.0,0.6132279494517471,0.10602507704402371,0.0,0.0,-0.07224427980253578,0.0,0.0,-0.00030050178256779225,0.0,1.306053983146526,0.0,7.553956368507779,0.0,-0.12459024302247508,0.0,87.98821262446825,-1.3409863428678412,0.0,-7.547833427709841,0.0,-0.12459024302247508,0.0
sim_raptor_glider_3dof,raptor_glider_3dof,0.004,-14.952038749823306,0.0,-0.0001458417850176187,11.980566651303688,0.0,-0.07362794873270688,0.0,0.0,0.0,-3.8845272526746353,-0.06779779044262209,-0.002829436709418751,0.0,0.0,0.0,0.0,0.0,-0.00013775651626644173,-0.007892866982492384,0.0,0.0,11.980792893676306,0.0001458417850176187,0.03520759614939112,-0.0061455375155080386,-0.3521133624779243,0.0,0.0,0.0060077809992415965,0.34422049549543193,-4.8975588108787,0.0,-18.102732466452665,11.98057668035662,0.0,-0.07197754691453173,0.0,-16.14748815179537,0.0,0.0,-0.06779779044262209,0.0,0.04119449078915083,0.6108652381980153,1.0,0.14,0.14,0.75,0.08726646259971647,5.0,0.184,0.175,0.174,0.0,0.0,0.0,0.003397483020889567,0.0,-0.0004681350071533284,0.0,7.490110290213446,0.0,-0.5149735878165407,0.0,0.18517685126667935,0.0,-6.560330037077809,0.0,-0.04449275095858897,0.0,-0.009123945784782015,0.6090389246620329,-0.07316935796878495,0.10561863293821232,0.0,0.0,0.0,0.6060719336402514,0.10561863293821232,0.0,0.0,-0.07057067256019149,0.0,0.0,-0.0003961211393186252,0.0,1.300007542411573,0.0,7.459839831833643,0.0,-0.12160673327117091,0.0,87.91789764515231,-1.345827430358337,0.0,-7.451709767203353,0.0,-0.12160673327117091,0.0
sim_raptor_glider_3dof,raptor_glider_3dof,0.005,-14.940060620759638,0.0,-0.00022640702222577323,11.975659744558477,0.0,-0.09165284515263841,0.0,0.0,0.0,-4.79849823635556,-0.08374959337554559,-0.0034965564554418336,0.0,0.0,0.0,0.0,0.0,-0.0002135626542055202,-0.012236238747588129,0.0,0.0,11.976010460978355,0.00022640702222577323,0.03519354215809561,-0.007653111204570977,-0.4384909721661986,0.0,0.0,0.007439548550365457,0.4262547334186104,-4.916161164528906,0.0,-17.946737887058134,11.975679045084231,0.0,-0.08909528940107192,0.0,-15.757073177005049,0.0,0.0,-0.08374959337554559,0.0,0.04119449078915083,0.6108652381980153,1.0,0.14,0.14,0.75,0.08726646259971647,5.0,0.184,0.175,0.174,0.0,0.0,0.0,0.0033867603139816154,0.0,-0.00047305327834329386,0.0,7.490924864461666,0.0,-0.5151704415143671,0.0,0.18342422866977232,0.0,-6.560656004538723,0.0,-0.04403853779573116,0.0,-0.008952400657326788,0.6026326157147843,-0.07213097985074904,0.10522033012555171,0.0,0.0,0.0,0.5989656738778955,0.10522033012555171,0.0,0.0,-0.0689194212761046,0.0,0.0,-0.0004895179037618568,0.0,1.294071289311661,0.0,7.366487834848274,0.0,-0.11866651809602503,0.0,87.8477224049451,-1.3504093928057166,0.0,-7.356368533088215,0.0,-0.11866651809602503,0.0
sim_raptor_glider_3dof,raptor_glider_3dof,0.006,-14.928087396444212,0.0,-0.00032391735764982757,11.970734516185608,0.0,-0.1095207889610507,0.0,0.0,0.0,-5.690264158484238,-0.09931384487377438,-0.004148019842328916,0.0,0.0,0.0,0.0,0.0,-0.000305126388152175,-0.017482454259190195,0.0,0.0,11.971235511016069,0.00032391735764982757,0.035179510156090596,-0.009148789754963367,-0.5241870406119276,0.0,0.0,0.008843663366811192,0.5067045863527374,-4.934201139908041,0.0,-17.788846273343573,11.97076737661752,0.0,-0.1058681969329673,0.0,-15.372381151349721,0.0,0.0,-0.09931384487377438,0.0,0.04119449078915083,0.6108652381980153,1.0,0.14,0.14,0.75,0.08726646259971647,5.0,0.184,0.175,0.174,0.0,0.0,0.0,0.00337627947729221,0.0,-0.00047807563508182123,0.0,7.491720956658028,0.0,-0.5153629469151514,0.0,0.18168464710019588,0.0,-6.560964638082766,0.0,-0.04358824865144254,0.0,-0.008783923500812649,0.5962611450370512,-0.07110057722025698,0.1048301215237975,0.0,0.0,0.0,0.5919105320316539,0.1048301215237975,0.0,0.0,-0.06729047560975498,0.0,0.0,-0.0005807227779260483,0.0,1.2882443527413323,0.0,7.273915065001567,0.0,-0.11576940245081475,0.0,87.77768491506434,-1.3547370311504292,0.0,-7.261824940168719,0.0,-0.11576940245081475,0.0
sim_raptor_glider_3dof,raptor_glider_3dof,0.007,-14.916119090273675,0.0,-0.0004380294541004746,11.965791531622882,0.0,-0.12722994613063102,0.0,0.0,0.0,-6.560152140233397,-0.11449625427882555,-0.004784045512069194,0.0,0.0,0.0,0.0,0.0,-0.00041206301987929797,-0.023609471932499116,0.0,0.0,11.966467918205868,0.0004380294541004746,0.03516549977432739,-0.010632405837284973,-0.6091919805466893,0.0,0.0,0.010220342817405675,0.5855825086141901,-4.951672762533038,0.0,-17.62918331117745,11.965842942505871,0.0,-0.1222992752748352,0.0,-14.993384609936731,0.0,0.0,-0.11449625427882555,0.0,0.04119449078915083,0.6108652381980153,1.0,0.14,0.14,0.75,0.08726646259971647,5.0,0.184,0.175,0.174,0.0,0.0,0.0,0.0033660271156065276,0.0,-0.00048318772763509524,0.0,7.492498761595795,0.0,-0.515551147440385,0.0,0.1799583305805646,0.0,-6.561256260120354,0.0,-0.04314192003896472,0.0,-0.008618485149772297,0.589926033600334,-0.07007828662794033,0.10444795508624327,0.0,0.0,0.0,0.5849078098898906,0.10444795508624327,0.0,0.0,-0.06568377782887327,0.0,0.0,-0.0006697663716896873,0.0,1.2825258041022651,0.0,7.182135433722143,0.0,-0.11291517949743353,0.0,87.707783203283,-1.358815251191345,0.0,-7.168093396409196,0.0,-0.11291517949743353,0.0
sim_raptor_glider_3dof,raptor_glider_3dof,0.008,-14.904155714407858,0.0,-0.0005684029850157453,11.960831361749161,0.0,-0.14477860580676008,0.0,0.0,0.0,-7.408487694783439,-0.12930250286745573,-0.0054048513658220615,0.0,0.0,0.0,0.0,0.0,-0.0005339935085974454,-0.03059557433001646,0.0,0.0,11.96170755824191,0.0005684029850157453,0.03515151064751215,-0.012103802088627783,-0.6934967757400027,0.0,0.0,0.011569808580030337,0.6629012014099863,-4.968571013016011,0.0,-17.467871380392086,11.960906967271258,0.0,-0.13839157916395706,0.0,-14.620054549701376,0.0,0.0,-0.12930250286745573,0.0,0.04119449078915083,0.6108652381980153,1.0,0.14,0.14,0.75,0.08726646259971647,5.0,0.184,0.175,0.174,0.0,0.0,0.0,0.0033559902545351634,0.0,-0.0004883757124745613,0.0,7.49325848240917,0.0,-0.5157350885401542,0.0,0.17824549121003652,0.0,-6.561531198380677,0.0,-0.04269958567102994,0.0,-0.008456055257368136,0.5836287415277273,-0.06906423702484112,0.10407377401024541,0.0,0.0,0.0,0.5779587487596923,0.10407377401024541,0.0,0.0,-0.06409926290451785,0.0,0.0,-0.0007566791912150887,0.0,1.2769146601456225,0.0,7.091162074876038,0.0,-0.11010363081380106,0.0,87.63801531923184,-1.3626490526318316,0.0,-7.075187501460057,0.0,-0.11010363081380106,0.0
sim_raptor_glider_3dof,raptor_glider_3dof,0.009000000000000001,-14.892197279793841,0.0,-0.0007147007233610752,11.955854582050069,0.0,-0.16216517878627126,0.0,0.0,0.0,-8.23559461991426,-0.14373824197703478,-0.006010654480651125,0.0,0.0,0.0,0.0,0.0,-0.0006705445212093527,-0.038419371040916424,0.0,0.0,11.956954308365422,0.0007147007233610752,0.03513754241489735,-0.013562831004883945,-0.7770929748290273,0.0,0.0,0.012892286483674593,0.7386736037881109,-4.9848917902583665,0.0,-17.305029542588755,11.955960633159009,0.0,-0.1541482101435177,0.0,-14.252360469577885,0.0,0.0,-0.14373824197703478,0.0,0.04119449078915083,0.6108652381980153,1.0,0.14,0.14,0.75,0.08726646259971647,5.0,0.184,0.175,0.174,0.0,0.0,0.0,0.0033461563476762436,0.0,-0.0004936262577336828,0.0,7.4940003300195945,0.0,-0.5159148175641802,0.0,0.17654632925720443,0.0,-6.561789785281686,0.0,-0.04226127650625292,0.0,-0.008296602378068943,0.5773706680055657,-0.06805854982774494,0.10370751696403975,0.0,0.0,0.0,0.5710645294729371,0.10370751696403975,0.0,0.0,-0.06253685866338576,0.0,0.0,-0.0008414916272911575,0.0,1.271409886003572,0.0,7.001007348094435,0.0,-0.10733452669639106,0.0,87.568379338296,-1.3662435180586159,0.0,-6.983120050211274,0.0,-0.10733452669639106,0.0
sim_raptor_glider_3dof,raptor_glider_3dof,0.01,-14.880243796214833,0.0,-0.0008765885632426814,11.950861771722114,0.0,-0.17938819347461013,0.0,0.0,0.0,-9.041794929200972,-0.15780909180468453,-0.0066016710543148945,0.0,0.0,0.0,0.0,0.0,-0.0008213483623672393,-0.04705979467362458,0.0,0.0,11.952208047501813,0.0008765885632426814,0.03512359472068475,-0.015009354622098644,-0.859972673061427,0.0,0.0,0.014188006259731404,0.8129128783878024,-5.000631872928266,0.0,-17.14077357995101,11.951005080800565,0.0,-0.16957231332436368,0.0,-13.890270437963439,0.0,0.0,-0.15780909180468453,0.0,0.04119449078915083,0.6108652381980153,1.0,0.14,0.14,0.75,0.08726646259971647,5.0,0.184,0.175,0.174,0.0,0.0,0.0,0.0033365132835187104,0.0,-0.0004989265463034092,0.0,7.494724522490201,0.0,-0.516090383610335,0.0,0.1748610335011469,0.0,-6.562032357282843,0.0,-0.04182702085766388,0.0,-0.008140094070149201,0.5711531521764932,-0.06706133913240055,0.10334911836259761,0.0,0.0,0.0,0.564226273344867,0.10334911836259761,0.0,0.0,-0.06099648606252328,0.0,0.0,-0.0009242339476040854,0.0,1.2660103987783253,0.0,6.9116828535719455,0.0,-0.10460762666830266,0.0,87.49887336356656,-1.3696038015131264,0.0,-6.891903048146867,0.0,-0.10460762666830266,0.0
sim_raptor_glider_3dof,raptor_glider_3dof,0.01,-14.880243796214833,0.0,-0.0008765885632426814,11.950861771722114,0.0,-0.17938819347461013,0.0,0.0,0.0,-9.041794929200972,-0.15780909180468453,-0.0066016710543148945,0.0,0.0,0.0,0.0,0.0,-0.0008213483623672393,-0.04705979467362458,0.0,0.0,11.952208047501813,0.0008765885632426814,0.03512359472068475,-0.015009354622098644,-0.859972673061427,0.0,0.0,0.014188006259731404,0.8129128783878024,-4.990040821615902,0.0,-17.116312525862433,11.951005080800565,0.0,-0.16957231332436368,0.0,-13.606356955422507,0.0,0.0,-0.15780909180468453,0.0,0.040101614809155306,0.6108652381980153,1.0,0.14,0.14,0.75,0.08726646259971647,5.0,0.184,0.175,0.174,0.0,0.0,0.0,0.0034161475252950904,0.0,-0.0005407012837712764,0.0,7.494640545835963,0.0,-0.5160729445744735,0.0,0.17484239732843357,0.0,-6.5618923781274185,0.0,-0.04183437914675099,0.0,-0.008128974112819555,0.5706004351306746,-0.06581445759104755,0.1031196256065609,0.0,0.0,0.0,0.563673633913123,0.1031196256065609,0.0,0.0,-0.05974973389465769,0.0,0.0,-0.0009242339476040854,0.0,1.2631991487145617,0.0,6.904913107700402,0.0,-0.10246947423128691,0.0,87.49887336356656,-1.3666912624022265,0.0,-6.885176258272509,0.0,-0.10246947423128691,0.0
sim_raptor_glider_3dof,raptor_glider_3dof,0.011,-14.868295268482179,0.0,-0.001053721237526547,11.945864142354884,0.0,-0.19642060415740542,0.0,0.0,0.0,-9.811230662755541,-0.17123827873770958,-0.007166293437869471,0.0,0.0,0.0,0.0,0.0,-0.0009858983104798166,-0.05648781221957195,0.0,0.0,11.94747886214233,0.001053721237526547,0.035109697205743126,-0.016441079808493558,-0.9420044836644366,0.0,0.0,0.015455181498013741,0.8855166714448647,-5.005134029333783,0.0,-16.948444879312362,11.946051987402798,0.0,-0.18464310333020548,0.0,-13.252916583278802,0.0,0.0,-0.17123827873770958,0.0,0.040101614809155306,0.6108652381980153,1.0,0.14,0.14,0.75,0.08726646259971647,5.0,0.184,0.175,0.174,0.0,0.0,0.0,0.0034070115433346075,0.0,-0.0005459355201605851,0.0,7.495346437197928,0.0,-0.5162439819649575,0.0,0.17317371491572386,0.0,-6.562116899491685,0.0,-0.04140493815649983,0.0,-0.00797565861126692,0.5644342370798887,-0.06482739735509,0.10277014466217808,0.0,0.0,0.0,0.5569142978016457,0.10277014466217808,0.0,0.0,-0.05824374961653965,0.0,0.0,-0.001003281081301726,0.0,1.2579220155153557,0.0,6.8167147011693014,0.0,-0.09980771478867266,0.0,87.42964489557508,-1.3698211068490984,0.0,-6.795112747371203,0.0,-0.09980771478867266,0.0
sim_raptor_glider_3dof,raptor_glider_3dof,0.012,-14.85635169599856,0.0,-0.0012457646212496282,11.940851706918266,0.0,-0.2132846472735777,0.0,0.0,0.0,-10.560573365902881,-0.18431677613342515,-0.00771667655059249,0.0,0.0,0.0,0.0,0.0,-0.0011637053683088675,-0.06667540620081512,0.0,0.0,11.942756374781137,0.0012457646212496282,0.03509581937400787,-0.017859862475291775,-1.0232947425182903,0.0,0.0,0.01669615710698291,0.9566193363174751,-5.019637111515085,0.0,-16.779455421591365,11.941091822140674,0.0,-0.19938887276022016,0.0,-12.905011979305232,0.0,0.0,-0.18431677613342515,0.0,0.040101614809155306,0.6108652381980153,1.0,0.14,0.14,0.75,0.08726646259971647,5.0,0.184,0.175,0.174,0.0,0.0,0.0,0.003398042007940875,0.0,-0.0005511941321776163,0.0,7.496035068631153,0.0,-0.5164109454974042,0.0,0.17151946807571647,0.0,-6.562326120101754,0.0,-0.04097965697182457,0.0,-0.007825232385560425,0.5583119620923417,-0.06384915358218737,0.10242840964903203,0.0,0.0,0.0,0.5502137351672282,0.10242840964903203,0.0,0.0,-0.0567596448498212,0.0,0.0,-0.0010803347170829486,0.0,1.2527481909982545,0.0,6.729375802620905,0.0,-0.09718764521614771,0.0,87.36054181583017,-1.3727277359414496,0.0,-6.705929859902071,0.0,-0.09718764521614771,0.0
sim_raptor_glider_3dof,raptor_glider_3dof,0.013000000000000001,-14.84441308671625,0.0,-0.00145239542257966,11.935825058658525,0.0,-0.22997919520700183,0.0,0.0,0.0,-11.29013760987895,-0.19705007429563076,-0.008253032597449878,0.0,0.0,0.0,0.0,0.0,-0.0013544209223064765,-0.07760260253237748,0.0,0.0,11.938040469906642,0.00145239542257966,0.03508196088602851,-0.019265592459069624,-1.1038371377237546,0.0,0.0,0.017911171536763148,1.026234535191377,-5.033549644066675,0.0,-16.609449816842822,11.936125599325493,0.0,-0.21381285802191147,0.0,-12.562607387737387,0.0,0.0,-0.19705007429563076,0.0,0.040101614809155306,0.6108652381980153,1.0,0.14,0.14,0.75,0.08726646259971647,5.0,0.184,0.175,0.174,0.0,0.0,0.0,0.003389228049703511,0.0,-0.0005564659511587614,0.0,7.496706680504907,0.0,-0.5165738897960176,0.0,0.1698798117371268,0.0,-6.562520389768253,0.0,-0.040558555785218525,0.0,-0.0076776602335315546,0.5522347724071821,-0.062879818965662,0.10209434163885595,0.0,0.0,0.0,0.5435728933621002,0.10209434163885595,0.0,0.0,-0.055297321707915834,0.0,0.0,-0.0011554245636429831,0.0,1.2476764419795903,0.0,6.642905793404519,0.0,-0.09460899623705027,0.0,87.29156231883378,-1.3754165024713982,0.0,-6.61763729201348,0.0,-0.09460899623705027,0.0
sim_raptor_glider_3dof,raptor_glider_3dof,0.014,-14.832479446343044,0.0,-0.0016732876028079647,11.930784798633207,0.0,-0.2465032617839723,0.0,0.0,0.0,-12.000243205565212,-0.20944375497719167,-0.008775578010517555,0.0,0.0,0.0,0.0,0.0,-0.0015576961376950937,-0.08924941445375802,0.0,0.0,11.933331042477928,0.0016732876028079647,0.035068121433124474,-0.02065817119598022,-1.183626021988391,0.0,0.0,0.01910047505828513,1.094376607534633,-5.046872054461103,0.0,-16.438531272058178,11.931154301128597,0.0,-0.22791843283928576,0.0,-12.225664274140769,0.0,0.0,-0.20944375497719167,0.0,0.040101614809155306,0.6108652381980153,1.0,0.14,0.14,0.75,0.08726646259971647,5.0,0.184,0.175,0.174,0.0,0.0,0.0,0.0033805592372951067,0.0,-0.0005617403370529996,0.0,7.497361519407537,0.0,-0.5167328710249522,0.0,0.1682548868424893,0.0,-6.562700060309314,0.0,-0.04014165159267801,0.0,-0.007532905989975715,0.5462037597725342,-0.06191947743769957,0.10176785774575091,0.0,0.0,0.0,0.5369926444484083,0.10176785774575091,0.0,0.0,-0.0538566693502574,0.0,0.0,-0.0012285809214724577,0.0,1.2427054933586497,0.0,6.557313123524877,0.0,-0.09207147764855414,0.0,87.222704754982,-1.3778927965962777,0.0,-6.530243776786854,0.0,-0.09207147764855414,0.0
sim_raptor_glider_3dof,raptor_glider_3dof,0.015,-14.820550779416063,0.0,-0.0019081275425979487,11.92573151083569,0.0,-0.26285599440552654,0.0,0.0,0.0,-12.691198912609224,-0.22150320705055504,-0.009284521553239998,0.0,0.0,0.0,0.0,0.0,-0.0017731974835126232,-0.10159673204849169,0.0,0.0,11.928627974010013,0.0019081275425979487,0.035054300667107505,-0.02203751112610802,-1.2626563784985836,0.0,0.0,0.020264313642595396,1.161059646450092,-5.059605350785422,0.0,-16.266797715372807,11.926178857566843,0.0,-0.24170891514347734,0.0,-11.894143860812658,0.0,0.0,-0.22150320705055504,0.0,0.040101614809155306,0.6108652381980153,1.0,0.14,0.14,0.75,0.08726646259971647,5.0,0.184,0.175,0.174,0.0,0.0,0.0,0.0033720255789090473,0.0,-0.0005670071736477754,0.0,7.49799983736246,0.0,-0.516887946702774,0.0,0.16664482101904654,0.0,-6.562865484864008,0.0,-0.03972895838136403,0.0,-0.007390932654049566,0.5402199477990197,-0.060968204584360995,0.10144887148303164,0.0,0.0,0.0,0.5304738000455542,0.10144887148303164,0.0,0.0,-0.05243757533802813,0.0,0.0,-0.0012998330174535996,0.0,1.2378340276268482,0.0,6.472605469748742,0.0,-0.08957479741578013,0.0,87.15396728079837,-1.3801620313308463,0.0,-6.443757243584285,0.0,-0.08957479741578013,0.0
sim_raptor_glider_3dof,raptor_glider_3dof,0.016,-14.808627089660266,0.0,-0.002156601713721442,11.920665783650627,0.0,-0.2790366227328687,0.0,0.0,0.0,-13.363314365626982,-0.23323383465924818,-0.009780073016585381,0.0,0.0,0.0,0.0,0.0,-0.0020005932433256974,-0.11462554936495141,0.0,0.0,11.923931153873918,0.002156601713721442,0.03504049826287554,-0.02340353137973269,-1.3409235737606675,0.0,0.0,0.021402938136406993,1.2262980243957162,-5.0717512241376514,0.0,-16.094344822428177,11.921200166590909,0.0,-0.2551876768143377,0.0,-11.568006039573842,0.0,0.0,-0.23323383465924818,0.0,0.040101614809155306,0.6108652381980153,1.0,0.14,0.14,0.75,0.08726646259971647,5.0,0.184,0.175,0.174,0.0,0.0,0.0,0.0033636175450134057,0.0,-0.0005722568480544205,0.0,7.498621889402343,0.0,-0.5170391751171345,0.0,0.16504973359540356,0.0,-6.563017016856876,0.0,-0.03932048842707287,0.0,-0.007251702887749633,0.5342843105673596,-0.06002607062718433,0.10113729394871146,0.0,0.0,0.0,0.5240171208230627,0.10113729394871146,0.0,0.0,-0.05103992063843096,0.0,0.0,-0.0013692102223219536,0.0,1.2330607039155344,0.0,6.38878987798061,0.0,-0.08711865348403061,0.0,87.0853481704386,-1.382229625493692,0.0,-6.358184966398488,0.0,-0.08711865348403061,0.0
sim_raptor_glider_3dof,raptor_glider_3dof,0.017,-14.79670837988316,0.0,-0.00241840011007732,11.915588203405063,0.0,-0.29504447461685085,0.0,0.0,0.0,-14.016896779195005,-0.24464099970914144,-0.010262440809229183,0.0,0.0,0.0,0.0,0.0,-0.0022395573095791324,-0.12831718181655782,0.0,0.0,11.919240473919798,0.00241840011007732,0.03502671390261188,-0.024756159136837284,-1.4184234354950074,0.0,0.0,0.02251660182725815,1.2901062536784496,-5.083311981248212,0.0,-15.92126515986809,11.916219089861933,0.0,-0.2683581143507445,0.0,-11.247209657531307,0.0,0.0,-0.24464099970914144,0.0,0.040101614809155306,0.6108652381980153,1.0,0.14,0.14,0.75,0.08726646259971647,5.0,0.184,0.175,0.174,0.0,0.0,0.0,0.0033553260545321475,0.0,-0.0005774802505270429,0.0,7.499227933864071,0.0,-0.5171866153993804,0.0,0.1634697340023606,0.0,-6.563155009759879,0.0,-0.03891625189143504,0.0,-0.007115178916769924,0.5283977667533488,-0.05909313949422167,0.10083303366015342,0.0,0.0,0.0,0.5176233131632811,0.10083303366015342,0.0,0.0,-0.04966358092089773,0.0,0.0,-0.0014367417132920856,0.0,1.2283841549271637,0.0,6.305872718792782,0.0,-0.08470273593086829,0.0,87.0168457369477,-1.3841009991462454,0.0,-6.273533518030613,0.0,-0.08470273593086829,0.0
sim_raptor_glider_3dof,raptor_glider_3dof,0.018000000000000002,-14.784794652019356,0.0,-0.0026932162438828545,11.910499353766038,0.0,-0.3108789720039959,0.0,0.0,0.0,-14.652250905444198,-0.2557300211283216,-0.010731831920911379,0.0,0.0,0.0,0.0,0.0,-0.0024897690900081313,-0.1426532608195935,0.0,0.0,11.914555828535761,0.0026932162438828545,0.03501294727595804,-0.026095329300926826,-1.49515223394718,0.0,0.0,0.023605560210918693,1.3524989731275865,-5.094290509741407,0.0,-15.74764825324362,11.911236453544948,0.0,-0.281223645942979,0.0,-10.931712583216429,0.0,0.0,-0.2557300211283216,0.0,0.040101614809155306,0.6108652381980153,1.0,0.14,0.14,0.75,0.08726646259971647,5.0,0.184,0.175,0.174,0.0,0.0,0.0,0.003347142470629505,0.0,-0.0005826687670547032,0.0,7.4998182318944036,0.0,-0.5173303274074471,0.0,0.16190492214171973,0.0,-6.563279816641619,0.0,-0.03851625692318745,0.0,-0.006981322605532782,0.5225611810870807,-0.05816946905487196,0.10053599678419321,0.0,0.0,0.0,0.5112930306687898,0.10053599678419321,0.0,0.0,-0.04830842683697686,0.0,0.0,-0.001502456468927593,0.0,1.2238029898305331,0.0,6.223859708230979,0.0,-0.08232672746420293,0.0,86.94845833303883,-1.385781565432856,0.0,-6.189808791761311,0.0,-0.08232672746420293,0.0
sim_raptor_glider_3dof,raptor_glider_3dof,0.019000000000000003,-14.772885907237002,0.0,-0.0029807468995398166,11.905399815299745,0.0,-0.326539620461915,0.0,0.0,0.0,-15.269679162048527,-0.26650617710091556,-0.011188452010696038,0.0,0.0,0.0,0.0,0.0,-0.002750913041274287,-0.1576157070725143,0.0,0.0,11.90987711464189,0.0029807468995398166,0.03499919807999615,-0.027420983636359416,-1.5711066324606875,0.0,0.0,0.02467007059508513,1.4134909253881731,-5.104690243140158,0.0,-15.573580792458536,11.906253049104766,0.0,-0.2937877066081818,0.0,-10.621471830320163,0.0,0.0,-0.26650617710091556,0.0,0.040101614809155306,0.6108652381980153,1.0,0.14,0.14,0.75,0.08726646259971647,5.0,0.184,0.175,0.174,0.0,0.0,0.0,0.0033390585988516386,0.0,-0.0005878142690212662,0.0,7.500393046747083,0.0,-0.5174703715575975,0.0,0.16035538938431565,0.0,-6.56339178970118,0.0,-0.03812050991857245,0.0,-0.006850095581516034,0.5167753682045814,-0.057255111726072276,0.10024608747593007,0.0,0.0,0.0,0.505026877931497,0.10024608747593007,0.0,0.0,-0.04697432455676675,0.0,0.0,-0.0015663832814974455,0.0,1.2193157984514924,0.0,6.142755955960509,0.0,-0.07999030435414115,0.0,86.88018435092543,-1.3872767217567357,0.0,-6.107016051077121,0.0,-0.07999030435414115,0.0
sim_raptor_glider_3dof,raptor_glider_3dof,0.02,-14.760982145926071,0.0,-0.0032806923177964185,11.90029016487366,0.0,-0.34202601122005305,0.0,0.0,0.0,-15.869481470808532,-0.2769747022498413,-0.011632505283291789,0.0,0.0,0.0,0.0,0.0,-0.0030226788987525767,-0.17318674372177412,0.0,0.0,11.905204231786191,0.0032806923177964185,0.03498546601953096,-0.02873307095506112,-1.6462836981749316,0.0,0.0,0.025710392056308543,1.4730969544531576,-5.114515130523188,0.0,-15.39914658153181,11.901269634125182,0.0,-0.3060537475504879,0.0,-10.316443561724029,0.0,0.0,-0.2769747022498413,0.0,0.040101614809155306,0.6108652381980153,1.0,0.14,0.14,0.75,0.08726646259971647,5.0,0.184,0.175,0.174,0.0,0.0,0.0,0.003331066678045765,0.0,-0.0005929091061813307,0.0,7.500952643568225,0.0,-0.517606808774725,0.0,0.1588212183439759,0.0,-6.563491279931747,0.0,-0.037729015467288976,0.0,-0.006721459250711524,0.511041091974066,-0.0563501143558573,0.0999632079751555,0.0,0.0,0.0,0.49882540999822195,0.0999632079751555,0.0,0.0,-0.04566113577716691,0.0,0.0,-0.0016285507396608505,0.0,1.2149211525199786,0.0,6.062565960987487,0.0,-0.07769313646334366,0.0,86.81202222364014,-1.3885918438666884,0.0,-6.025159925621187,0.0,-0.07769313646334366,0.0
sim_raptor_glider_3dof,raptor_glider_3dof,0.02,-14.760982145926071,0.0,-0.0032806923177964185,11.90029016487366,0.0,-0.34202601122005305,0.0,0.0,0.0,-15.869481470808532,-0.2769747022498413,-0.011632505283291789,0.0,0.0,0.0,0.0,0.0,-0.0030226788987525767,-0.17318674372177412,0.0,0.0,11.905204231786191,0.0032806923177964185,0.03498546601953096,-0.02873307095506112,-1.6462836981749316,0.0,0.0,0.025710392056308543,1.4730969544531576,-5.103109006943407,0.0,-15.373173357357306,11.901269634125182,0.0,-0.3060537475504879,0.0,-10.0123447613521,0.0,0.0,-0.2769747022498413,0.0,0.03892074595383399,0.6108652381980153,1.0,0.14,0.14,0.75,0.08726646259971647,5.0,0.184,0.175,0.174,0.0,0.0,0.0,0.003410179461982475,0.0,-0.0006351568755764007,0.0,7.500857672972098,0.0,-0.5175880018891418,0.0,0.15880193601822812,0.0,-6.563302486502571,0.0,-0.03773492441309315,0.0,-0.006710495549254988,0.5104460721560041,-0.055003849199577196,0.09972211335447956,0.0,0.0,0.0,0.49823054484459467,0.09972211335447956,0.0,0.0,-0.04431517808056554,0.0,0.0,-0.0016285507396608505,0.0,1.2119909649004417,0.0,6.055336158416341,0.0,-0.07540296839774267,0.0,86.81202222364014,-1.3854551598822487,0.0,-6.018017288973199,0.0,-0.07540296839774267,0.0
sim_raptor_glider_3dof,raptor_glider_3dof,0.021,-14.749083366773153,0.0,-0.0035927422530214323,11.895182446222963,0.0,-0.3573104329977292,0.0,0.0,0.0,-16.434622182631564,-0.28683826840821763,-0.012051473386638329,0.0,0.0,0.0,0.0,0.0,-0.003304606831259403,-0.1893400243812644,0.0,0.0,11.900547725817495,0.0035927422530214323,0.03497178208533161,-0.03002921780538193,-1.720547442327489,0.0,0.0,0.02672461097412253,1.5312074179462245,-5.112264203048671,0.0,-15.195994809144397,11.89629826439908,0.0,-0.3179996523824668,0.0,-9.715771687793858,0.0,0.0,-0.28683826840821763,0.0,0.03892074595383399,0.6108652381980153,1.0,0.14,0.14,0.75,0.08726646259971647,5.0,0.184,0.175,0.174,0.0,0.0,0.0,0.003402553146748754,0.0,-0.0006400891976708297,0.0,7.501401500351696,0.0,-0.5177205044515215,0.0,0.15728599029701287,0.0,-6.563387613361157,0.0,-0.037348461055795534,0.0,-0.0065846656650372535,0.5047745267878679,-0.05410997749224928,0.09944728680980068,0.0,0.0,0.0,0.4921181151117111,0.09944728680980068,0.0,0.0,-0.04303618873144337,0.0,0.0,-0.001687206274129366,0.0,1.2077055111286865,0.0,5.976369781544431,0.0,-0.07316947658077555,0.0,86.74412559019481,-1.386599764209536,0.0,-5.937414375067828,0.0,-0.07316947658077555,0.0
sim_raptor_glider_3dof,raptor_glider_3dof,0.022,-14.737189553563944,0.0,-0.003916581189483908,11.890065867121207,0.0,-0.37241777679629773,0.0,0.0,0.0,-16.982934021907788,-0.2964081153312537,-0.012458418210717581,0.0,0.0,0.0,0.0,0.0,-0.0035962413145867273,-0.20604944943639844,0.0,0.0,11.89589682726589,0.003916581189483908,0.03495811462948041,-0.03131152219456991,-1.794018071879061,0.0,0.0,0.027715280879983182,1.5879686224426626,-5.120850144075697,0.0,-15.018684805451983,11.891328281689267,0.0,-0.32965591463165167,0.0,-9.424316613407143,0.0,0.0,-0.2964081153312537,0.0,0.03892074595383399,0.6108652381980153,1.0,0.14,0.14,0.75,0.08726646259971647,5.0,0.184,0.175,0.174,0.0,0.0,0.0,0.003395002661988127,0.0,-0.000644956621181976,0.0,7.501930596729777,0.0,-0.517849512943414,0.0,0.15578577404802388,0.0,-6.563461003900255,0.0,-0.03696630931911068,0.0,-0.006461362048847329,0.49915677866319597,-0.05322567935915484,0.09917931261164646,0.0,0.0,0.0,0.4860720722365387,0.09917931261164646,0.0,0.0,-0.041777831465669255,0.0,0.0,-0.0017441785495004615,0.0,1.2035099364969533,0.0,5.898332559341053,0.0,-0.0709745284155692,0.0,86.67633723242133,-1.387575611567609,0.0,-5.857763828459839,0.0,-0.0709745284155692,0.0
sim_raptor_glider_3dof,raptor_glider_3dof,0.023,-14.725300709421585,0.0,-0.004251944392549257,11.884940961892346,0.0,-0.3873477818405584,0.0,0.0,0.0,-17.514680709805646,-0.305688845821646,-0.012853518751553718,0.0,0.0,0.0,0.0,0.0,-0.003897312445404551,-0.22329955456549083,0.0,0.0,11.891251404783407,0.004251944392549257,0.03494446326598903,-0.032579944899950565,-1.8666933395359384,0.0,0.0,0.028682632454546015,1.6433937849704476,-5.128872042114898,0.0,-14.841315176102064,11.88636031306849,0.0,-0.34102562905692474,0.0,-9.137938879726976,0.0,0.0,-0.305688845821646,0.0,0.03892074595383399,0.6108652381980153,1.0,0.14,0.14,0.75,0.08726646259971647,5.0,0.184,0.175,0.174,0.0,0.0,0.0,0.0033875215404092374,0.0,-0.0006497529410686567,0.0,7.502445231093572,0.0,-0.5179750893916154,0.0,0.1543013542222923,0.0,-6.56352300720766,0.0,-0.03658847081139143,0.0,-0.006340546251449513,0.4935934813054097,-0.05235099125700888,0.09891808817478658,0.0,0.0,0.0,0.48009288644095843,0.09891808817478658,0.0,0.0,-0.04053998001009317,0.0,0.0,-0.0017994926252175205,0.0,1.1994027620334082,0.0,5.821227893248446,0.0,-0.06881781770322386,0.0,86.60865514115966,-1.3883879977253375,0.0,-5.779069123871019,0.0,-0.06881781770322386,0.0
sim_raptor_glider_3dof,raptor_glider_3dof,0.024,-14.71341683200857,0.0,-0.004598539901277116,11.879808305576613,0.0,-0.40210041853878287,0.0,0.0,0.0,-18.030159015126554,-0.31468563947209643,-0.013236978537637733,0.0,0.0,0.0,0.0,0.0,-0.004207526292418637,-0.24107349874591494,0.0,0.0,11.88661138103859,0.004598539901277116,0.03493082776760583,-0.033834465914302336,-1.938572098968766,0.0,0.0,0.0296269396218837,1.697498600222851,-5.136336140994623,0.0,-14.663958887614207,11.88139499305152,0.0,-0.3521124009835411,0.0,-8.856589803435284,0.0,0.0,-0.31468563947209643,0.0,0.03892074595383399,0.6108652381980153,1.0,0.14,0.14,0.75,0.08726646259971647,5.0,0.184,0.175,0.174,0.0,0.0,0.0,0.00338010364732164,0.0,-0.0006544724413320797,0.0,7.502945678163017,0.0,-0.518097297275002,0.0,0.15283277476386026,0.0,-6.563573970461358,0.0,-0.036214941732196144,0.0,-0.006222178554962153,0.48808518478900986,-0.051485935729618064,0.0986635070103206,0.0,0.0,0.0,0.4741808984614831,0.0986635070103206,0.0,0.0,-0.03932247144081081,0.0,0.0,-0.0018531769952692828,0.0,1.1953824771690706,0.0,5.745057663213317,0.0,-0.06669897780967113,0.0,86.54107809689154,-1.389042195647078,0.0,-5.701332177577524,0.0,-0.06669897780967113,0.0
sim_raptor_glider_3dof,raptor_glider_3dof,0.025,-14.70153791832009,0.0,-0.004956079301023297,11.874668467049725,0.0,-0.4166757340414852,0.0,0.0,0.0,-18.529663045007382,-0.32340362942049705,-0.013608999498905176,0.0,0.0,0.0,0.0,0.0,-0.004526594158390384,-0.2593547408443419,0.0,0.0,11.881976681919726,0.004956079301023297,0.03491720791654097,-0.035075071605420144,-2.009653569109727,0.0,0.0,0.030548477447029758,1.750298828265385,-5.143249050162805,0.0,-14.486686203376108,11.876432926456925,0.0,-0.362919843841434,0.0,-8.580220024607172,0.0,0.0,-0.32340362942049705,0.0,0.03892074595383399,0.6108652381980153,1.0,0.14,0.14,0.75,0.08726646259971647,5.0,0.184,0.175,0.174,0.0,0.0,0.0,0.0033727432446567685,0.0,-0.0006591098351252819,0.0,7.503432212720756,0.0,-0.5182162001452788,0.0,0.15138007162358774,0.0,-6.563614237752206,0.0,-0.035845716699753886,0.0,-0.006106219249531279,0.4826323921959008,-0.050630530280962205,0.09841546158789861,0.0,0.0,0.0,0.4683364034646828,0.09841546158789861,0.0,0.0,-0.038125139078801475,0.0,0.0,-0.0019052599298467249,0.0,1.191447564193652,0.0,5.669823197779164,0.0,-0.06461763700531661,0.0,86.47360492882981,-1.389543424085065,0.0,-5.624554334778861,0.0,-0.06461763700531661,0.0
sim_raptor_glider_3dof,raptor_glider_3dof,0.026000000000000002,-14.689663964837791,0.0,-0.005324287938901188,11.869521988383811,0.0,-0.4310738461849607,0.0,0.0,0.0,-19.013473742585305,-0.33184771904960236,-0.013969774269024767,0.0,0.0,0.0,0.0,0.0,-0.0048542426615523875,-0.2781276172393035,0.0,0.0,11.877347216175481,0.005324287938901188,0.03490360344463687,-0.03630175428311038,-2.079937309343184,0.0,0.0,0.031447511621558,1.8018096921038809,-5.149617532516162,0.0,-14.309562896008009,11.871474672734498,0.0,-0.37345145362523396,0.0,-8.308781143876361,0.0,0.0,-0.33184771904960236,0.0,0.03892074595383399,0.6108652381980153,1.0,0.14,0.14,0.75,0.08726646259971647,5.0,0.184,0.175,0.174,0.0,0.0,0.0,0.0033654349816141164,0.0,-0.0006636602517823486,0.0,7.503905109216002,0.0,-0.5183318615319471,0.0,0.1499432732653839,0.0,-6.563644149804335,0.0,-0.035480788877330416,0.0,-0.005992628696201485,0.47723556184491567,-0.049784787692054515,0.09817384353835355,0.0,0.0,0.0,0.46255966137324556,0.09817384353835355,0.0,0.0,-0.0369478198903585,0.0,0.0,-0.0019557683976634673,0.0,1.1875964966481003,0.0,5.595525381696905,0.0,-0.06257343079453288,0.0,86.4062342185983,-1.3898968412343464,0.0,-5.548736478405865,0.0,-0.06257343079453288,0.0
sim_raptor_glider_3dof,raptor_glider_3dof,0.027,-14.677794967500793,0.0,-0.00570289159922733,11.86436941076982,0.0,-0.4452949337763765,0.0,0.0,0.0,-19.48187233449579,-0.3400228166901456,-0.014319496021012023,0.0,0.0,0.0,0.0,0.0,-0.00519020015222402,-0.2973765635505937,0.0,0.0,11.87272290139282,0.00570289159922733,0.034890014109708836,-0.03751451132277332,-2.1494231692906505,0.0,0.0,0.032324311170549305,1.8520466057400569,-5.155448704562672,0.0,-14.132652877349976,11.866520768339916,0.0,-0.3837107606191848,0.0,-8.042223868460026,0.0,0.0,-0.3400228166901456,0.0,0.03892074595383399,0.6108652381980153,1.0,0.14,0.14,0.75,0.08726646259971647,5.0,0.184,0.175,0.174,0.0,0.0,0.0,0.00335817388767763,0.0,-0.0006681192219704232,0.0,7.504364641225944,0.0,-0.5184443448120781,0.0,0.14852240169354053,0.0,-6.563664043719548,0.0,-0.035120150230742164,0.0,-0.005881367426891519,0.4718951115017054,-0.048948716643860544,0.0979385439320442,0.0,0.0,0.0,0.45685089075486923,0.0979385439320442,0.0,0.0,-0.0357903460818383,0.0,0.0,-0.0020047294429416836,0.0,1.1838277479302628,0.0,5.522164608834031,0.0,-0.06056598795337246,0.0,86.33896467853755,-1.390107541549813,0.0,-5.473878983568698,0.0,-0.06056598795337246,0.0
sim_raptor_glider_3dof,raptor_glider_3dof,0.028,-14.66593092168867,0.0,-0.006091619832045497,11.859211267675025,0.0,-0.45933924269177967,0.0,0.0,0.0,-19.935137023102403,-0.3479337778893578,-0.01465835604081513,0.0,0.0,0.0,0.0,0.0,-0.00553420019530764,-0.3170863141716037,0.0,0.0,11.868103657755393,0.006091619832045497,0.03487643967720295,-0.038713345709193304,-2.218111319967671,0.0,0.0,0.03317914551388566,1.9010250057960674,-5.160749959449602,0.0,-13.95601751661162,11.861571722252611,0.0,-0.3937012942373527,0.0,-7.780498427810553,0.0,0.0,-0.3479337778893578,0.0,0.03892074595383399,0.6108652381980153,1.0,0.14,0.14,0.75,0.08726646259971647,5.0,0.184,0.175,0.174,0.0,0.0,0.0,0.0033509553569379333,0.0,-0.000672482667905302,0.0,7.504811081482071,0.0,-0.5185537132180329,0.0,0.14711747181771537,0.0,-6.563674252777656,0.0,-0.03476379136286148,0.0,-0.0057723961103907755,0.46661141635992953,-0.04812232136135871,0.09770945327058896,0.0,0.0,0.0,0.4512102693607309,0.09770945327058896,0.0,0.0,-0.03465254698271825,0.0,0.0,-0.0020521698457141185,0.0,1.1801397899275428,0.0,5.449740784260488,0.0,-0.058594933659841274,0.0,86.27179506070597,-1.3901805523974904,0.0,-5.399981719518887,0.0,-0.058594933659841274,0.0
sim_raptor_glider_3dof,raptor_glider_3dof,0.029,-14.654071822285605,0.0,-0.006490205717332644,11.854048085037094,0.0,-0.47320707892659036,0.0,0.0,0.0,-20.37354314486221,-0.35558540817496564,-0.014986543837803547,0.0,0.0,0.0,0.0,0.0,-0.00588598118630438,-0.3372418802686465,0.0,0.0,11.863489408345162,0.006490205717332644,0.034862879921082494,-0.039898265462939335,-2.2860022209189994,0.0,0.0,0.034012284276634955,1.948760340650353,-5.165528944492774,0.0,-13.779715807078965,11.856628017099569,0.0,-0.40342658073980525,0.0,-7.523554647149838,0.0,0.0,-0.35558540817496564,0.0,0.03892074595383399,0.6108652381980153,1.0,0.14,0.14,0.75,0.08726646259971647,5.0,0.184,0.175,0.174,0.0,0.0,0.0,0.0033437751388610787,0.0,-0.0006767468892325648,0.0,7.505244701475874,0.0,-0.5186600297421843,0.0,0.1457284921274263,0.0,-6.563675106222055,0.0,-0.034411701680193696,0.0,-0.005665675620341066,0.4613848119515471,-0.04730560202828437,0.09748646169498042,0.0,0.0,0.0,0.44563793692905157,0.09748646169498042,0.0,0.0,-0.03353424936797483,0.0,0.0,-0.0020981161372924965,0.0,1.1765310955811923,0.0,5.378253360021948,0.0,-0.05665989004768543,0.0,86.20472416118443,-1.3901208299796812,0.0,-5.327044086687612,0.0,-0.05665989004768543,0.0
sim_raptor_glider_3dof,raptor_glider_3dof,0.03,-14.642217663724235,0.0,-0.006898385742150854,11.848880381257555,0.0,-0.4868988041734816,0.0,0.0,0.0,-20.797363244143085,-0.36298246434354614,-0.015304247193527572,0.0,0.0,0.0,0.0,0.0,-0.006245286138857312,-0.35782853760807776,0.0,0.0,11.858880079284711,0.006898385742150854,0.034849334624246116,-0.041069283278970414,-2.3530965995122073,0.0,0.0,0.034823997140113104,1.9952680619041299,-5.169793539611971,0.0,-13.60380447578017,11.85169011010498,0.0,-0.4128901414366166,0.0,-7.271342000297616,0.0,0.0,-0.36298246434354614,0.0,0.03892074595383399,0.6108652381980153,1.0,0.14,0.14,0.75,0.08726646259971647,5.0,0.184,0.175,0.174,0.0,0.0,0.0,0.0033366293276918396,0.0,-0.0006809085496180373,0.0,7.505665771168246,0.0,-0.5187633570667257,0.0,0.14435546511922612,0.0,-6.5636669290771374,0.0,-0.03406386949580407,0.0,-0.005561167080596713,0.4562155961416987,-0.04649855505567301,0.0972694591428485,0.0,0.0,0.0,0.44013399713774465,0.0972694591428485,0.0,0.0,-0.03243527769067202,0.0,0.0,-0.0021425946070938603,0.0,1.1730001407940125,0.0,5.3077013603273855,0.0,-0.05476047660424135,0.0,86.13775082205709,-1.389933255966789,0.0,-5.255065042859271,0.0,-0.05476047660424135,0.0
sim_raptor_glider_3dof,raptor_glider_3dof,0.03,-14.642217663724235,0.0,-0.006898385742150854,11.848880381257555,0.0,-0.4868988041734816,0.0,0.0,0.0,-20.797363244143085,-0.36298246434354614,-0.015304247193527572,0.0,0.0,0.0,0.0,0.0,-0.006245286138857312,-0.35782853760807776,0.0,0.0,11.858880079284711,0.006898385742150854,0.034849334624246116,-0.041069283278970414,-2.3530965995122073,0.0,0.0,0.034823997140113104,1.9952680619041299,-5.158030241281852,0.0,-13.57734989910644,11.85169011010498,0.0,-0.4128901414366166,0.0,-6.958670225003786,0.0,0.0,-0.36298246434354614,0.0,0.03769559639529674,0.6108652381980153,1.0,0.14,0.14,0.75,0.08726646259971647,5.0,0.184,0.175,0.174,0.0,0.0,0.0,0.0034089380450744275,0.0,-0.0007217279708213361,0.0,7.5055614357903755,0.0,-0.5187444426502654,0.0,0.1443363851707722,0.0,-6.563431356166068,0.0,-0.03406711815457205,0.0,-0.005550745312131841,0.45560159723109817,-0.04510331522588202,0.0970262039369544,0.0,0.0,0.0,0.43952022177556205,0.0970262039369544,0.0,0.0,-0.031040542598129862,0.0,0.0,-0.0021425946070938603,0.0,1.1700666569104061,0.0,5.3002996682382095,0.0,-0.052405745464503516,0.0,86.13775082205709,-1.386698348926006,0.0,-5.247790034273995,0.0,-0.052405745464503516,0.0
sim_raptor_glider_3dof,raptor_glider_3dof,0.031,-14.630368444551872,0.0,-0.007315886250255049,11.84372052770937,0.0,-0.5003867682299019,0.0,0.0,0.0,-21.189039433139126,-0.3698185034431906,-0.015598514122700507,0.0,0.0,0.0,0.0,0.0,-0.0066117022365105175,-0.3788226335492599,0.0,0.0,11.85428626515759,0.007315886250255049,0.03483583492067822,-0.04222400869486104,-2.419257492339229,0.0,0.0,0.03561230645835052,2.040434858789969,-5.161658259652653,0.0,-13.399367479407076,11.846770041071823,0.0,-0.42206924818924246,0.0,-6.7145073196237135,0.0,0.0,-0.3698185034431906,0.0,0.03769559639529674,0.6108652381980153,1.0,0.14,0.14,0.75,0.08726646259971647,5.0,0.184,0.175,0.174,0.0,0.0,0.0,0.0034020386487748893,0.0,-0.0007256918761262957,0.0,7.505969495252122,0.0,-0.518844506146343,0.0,0.14298218699499865,0.0,-6.563412488726379,0.0,-0.033724290546418415,0.0,-0.005448645601259803,0.45050103943481434,-0.04430775082295652,0.09681613153153593,0.0,0.0,0.0,0.4341095634701394,0.09681613153153593,0.0,0.0,-0.0299746232871655,0.0,0.0,-0.002183791977178071,0.0,1.166628966474301,0.0,5.230995944129563,0.0,-0.05056695462408619,0.0,86.07102880918845,-1.386397141586177,0.0,-5.1770884364397824,0.0,-0.05056695462408619,0.0
sim_raptor_glider_3dof,raptor_glider_3dof,0.032,-14.618524131244685,0.0,-0.007742418579301612,11.838557305317888,0.0,-0.5136974313516038,0.0,0.0,0.0,-21.56688994636767,-0.3764132389793791,-0.01588282097435604,0.0,0.0,0.0,0.0,0.0,-0.006984818115908439,-0.400200598708073,0.0,0.0,11.849697216480797,0.007742418579301612,0.03482234922119603,-0.04336469180011298,-2.4846138200320422,0.0,0.0,0.03637987368420454,2.0844132213239694,-5.16478646372631,0.0,-13.221958240896402,11.841856572543874,0.0,-0.43099540319147905,0.0,-6.47496377836441,0.0,0.0,-0.3764132389793791,0.0,0.03769559639529674,0.6108652381980153,1.0,0.14,0.14,0.75,0.08726646259971647,5.0,0.184,0.175,0.174,0.0,0.0,0.0,0.0033951651964540916,0.0,-0.0007295480624307554,0.0,7.506365507539333,0.0,-0.5189416986262408,0.0,0.14164413885184995,0.0,-6.5633852907175765,0.0,-0.03338574300011899,0.0,-0.0053486931383591885,0.4454591682288162,-0.04352196600566361,0.0966118416848082,0.0,0.0,0.0,0.42876805189541023,0.0966118416848082,0.0,0.0,-0.028927655707517146,0.0,0.0,-0.0022235949364098452,0.0,1.163266111428135,0.0,5.1626315753322425,0.0,-0.048762952214862376,0.0,86.00440182235619,-1.3859782913184575,0.0,-5.107349312961526,0.0,-0.048762952214862376,0.0
sim_raptor_glider_3dof,raptor_glider_3dof,0.033,-14.606684727920285,0.0,-0.008177752096443497,11.833391200459946,0.0,-0.5268309966802935,0.0,0.0,0.0,-21.93114670707365,-0.3827707187763476,-0.016157326820489256,0.0,0.0,0.0,0.0,0.0,-0.007364410139592786,-0.4219496196020161,0.0,0.0,11.845112840415918,0.008177752096443497,0.0348088772529781,-0.044491331773323844,-2.549165535527757,0.0,0.0,0.03712692163373106,2.127215915925741,-5.16742304672366,0.0,-13.045171910811952,11.836950077129561,0.0,-0.43967155210277853,0.0,-6.239997105943925,0.0,0.0,-0.3827707187763476,0.0,0.03769559639529674,0.6108652381980153,1.0,0.14,0.14,0.75,0.08726646259971647,5.0,0.184,0.175,0.174,0.0,0.0,0.0,0.003388314952476824,0.0,-0.000733294203953571,0.0,7.506749730656845,0.0,-0.5190360800220416,0.0,0.14032225758533345,0.0,-6.5633500777498055,0.0,-0.03305146857229739,0.0,-0.005250852003169681,0.44047629244598324,-0.04274596478955907,0.09641322759676227,0.0,0.0,0.0,0.4234958312198853,0.09641322759676227,0.0,0.0,-0.02789949787547086,0.0,0.0,-0.0022620257548684962,0.0,1.159976617592208,0.0,5.095206063605945,0.0,-0.046993418204863704,0.0,85.9378684340821,-1.3854464545193552,0.0,-5.038572089950406,0.0,-0.046993418204863704,0.0
sim_raptor_glider_3dof,raptor_glider_3dof,0.034,-14.594850228323677,0.0,-0.008621668455794377,11.828222641595394,0.0,-0.5397880288611606,0.0,0.0,0.0,-22.28203897751194,-0.38889494421529414,-0.01642218909684829,0.0,0.0,0.0,0.0,0.0,-0.007750271534998203,-0.44405784903577517,0.0,0.0,11.840533010606057,0.008621668455794377,0.034795418644703216,-0.04560395847076257,-2.612914349464575,0.0,0.0,0.037853686935764366,2.1688565004288,-5.169576367384756,0.0,-12.869050793657188,11.832050864084254,0.0,-0.44810079778417927,0.0,-6.009560396844626,0.0,0.0,-0.38889494421529414,0.0,0.03769559639529674,0.6108652381980153,1.0,0.14,0.14,0.75,0.08726646259971647,5.0,0.184,0.175,0.174,0.0,0.0,0.0,0.0033814853255440644,0.0,-0.0007369283804298336,0.0,7.507122429742436,0.0,-0.5191277120808506,0.0,0.1390165235797717,0.0,-6.563307160192148,0.0,-0.0327214515013127,0.0,-0.005155084256393324,0.43555256996080594,-0.04197972957271802,0.09622017784183624,0.0,0.0,0.0,0.41829289618478693,0.09622017784183624,0.0,0.0,-0.02688998759276568,0.0,0.0,-0.002299106473558761,0.0,1.1567589532477986,0.0,5.028717090266295,0.0,-0.04525799934863688,0.0,85.87142673288068,-1.3848062171560809,0.0,-4.970754328145893,0.0,-0.04525799934863688,0.0
sim_raptor_glider_3dof,raptor_glider_3dof,0.034999999999999996,-14.583020623873796,0.0,-0.009073882945993874,11.823052185287493,0.0,-0.5525693166864822,0.0,0.0,0.0,-22.619866336312988,-0.3947911439296886,-0.016677617152596347,0.0,0.0,0.0,0.0,0.0,-0.00814213382596272,-0.4665099044583694,0.0,0.0,11.835957748563262,0.009073882945993874,0.03478197345958818,-0.0467026201774762,-2.675863028371906,0.0,0.0,0.03856048635151348,2.209353123913537,-5.171256340872431,0.0,-12.693645450984743,11.827159330326705,0.0,-0.4562871911863105,0.0,-5.783593439851352,0.0,0.0,-0.3947911439296886,0.0,0.03769559639529674,0.6108652381980153,1.0,0.14,0.14,0.75,0.08726646259971647,5.0,0.184,0.175,0.174,0.0,0.0,0.0,0.003374673924240521,0.0,-0.0007404490182538888,0.0,7.507483872156181,0.0,-0.5192166571666414,0.0,0.13772689510987196,0.0,-6.563256842678804,0.0,-0.03239567084463897,0.0,-0.005061351089247076,0.43068806203172855,-0.04122322960270694,0.09603257888417943,0.0,0.0,0.0,0.4131590901798528,0.09603257888417943,0.0,0.0,-0.025898901717217183,0.0,0.0,-0.002334866401363489,0.0,1.1536115949765984,0.0,4.963160653805791,0.0,-0.04355624219552054,0.0,85.80507695413874,-1.3840620867397315,0.0,-4.903891875602483,0.0,-0.04355624219552054,0.0
sim_raptor_glider_3dof,raptor_glider_3dof,0.036,-14.571195906986187,0.0,-0.009534163546421578,11.817880282436663,0.0,-0.5651755748024205,0.0,0.0,0.0,-22.94487383899617,-0.40046359494519446,-0.016923780606724146,0.0,0.0,0.0,0.0,0.0,-0.008539779837802918,-0.4892933426770219,0.0,0.0,11.831386977035217,0.009534163546421578,0.03476854147061394,-0.047787359337894394,-2.7380140041364327,0.0,0.0,0.03924757950009147,2.248720661459411,-5.1724719778078025,0.0,-12.518997118215966,11.82227577513091,0.0,-0.4642340973165526,0.0,-5.56204503588866,0.0,0.0,-0.40046359494519446,0.0,0.03769559639529674,0.6108652381980153,1.0,0.14,0.14,0.75,0.08726646259971647,5.0,0.184,0.175,0.174,0.0,0.0,0.0,0.003367878691837978,0.0,-0.0007438547979570932,0.0,7.507834319187717,0.0,-0.5193029762226231,0.0,0.13645333682632693,0.0,-6.563199424857425,0.0,-0.032074107671683706,0.0,-0.004969614925400664,0.42588284113220176,-0.04047643771190028,0.09585031938485461,0.0,0.0,0.0,0.40809430941326236,0.09585031938485461,0.0,0.0,-0.024926057111675157,0.0,0.0,-0.0023693292849413807,0.0,1.1505330311340813,0.0,4.898533315393424,0.0,-0.0418877611652775,0.0,85.73881790140075,-1.383218471081467,0.0,-4.837981144962113,0.0,-0.0418877611652775,0.0
sim_raptor_glider_3dof,raptor_glider_3dof,0.037,-14.559376069542116,0.0,-0.010002272756923178,11.812707392247619,0.0,-0.5776075801221486,0.0,0.0,0.0,-23.25731287190624,-0.4059166847812221,-0.017160854008695763,0.0,0.0,0.0,0.0,0.0,-0.00894298825808283,-0.512395483423198,0.0,0.0,11.826820640031542,0.010002272756923178,0.03475512251324324,-0.048858223643188946,-2.7993700092610196,0.0,0.0,0.039915235385106114,2.2869745258378216,-5.173232555783566,0.0,-12.345146463825365,11.817400491669064,0.0,-0.471944987234552,0.0,-5.344862243014418,0.0,0.0,-0.4059166847812221,0.0,0.03769559639529674,0.6108652381980153,1.0,0.14,0.14,0.75,0.08726646259971647,5.0,0.184,0.175,0.174,0.0,0.0,0.0,0.003361097825459963,0.0,-0.0007471446785717272,0.0,7.508174029742655,0.0,-0.5193867296771362,0.0,0.1351958067539849,0.0,-6.563135200937261,0.0,-0.031756741767469725,0.0,-0.004879838462474166,0.42113694236824545,-0.039739322701146704,0.09567328831231449,0.0,0.0,0.0,0.4030984073927642,0.09567328831231449,0.0,0.0,-0.023971261997980397,0.0,0.0,-0.002402519561217407,0.0,1.147521762577684,0.0,4.834831154058532,0.0,-0.040252157552141586,0.0,85.67264868805614,-1.3822796868523193,0.0,-4.7730180547699375,0.0,-0.040252157552141586,0.0
sim_raptor_glider_3dof,raptor_glider_3dof,0.038,-14.547561103148096,0.0,-0.010477976080989028,11.807533965676567,0.0,-0.589866147458695,0.0,0.0,0.0,-23.55743223009138,-0.41115475573052496,-0.01738901028452432,0.0,0.0,0.0,0.0,0.0,-0.009351541633563876,-0.5358038675440856,0.0,0.0,11.822258685315745,0.010477976080989028,0.034741716433970275,-0.04991526404597044,-2.8599339631152074,0.0,0.0,0.040563722412406564,2.3241300955711224,-5.173547429725244,0.0,-12.172132406401131,11.812533754596295,0.0,-0.4794233192562972,0.0,-5.131992016020108,0.0,0.0,-0.41115475573052496,0.0,0.03769559639529674,0.6108652381980153,1.0,0.14,0.14,0.75,0.08726646259971647,5.0,0.184,0.175,0.174,0.0,0.0,0.0,0.0033543297751585078,0.0,-0.0007503178789530285,0.0,7.50850325960717,0.0,-0.5194679772629288,0.0,0.1339542586296324,0.0,-6.563064459689781,0.0,-0.03144355221449348,0.0,-0.0047919848442361124,0.41645037272384156,-0.03901185072682326,0.09550137534093255,0.0,0.0,0.0,0.39817121106746445,0.09550137534093255,0.0,0.0,-0.023034323372567427,0.0,0.0,-0.0024344614398334056,0.0,1.1445763039706653,0.0,4.772049946759143,0.0,-0.038649031872647434,0.0,85.60656848318497,-1.3812499571930439,0.0,-4.70899821254259,0.0,-0.038649031872647434,0.0
sim_raptor_glider_3dof,raptor_glider_3dof,0.039,-14.535750999107554,0.0,-0.010961042930771568,11.802360443063806,0.0,-0.6019521349714463,0.0,0.0,0.0,-23.845477267281883,-0.4161820900235288,-0.017608420107480614,0.0,0.0,0.0,0.0,0.0,-0.009765227406644029,-0.559506316386185,0.0,0.0,11.817701062423012,0.010961042930771568,0.03472832308449561,-0.05095853523840091,-2.9197089993290546,0.0,0.0,0.041193307831756884,2.3602026829428695,-5.173426001178955,0.0,-11.999991892409925,11.80767581902142,0.0,-0.48667253229543306,0.0,-4.9233812655434805,0.0,0.0,-0.4161820900235288,0.0,0.03769559639529674,0.6108652381980153,1.0,0.14,0.14,0.75,0.08726646259971647,5.0,0.184,0.175,0.174,0.0,0.0,0.0,0.0033475732278815816,0.0,-0.0007533738671537053,0.0,7.508822261531955,0.0,-0.5195467780379703,0.0,0.13272864134849885,0.0,-6.562987484347253,0.0,-0.03113451724403572,0.0,-0.00470601762153827,0.4118231093982264,-0.038293984991399924,0.09533447082495669,0.0,0.0,0.0,0.3933125198331424,0.09533447082495669,0.0,0.0,-0.022115047281566592,0.0,0.0,-0.0024651788150472863,0.0,1.1416951830263131,0.0,4.71018515581763,0.0,-0.03707798431080796,0.0,85.54057648275405,-1.3801334109476457,0.0,-4.6459169020782385,0.0,-0.03707798431080796,0.0
sim_raptor_glider_3dof,raptor_glider_3dof,0.04,-14.52394574849996,0.0,-0.011451245885283933,11.797187256029519,0.0,-0.6138664338088988,0.0,0.0,0.0,-24.121690524631475,-0.4210029208019376,-0.017819252354797064,0.0,0.0,0.0,0.0,0.0,-0.010183836943317343,-0.5834908761014928,0.0,0.0,11.813147724141206,0.011451245885283933,0.034714942326078364,-0.051988094777705926,-2.9786984156886653,0.0,0.0,0.04180425783438858,2.395207539587173,-5.172877715959568,0.0,-11.828760208143818,11.802826922625735,0.0,-0.4936960471014788,0.0,-4.718976905044308,0.0,0.0,-0.4210029208019376,0.0,0.03769559639529674,0.6108652381980153,1.0,0.14,0.14,0.75,0.08726646259971647,5.0,0.184,0.175,0.174,0.0,0.0,0.0,0.003340827100279402,0.0,-0.000756312345908629,0.0,7.509131284901555,0.0,-0.519623190303851,0.0,0.13151889999964825,0.0,-6.562904552599731,0.0,-0.03082961448821007,0.0,-0.004621900824899733,0.4072551041369218,-0.03758568636460095,0.09517246598950638,0.0,0.0,0.0,0.38852210939058707,0.09517246598950638,0.0,0.0,-0.021213239028149988,0.0,0.0,-0.0024946953296715894,0.0,1.1388769430243784,0.0,4.649231977333888,0.0,-0.035538615071888685,0.0,85.47467193099658,-1.378934081982245,0.0,-4.583769133362227,0.0,-0.035538615071888685,0.0
sim_raptor_glider_3dof,raptor_glider_3dof,0.04,-14.52394574849996,0.0,-0.011451245885283933,11.797187256029519,0.0,-0.6138664338088988,0.0,0.0,0.0,-24.121690524631475,-0.4210029208019376,-0.017819252354797064,0.0,0.0,0.0,0.0,0.0,-0.010183836943317343,-0.5834908761014928,0.0,0.0,11.813147724141206,0.011451245885283933,0.034714942326078364,-0.051988094777705926,-2.9786984156886653,0.0,0.0,0.04180425783438858,2.395207539587173,-5.161117810075468,0.0,-11.802595390748484,11.802826922625735,0.0,-0.4936960471014788,0.0,-4.406771880385628,0.0,0.0,-0.4210029208019376,0.0,0.036460928676833704,0.6108652381980153,1.0,0.14,0.14,0.75,0.08726646259971647,5.0,0.184,0.175,0.174,0.0,0.0,0.0,0.0034015525686493923,0.0,-0.0007945383136697416,0.0,7.509019136171953,0.0,-0.5196053113270966,0.0,0.1315004213386344,0.0,-6.562626934601162,0.0,-0.030829112601730036,0.0,-0.004612346869326181,0.4066403018178028,-0.0361815370797008,0.09493382369755633,0.0,0.0,0.0,0.38790758684838006,0.09493382369755633,0.0,0.0,-0.019809782315574304,0.0,0.0,-0.0024946953296715894,0.0,1.1360212409985175,0.0,4.641878321557379,0.0,-0.033187399031184166,0.0,85.47467193099658,-1.3757001078641178,0.0,-4.576573808578511,0.0,-0.033187399031184166,0.0
sim_raptor_glider_3dof,raptor_glider_3dof,0.041,-14.512145355633818,0.0,-0.011948358124088782,11.792026701288094,0.0,-0.6255819150395938,0.0,0.0,0.0,-24.368491847434317,-0.42531041648312456,-0.018008489254426073,0.0,0.0,0.0,0.0,0.0,-0.010607012116036553,-0.607737027493023,0.0,0.0,11.80860899752024,0.011948358124088782,0.03470160450650986,-0.05300157751231924,-3.0367666989913853,0.0,0.0,0.04239456539628268,2.429029671498362,-5.159997089074995,0.0,-11.629801906509725,11.797998785201486,0.0,-0.5004708989544471,0.0,-4.2098764407093805,0.0,0.0,-0.42531041648312456,0.0,0.036460928676833704,0.6108652381980153,1.0,0.14,0.14,0.75,0.08726646259971647,5.0,0.184,0.175,0.174,0.0,0.0,0.0,0.0033949640808733105,0.0,-0.0007972879393659582,0.0,7.5093178020081055,0.0,-0.5196791177569864,0.0,0.1303093787507713,0.0,-6.5625366458998196,0.0,-0.030529033969917557,0.0,-0.00453026771838625,0.40214265657426307,-0.035484619691741076,0.09477755056068589,0.0,0.0,0.0,0.3832102509218884,0.09477755056068589,0.0,0.0,-0.018939227798016083,0.0,0.0,-0.0025211884956196505,0.0,1.1332798691847519,0.0,4.582144827186076,0.0,-0.03170457947498235,0.0,85.40900414259379,-1.3744356695057798,0.0,-4.515672825792157,0.0,-0.03170457947498235,0.0
sim_raptor_glider_3dof,raptor_glider_3dof,0.042,-14.500349766216084,0.0,-0.012452108042958324,11.786867468396357,0.0,-0.6371258438929508,0.0,0.0,0.0,-24.604176339680645,-0.429423886868714,-0.018189646634885794,0.0,0.0,0.0,0.0,0.0,-0.011034379275999836,-0.6322233620614116,0.0,0.0,11.804074468525545,0.012452108042958324,0.03468827902237957,-0.05400132041517626,-3.09404774792325,0.0,0.0,0.04296694113917642,2.4618243858618385,-5.1584686037158365,0.0,-11.458055419623399,11.793180051309804,0.0,-0.5070289300278058,0.0,-4.017064445990933,0.0,0.0,-0.429423886868714,0.0,0.036460928676833704,0.6108652381980153,1.0,0.14,0.14,0.75,0.08726646259971647,5.0,0.184,0.175,0.174,0.0,0.0,0.0,0.0033883872317964484,0.0,-0.0007999250888086955,0.0,7.509606961565794,0.0,-0.5197506484030058,0.0,0.12913426700836256,0.0,-6.5624410082464575,0.0,-0.03023308264605657,0.0,-0.00444998024521338,0.39770478293518086,-0.03479728756452013,0.09462596797354673,0.0,0.0,0.0,0.37858118935549445,0.09462596797354673,0.0,0.0,-0.018085699944199986,0.0,0.0,-0.0025465505288840115,0.0,1.1305985521700084,0.0,4.523318003825106,0.0,-0.030252512342757717,0.0,85.34342228688324,-1.3730969029371523,0.0,-4.455700140835519,0.0,-0.030252512342757717,0.0
sim_raptor_glider_3dof,raptor_glider_3dof,0.043000000000000003,-14.488558990740763,0.0,-0.012962308883619829,11.781709963252906,0.0,-0.6484985658309886,0.0,0.0,0.0,-24.82892932986569,-0.43334656655114556,-0.018362852170809185,0.0,0.0,0.0,0.0,0.0,-0.011465764582763658,-0.656939919482935,0.0,0.0,11.799544061026156,0.012962308883619829,0.034674965649963724,-0.05498733498463086,-3.1505422212914076,0.0,0.0,0.0435215704018672,2.493602301808473,-5.156541299632848,0.0,-11.287388705688464,11.788370906778443,0.0,-0.5133725862540875,0.0,-3.8282979255739304,0.0,0.0,-0.43334656655114556,0.0,0.036460928676833704,0.6108652381980153,1.0,0.14,0.14,0.75,0.08726646259971647,5.0,0.184,0.175,0.174,0.0,0.0,0.0,0.0033818274885410236,0.0,-0.0008024558109355603,0.0,7.509886840308556,0.0,-0.5198199571518116,0.0,0.127975082867301,0.0,-6.5623402887405895,0.0,-0.029941251897692967,0.0,-0.004371456785778754,0.393326805441333,-0.034119529616356704,0.09447897803978149,0.0,0.0,0.0,0.3740203935798002,0.09447897803978149,0.0,0.0,-0.017249069770020282,0.0,0.0,-0.0025707993039132864,0.0,1.1279759710286523,0.0,4.46539564023495,0.0,-0.02883091167749727,0.0,85.27792519348323,-1.3716876110661256,0.0,-4.396653399199787,0.0,-0.02883091167749727,0.0
