name,vehicle,t,north,east,down,u,v,w,p_rad,p_deg,p_hat_div_b,q_deg,q_rad,q_hat_div_c,r_rad,r_deg,r_hat_div_b,phi_rad,phi_deg,theta_rad,theta_deg,psi_rad,psi_deg,speed,altitude,mach,alpha_rad,alpha_deg,beta_rad,beta_deg,gamma_rad,gamma_deg,u_dot,v_dot,w_dot,north_dot,east_dot,down_dot,p_rad_dot,q_rad_dot,r_rad_dot,phi_rad_dot,theta_rad_dot,psi_rad_dot,del_tail_alt_rad,del_tail_splay_rad,DIM_b,DIM_c_bar,DIM_S,DIM_wing_position,DIM_wing_incidence_rad,DIM_wing_incidence_deg,DIM_empennage_length,DIM_nose_length,DIM_tail_length,CDp,CDq,CDr,CYp,CYq,CYr,CLp,CLq,CLr,Clp,Clq,Clr,Cmp,Cmq,Cmr,Cnp,Cnq,Cnr,CL_0,Cm_0,CD_0,Cl_0,CY_0,Cn_0,CL,CD,CY,Cl,Cm,Cn,p_hat,q_hat,r_hat,drag_force_wind,side_force_wind,lift_force_wind,roll_moment_wind,pitch_moment_wind,yaw_moment_wind,qbar,X_total,Y_total,Z_total,L_total,M_total,N_total
sim_raptor_glider_3dof,raptor_glider_3dof,0.0,-15.0,0.0,0.0,12.0,0.0,0.0,0.0,0.0,0.0,0.0,0.0,0.0,0.0,0.0,0.0,0.0,0.0,0.0,0.0,0.0,0.0,12.0,-0.0,0.035264039495724236,0.0,0.0,0.0,0.0,0.0,0.0,-7.487178041450953,0.0,-25.024054441263395,12.0,0.0,0.0,0.0,-89.41363838472799,0.0,0.0,0.0,0.0,0.4363323129985824,0.3490658503988659,1.0,0.14,0.14,0.75,0.08726646259971647,5.0,0.184,0.175,0.174,0.0,0.0,0.0,-0.053153656886407115,0.0,0.055671173493162154,0.0,6.024209384397437,0.0,-0.5269202128147928,0.0,0.19813275846416445,0.0,-3.4552995296441478,0.0,-0.03588346466142729,0.0,-0.029845922084054996,0.7757079658211316,-0.38952171953159265,0.1667455120831285,0.0,0.0,0.0,0.7757079658211316,0.1667455120831285,0.0,0.0,-0.38952171953159265,0.0,0.0,0.0,0.0,2.0589739613990123,0.0,9.578443721347433,0.0,-0.6733741106753866,0.0,88.20001620075907,-2.0589739613990123,0.0,-9.578443721347433,0.0,-0.6733741106753866,0.0
sim_raptor_glider_3dof,raptor_glider_3dof,0.001,-14.988003746590733,0.0,-0.000012415174634177188,11.992502827180262,0.0,-0.02526770405029525,0.0,0.0,0.0,-5.103039651887635,-0.0890648437852645,-0.0037133468875430262,0.0,0.0,0.0,0.0,0.0,-0.000044590487564095195,-0.0025548467438532376,0.0,0.0,11.992529446150822,0.000012415174634177188,0.03524208600355821,-0.002106955238988487,-0.12071964281701804,0.0,0.0,0.002062364751424392,0.1181647960731648,-7.507675599275719,0.0,-25.508550485583747,11.99250394195709,0.0,-0.024732952477174667,0.0,-88.71856693472195,0.0,0.0,-0.0890648437852645,0.0,0.4363323129985824,0.3490658503988659,1.0,0.14,0.14,0.75,0.08726646259971647,5.0,0.184,0.175,0.174,0.0,0.0,0.0,-0.053430186057496054,0.0,0.0554080780660455,0.0,6.0240249874908525,0.0,-0.5274002219771142,0.0,0.1957017793236076,0.0,-3.453669819760639,0.0,-0.03525814560644711,0.0,-0.029499655008724115,0.7671435812705255,-0.38877083359862435,0.165760584735996,0.0,0.0,0.0,0.7640118800492363,0.165760584735996,0.0,0.0,-0.386975379228011,0.0,0.0,-0.0005198685642560238,0.0,2.0442643995802876,0.0,9.422277857722193,0.0,-0.6681395275853911,0.0,88.09023322213056,-2.064112165078258,0.0,-9.417949773357746,0.0,-0.6681395275853911,0.0
sim_raptor_glider_3dof,raptor_glider_3dof,0.002,-14.976014997218163,0.0,-0.000049270492086499364,11.984983638081903,0.0,-0.051011581957007696,0.0,0.0,0.0,-10.166686259086081,-0.1774421492383174,-0.0074026192836820276,0.0,0.0,0.0,0.0,0.0,-0.00017790069037163533,-0.010192958730758345,0.0,0.0,11.985092197667264,0.000049270492086499364,0.03522023038486956,-0.004256265628603735,-0.24386605700559036,0.0,0.0,0.0040783649382321,0.233673098274832,-7.5312069778045,0.0,-25.97647568606275,11.984992523423195,0.0,-0.04887944429772272,0.0,-88.03854836579413,0.0,0.0,-0.1774421492383174,0.0,0.4363323129985824,0.3490658503988659,1.0,0.14,0.14,0.75,0.08726646259971647,5.0,0.184,0.175,0.174,0.0,0.0,0.0,-0.05371000072613438,0.0,0.05518325282971427,0.0,6.023796383437123,0.0,-0.5278990096560925,0.0,0.1932332307470952,0.0,-3.4519868033346692,0.0,-0.03462545852853912,0.0,-0.029153229463314653,0.758374006898808,-0.388063512765844,0.16478068235403653,0.0,0.0,0.0,0.7521311449211472,0.16478068235403653,0.0,0.0,-0.38448598859501065,0.0,0.0,-0.001036366699715484,0.0,2.0296598650783366,0.0,9.264255835778041,0.0,-0.6630183077427956,0.0,87.98100758981425,-2.069072495287059,0.0,-9.25553317577674,0.0,-0.6630183077427956,0.0
sim_raptor_glider_3dof,raptor_glider_3dof,0.003,-14.964033765483153,0.0,-0.00010997650410396534,11.977439408842296,0.0,-0.07721526894416839,0.0,0.0,0.0,-15.191799193026208,-0.2651469152201249,-0.011068367643203196,0.0,0.0,0.0,0.0,0.0,-0.0003992506169425001,-0.022875375318799577,0.0,0.0,11.97768829909372,0.00010997650410396534,0.035198472770559576,-0.006446636600632963,-0.3693650692708328,0.0,0.0,0.006047385983690463,0.3464896939520332,-7.557751963901034,0.0,-26.428240508352538,11.977469282477013,0.0,-0.07243326284374174,0.0,-87.37346069275941,0.0,0.0,-0.2651469152201249,0.0,0.4363323129985824,0.3490658503988659,1.0,0.14,0.14,0.75,0.08726646259971647,5.0,0.184,0.175,0.174,0.0,0.0,0.0,-0.0539933342342998,0.0,0.0549956890768542,0.0,6.023523849844041,0.0,-0.5284156910211553,0.0,0.1907277346999606,0.0,-3.450251759098094,0.0,-0.033984927296559594,0.0,-0.028807107836358457,0.7494038488665931,-0.387399686775176,0.16380724554970857,0.0,0.0,0.0,0.7400699681597184,0.16380724554970857,0.0,0.0,-0.38205327508479314,0.0,0.0,-0.0015495714700484477,0.0,2.015177614704102,0.0,9.104435082498677,0.0,-0.6580095324771711,0.0,87.87233904709669,-2.0738283182350847,0.0,-9.09125486919839,0.0,-0.6580095324771711,0.0
sim_raptor_glider_3dof,raptor_glider_3dof,0.004,-14.95206006146447,0.0,-0.00019393750269191865,11.969867139046595,0.0,-0.10386280993339823,0.0,0.0,0.0,-20.179227607931264,-0.35219396226773997,-0.01471113674262299,0.0,0.0,0.0,0.0,0.0,-0.0007079751977142588,-0.040563990828967035,0.0,0.0,11.970317740549529,0.00019393750269191865,0.03517681313159225,-0.008676805031272569,-0.49714430794979647,0.0,0.0,0.00796882983355831,0.4565803171208294,-7.587282867422961,0.0,-26.864252771312174,11.96993767151242,0.0,-0.09538841555743248,0.0,-86.72306067972036,0.0,0.0,-0.35219396226773997,0.0,0.4363323129985824,0.3490658503988659,1.0,0.14,0.14,0.75,0.08726646259971647,5.0,0.184,0.175,0.174,0.0,0.0,0.0,-0.054280487125545326,0.0,0.054843901706905056,0.0,6.023207997132767,0.0,-0.5289492506950555,0.0,0.18818569052618506,0.0,-3.4484661334741316,0.0,-0.033335929119057396,0.0,-0.028461722112779208,0.7402377623774763,-0.38677875516894367,0.16284159593212236,0.0,0.0,0.0,0.727832609270965,0.16284159593212236,0.0,0.0,-0.37967643521108574,0.0,0.0,-0.0020595591439672187,0.0,2.000833340210975,0.0,8.942873240625298,0.0,-0.6531113699789741,0.0,87.76422654166264,-2.078352616244555,0.0,-8.925175978978858,0.0,-0.6531113699789741,0.0
sim_raptor_glider_3dof,raptor_glider_3dof,0.005,-14.94009389182307,0.0,-0.0003005518855746,11.962263859629724,0.0,-0.13093865674169305,0.0,0.0,0.0,-25.12980322664479,-0.4385978066832464,-0.01833146045868009,0.0,0.0,0.0,0.0,0.0,-0.0011034240774344013,-0.06322154265010774,0.0,0.0,11.962980463882431,0.0003005518855746,0.035155251297077285,-0.010945539172903748,-0.6271331991024985,0.0,0.0,0.009842115095469346,0.5639116564523908,-7.619764933048298,0.0,-27.284916404279006,11.96240105817221,0.0,-0.11773912974501546,0.0,-86.08698535636344,0.0,0.0,-0.4385978066832464,0.0,0.4363323129985824,0.3490658503988659,1.0,0.14,0.14,0.75,0.08726646259971647,5.0,0.184,0.175,0.174,0.0,0.0,0.0,-0.05457182683161292,0.0,0.05472593032343835,0.0,6.022849768199583,0.0,-0.529498543215881,0.0,0.18560727572066893,0.0,-3.446631540314975,0.0,-0.03267769521599154,0.0,-0.028117473742245224,0.7308804509402165,-0.3861995880247053,0.16188493539638366,0.0,0.0,0.0,0.7154233824078116,0.16188493539638366,0.0,0.0,-0.37735413745313595,0.0,0.0,-0.002566404464215213,0.0,1.9866411722863777,0.0,8.779628219436473,0.0,-0.6483210867187731,0.0,87.65666831823584,-2.0826180146542357,0.0,-8.757357879177162,0.0,-0.6483210867187731,0.0
sim_raptor_glider_3dof,raptor_glider_3dof,0.006,-14.92813525992473,0.0,-0.0004292124397594923,11.954626639550906,0.0,-0.15842765930436845,0.0,0.0,0.0,-30.04433358782197,-0.5243725426750143,-0.02192985685369944,0.0,0.0,0.0,0.0,0.0,-0.0015849610904613313,-0.09081158117588696,0.0,0.0,11.955676367913814,0.0004292124397594923,0.03513378696968413,-0.01325163807797221,-0.7592629335026617,0.0,0.0,0.01166667698751088,0.6684513523267749,-7.65515672930522,0.0,-27.690630360815796,11.954862725505864,0.0,-0.13947985016959272,0.0,-85.46475387002384,0.0,0.0,-0.5243725426750143,0.0,0.4363323129985824,0.3490658503988659,1.0,0.14,0.14,0.75,0.08726646259971647,5.0,0.184,0.175,0.174,0.0,0.0,0.0,-0.05486778710977721,0.0,0.05463934182373924,0.0,6.022450437086101,0.0,-0.5300622937916623,0.0,0.18299244783751023,0.0,-3.444749760445701,0.0,-0.03200931203935526,0.0,-0.02777473367758559,0.7213366671206888,-0.3856605284654083,0.16093834608201854,0.0,0.0,0.0,0.7028466604815571,0.16093834608201854,0.0,0.0,-0.37508452678533377,0.0,0.0,-0.003070179959517922,0.0,1.9726136922696764,0.0,8.61475825857789,0.0,-0.6436350613951496,0.0,87.54966199755503,-2.0865968109073574,0.0,-8.58786227075033,0.0,-0.6436350613951496,0.0
sim_raptor_glider_3dof,raptor_glider_3dof,0.007,-14.916184165882276,0.0,-0.0005793064854676666,11.946952592434664,0.0,-0.18631506489291877,0.0,0.0,0.0,-34.923595341205655,-0.6095317253381911,-0.025506823267053384,0.0,0.0,0.0,0.0,0.0,-0.00215196395569408,-0.12329845232554847,0.0,0.0,11.94840531406963,0.0005793064854676666,0.03511241974218939,-0.015593931681301612,-0.8934664713539263,0.0,0.0,0.013441967725607532,0.7701680190283778,-7.693410528399182,0.0,-28.081787400130356,11.947325872576652,0.0,-0.1606052419691676,0.0,-84.85576962259707,0.0,0.0,-0.6095317253381911,0.0,0.4363323129985824,0.3490658503988659,1.0,0.14,0.14,0.75,0.08726646259971647,5.0,0.184,0.175,0.174,0.0,0.0,0.0,-0.05516886739682447,0.0,0.05458123429015566,0.0,6.022011606567932,0.0,-0.5306390995932566,0.0,0.18034094615955698,0.0,-3.442822740123928,0.0,-0.031329722669104235,0.0,-0.027433842397851762,0.7116112100401488,-0.3851593965008954,0.16000279048359145,0.0,0.0,0.0,0.6901068760336266,0.16000279048359145,0.0,0.0,-0.3728652305367967,0.0,0.0,-0.0035709552573874744,0.0,1.9587619456352325,0.0,8.448321951825605,0.0,-0.6390488010277785,0.0,87.4432046606849,-2.090261009781001,0.0,-8.416751218395161,0.0,-0.6390488010277785,0.0
sim_raptor_glider_3dof,raptor_glider_3dof,0.008,-14.904240606651282,0.0,-0.0007502161182813057,11.939238882633015,0.0,-0.21458650998107728,0.0,0.0,0.0,-39.768327695755914,-0.6940882563029905,-0.02906283149078703,0.0,0.0,0.0,0.0,0.0,-0.0028038236298313884,-0.16064726048838937,0.0,0.0,11.941167131685324,0.0007502161182813057,0.035091149113066274,-0.017971280258754233,-1.0296785112733915,0.0,0.0,0.015167456628922844,0.8690312507850021,-7.734472659743328,0.0,-28.458772998507442,11.939793614875626,0.0,-0.18111019026309105,0.0,-84.25932271685393,0.0,0.0,-0.6940882563029905,0.0,0.4363323129985824,0.3490658503988659,1.0,0.14,0.14,0.75,0.08726646259971647,5.0,0.184,0.175,0.174,0.0,0.0,0.0,-0.05547563193059443,0.0,0.054548242134604644,0.0,6.021535204946049,0.0,-0.5312274312413525,0.0,0.17765229454057654,0.0,-3.440852589499303,0.0,-0.030637728722487007,0.0,-0.027095110104628704,0.7017089249620452,-0.38469349440195466,0.1590791122370665,0.0,0.0,0.0,0.6772085241452388,0.1590791122370665,0.0,0.0,-0.37069336574289874,0.0,0.0,-0.004068796408710184,0.0,1.9450954633896698,0.0,8.280378294547667,0.0,-0.634556959380627,0.0,87.33729292823296,-2.0935823601488033,0.0,-8.244087212286694,0.0,-0.634556959380627,0.0
sim_raptor_glider_3dof,raptor_glider_3dof,0.009000000000000001,-14.892304576113405,0.0,-0.0009413184291606596,11.931482731000013,0.0,-0.24322801242629782,0.0,0.0,0.0,-44.57922600410458,-0.7780542717623,-0.03259832301805841,0.0,0.0,0.0,0.0,0.0,-0.0035399435977275817,-0.2028238278641469,0.0,0.0,11.933961623290918,0.0009413184291606596,0.03506997450201568,-0.020382573901800104,-1.1678354601866447,0.0,0.0,0.01684263030407252,0.9650116323224979,-7.778283843616755,0.0,-28.821964269395146,11.932268984822977,0.0,-0.20098980076623565,0.0,-83.67459264387269,0.0,0.0,-0.7780542717623,0.0,0.4363323129985824,0.3490658503988659,1.0,0.14,0.14,0.75,0.08726646259971647,5.0,0.184,0.175,0.174,0.0,0.0,0.0,-0.055788708736007504,0.0,0.0545365423304085,0.0,6.021023482042527,0.0,-0.531825634606743,0.0,0.17492580464570248,0.0,-3.4388415806117196,0.0,-0.029931992558805562,0.0,-0.02675881698380161,0.6916347024036031,-0.3842596132891834,0.15816803727685969,0.0,0.0,0.0,0.6641561648322319,0.15816803727685969,0.0,0.0,-0.3685655476778038,0.0,0.0,-0.004563765222528177,0.0,1.9316222876944662,0.0,8.110986723910683,0.0,-0.6301533572010052,0.0,87.23192303897322,-2.096532395351765,0.0,-8.0699332223392,0.0,-0.6301533572010052,0.0
sim_raptor_glider_3dof,raptor_glider_3dof,0.01,-14.88037606515921,0.0,-0.0011519857253842968,11.923681420343334,0.0,-0.27222596258209436,0.0,0.0,0.0,-49.356935507178044,-0.8614410332947542,-0.03611370438294382,0.0,0.0,0.0,0.0,0.0,-0.004359739052099519,-0.24979464746366856,0.0,0.0,11.926788569792983,0.0011519857253842968,0.03504889526519434,-0.022826731891997996,-1.3078753974881616,0.0,0.0,0.01846699283989848,1.058080750024493,-7.824779502619,0.0,-29.171728920063018,11.924754932281528,0.0,-0.22023940058925584,0.0,-83.10065118556057,0.0,0.0,-0.8614410332947542,0.0,0.4363323129985824,0.3490658503988659,1.0,0.14,0.14,0.75,0.08726646259971647,5.0,0.184,0.175,0.174,0.0,0.0,0.0,-0.05610878847395166,0.0,0.05454186162840115,0.0,6.020479004498773,0.0,-0.5324319328652451,0.0,0.17216057968112747,0.0,-3.4367921450673697,0.0,-0.02921103978427371,0.0,-0.02642521354291394,0.6813934773072167,-0.3838540408424605,0.15727017538811427,0.0,0.0,0.0,0.6509544254455103,0.15727017538811427,0.0,0.0,-0.3664778994650984,0.0,0.0,-0.0050559186136121355,0.0,1.9183490019530007,0.0,7.940207158086878,0.0,-0.6258310040784566,0.0,87.12709092666549,-2.099082476605616,0.0,-7.894352751368246,0.0,-0.6258310040784566,0.0
sim_raptor_glider_3dof,raptor_glider_3dof,0.01,-14.88037606515921,0.0,-0.0011519857253842968,11.923681420343334,0.0,-0.27222596258209436,0.0,0.0,0.0,-49.356935507178044,-0.8614410332947542,-0.03611370438294382,0.0,0.0,0.0,0.0,0.0,-0.004359739052099519,-0.24979464746366856,0.0,0.0,11.926788569792983,0.0011519857253842968,0.03504889526519434,-0.022826731891997996,-1.3078753974881616,0.0,0.0,0.01846699283989848,1.058080750024493,-6.056533732881221,0.0,-19.256694650626613,11.924754932281528,0.0,-0.22023940058925584,0.0,30.96058691692463,0.0,0.0,-0.8614410332947542,0.0,-0.27691393937635034,0.3490658503988659,1.0,0.14,0.14,0.75,0.08726646259971647,5.0,0.184,0.175,0.174,0.0,0.0,0.0,-0.061225241623507905,0.0,0.027232540080570126,0.0,6.00760622743442,0.0,-0.5255135139213676,0.0,0.16569247401680162,0.0,-3.4939426564285267,0.0,-0.019552190392642478,0.0,-0.017969899733909167,0.4569416474143007,0.11887259919520432,0.12251748148811564,0.0,0.0,0.0,0.42656767926576283,0.12251748148811564,0.0,0.0,0.13653768890673473,0.0,0.0,-0.0050559186136121355,0.0,1.4944428449609553,0.0,5.203184136887072,0.0,0.2331641800713594,0.0,87.12709092666549,-1.6128148899277268,0.0,-5.167718327273234,0.0,0.2331641800713594,0.0
sim_raptor_glider_3dof,raptor_glider_3dof,0.011,-14.868454201448687,0.0,-0.001376679653111377,11.917621620128825,0.0,-0.29115878008296303,0.0,0.0,0.0,-47.58519205987299,-0.8305182766386463,-0.03483373435560705,0.0,0.0,0.0,0.0,0.0,-0.005205707798345763,-0.2982650862235521,0.0,0.0,11.921177731909772,0.001376679653111377,0.03503240686446787,-0.024426087855869905,-1.3995117441571,0.0,0.0,0.01922038005752414,1.1012466579335476,-6.062805554528566,0.0,-18.61044819472854,11.918975821019817,0.0,-0.22911545937882724,0.0,30.884645260512457,0.0,0.0,-0.8305182766386463,0.0,-0.27691393937635034,0.3490658503988659,1.0,0.14,0.14,0.75,0.08726646259971647,5.0,0.184,0.175,0.174,0.0,0.0,0.0,-0.06160771539894176,0.0,0.02717388358282426,0.0,6.007102787778042,0.0,-0.5257867143782096,0.0,0.1638640623312521,0.0,-3.4913374556653927,0.0,-0.018984880819315982,0.0,-0.01778015489453963,0.4503154886937763,0.119304738463784,0.12226383796080188,0.0,0.0,0.0,0.42102051350789615,0.12226383796080188,0.0,0.0,0.1363310234704841,0.0,0.0,-0.004876722809784987,0.0,1.4899461035728714,0.0,5.1306901867946655,0.0,0.23259226345691933,0.0,87.04513407954408,-1.6148118772702498,0.0,-5.092769755786137,0.0,0.23259226345691933,0.0
sim_raptor_glider_3dof,raptor_glider_3dof,0.012,-14.856538112038333,0.0,-0.0016101184894179031,11.91155668336598,0.0,-0.30945098802373155,0.0,0.0,0.0,-45.817879104364586,-0.7996728466518727,-0.033555779076476076,0.0,0.0,0.0,0.0,0.0,-0.006020798279472263,-0.34496633071338817,0.0,0.0,11.915575627515006,0.0016101184894179031,0.03501594412858152,-0.025973212998259693,-1.4881554851946113,0.0,0.0,0.01995241471878743,1.1431891544812232,-6.066779082652366,0.0,-17.975413201242027,11.913203917702086,0.0,-0.23772873254467472,0.0,30.80584955317458,0.0,0.0,-0.7996728466518727,0.0,-0.27691393937635034,0.3490658503988659,1.0,0.14,0.14,0.75,0.08726646259971647,5.0,0.184,0.175,0.174,0.0,0.0,0.0,-0.061977061548985836,0.0,0.027115656168955247,0.0,6.006604919430673,0.0,-0.5260485905693977,0.0,0.16209415921474385,0.0,-3.4888097622339593,0.0,-0.01843705354108777,0.0,-0.01759774991208353,0.4438968516037912,0.11972133623952014,0.1220234581797478,0.0,0.0,0.0,0.4156789685291386,0.1220234581797478,0.0,0.0,0.13611109838651275,0.0,0.0,-0.004697809070706651,0.0,1.4856195034027027,0.0,5.060836596611877,0.0,0.23199885298495776,0.0,86.96334327631008,-1.616549834593315,0.0,-5.020547679165383,0.0,0.23199885298495776,0.0
sim_raptor_glider_3dof,raptor_glider_3dof,0.013000000000000001,-14.84462779127564,0.0,-0.0018520538669115814,11.90548876801426,0.0,-0.3271132725727977,0.0,0.0,0.0,-44.05515412116466,-0.7689074918878722,-0.03227996089188972,0.0,0.0,0.0,0.0,0.0,-0.006805080087118352,-0.38990236824040014,0.0,0.0,11.90998177573782,0.0018520538669115814,0.03499950564441453,-0.027468926412647483,-1.5738535512001335,0.0,0.0,0.02066384632552913,1.1839511829597333,-6.068593333349066,0.0,-17.351491868101235,11.907439117590412,0.0,-0.2460885192053478,0.0,30.724274135505866,0.0,0.0,-0.7689074918878722,0.0,-0.27691393937635034,0.3490658503988659,1.0,0.14,0.14,0.75,0.08726646259971647,5.0,0.184,0.175,0.174,0.0,0.0,0.0,-0.062333516707790866,0.0,0.027058054901617352,0.0,6.00611352739608,0.0,-0.52629947440605,0.0,0.16038191590105738,0.0,-3.486358977697666,0.0,-0.017908298709747934,0.0,-0.01742256613840673,0.4376836496716254,0.12012268308898788,0.12179571339162441,0.0,0.0,0.0,0.41054085430290205,0.12179571339162441,0.0,0.0,0.1358782174927116,0.0,0.0,-0.004519194524864561,0.0,1.481454801550246,0.0,4.993588878485099,0.0,0.23138450851449469,0.0,86.88171132138442,-1.6180472030073958,0.0,-4.951016205306371,0.0,0.23138450851449469,0.0
sim_raptor_glider_3dof,raptor_glider_3dof,0.014,-14.832723231556127,0.0,-0.002102220893246463,11.899420110690386,0.0,-0.3441573853123387,0.0,0.0,0.0,-42.29718422914927,-0.7382251291212745,-0.031006408528859306,0.0,0.0,0.0,0.0,0.0,-0.007558639480533643,-0.4330781410955347,0.0,0.0,11.904395964372481,0.002102220893246463,0.03498309078836428,-0.028914137700489607,-1.6566580584981536,0.0,0.0,0.021355498219955964,1.223579917402619,-6.068384009818312,0.0,-16.738566135786016,11.901681524170568,0.0,-0.25420498379209344,0.0,30.64000198904179,0.0,0.0,-0.7382251291212745,0.0,-0.27691393937635034,0.3490658503988659,1.0,0.14,0.14,0.75,0.08726646259971647,5.0,0.184,0.175,0.174,0.0,0.0,0.0,-0.06267733995721345,0.0,0.027001249390520284,0.0,6.005629409799996,0.0,-0.5265397087417274,0.0,0.15872637956281724,0.0,-3.4839843162121698,0.0,-0.017398184631267962,0.0,-0.01725446256528146,0.43167328608138666,0.1205091002033701,0.12157998989090689,0.0,0.0,0.0,0.40560346622793997,0.12157998989090689,0.0,0.0,0.13563271794569595,0.0,0.0,-0.004340897194040304,0.0,1.4774440362941366,0.0,4.928906663147528,0.0,0.23074985497947373,0.0,86.80023495054216,-1.61932171655142,0.0,-4.884133388095187,0.0,0.23074985497947373,0.0
sim_raptor_glider_3dof,raptor_glider_3dof,0.015,-14.820824425876632,0.0,-0.0023603866841581085,11.893352618602924,0.0,-0.36059402195078083,0.0,0.0,0.0,-40.54411813688925,-0.7076283538062665,-0.02973523785707706,0.0,0.0,0.0,0.0,0.0,-0.008281559129483546,-0.47449838590744325,0.0,0.0,11.89881777989291,0.0023603866841581085,0.03496669834521411,-0.030309669923347132,-1.7366161650424001,0.0,0.0,0.022028110793863586,1.262117779134957,-6.06628034208693,0.0,-16.13652490126962,11.895931019347394,0.0,-0.26208727940157833,0.0,30.55310945437647,0.0,0.0,-0.7076283538062665,0.0,-0.27691393937635034,0.3490658503988659,1.0,0.14,0.14,0.75,0.08726646259971647,5.0,0.184,0.175,0.174,0.0,0.0,0.0,-0.0630087702685893,0.0,0.026945390626596594,0.0,6.005153319986423,0.0,-0.5267696171323827,0.0,0.15712669553409145,0.0,-3.481685095750809,0.0,-0.016906319637919057,0.0,-0.01709329833729378,0.42586340041045034,0.12088089059179584,0.12137571486507397,0.0,0.0,0.0,0.4008643476831286,0.12137571486507397,0.0,0.0,0.1353749134169785,0.0,0.0,-0.004162933299990789,0.0,1.473579722624402,0.0,4.866752586590886,0.0,0.2300954673009092,0.0,86.71890797115218,-1.6203899831472839,0.0,-4.819860396374032,0.0,0.2300954673009092,0.0
sim_raptor_glider_3dof,raptor_glider_3dof,0.016,-14.808931367184545,0.0,-0.0026263211981152968,11.887288130044004,0.0,-0.37643401472358085,0.0,0.0,0.0,-38.79610398712266,-0.6771197515213903,-0.028466564161248747,0.0,0.0,0.0,0.0,0.0,-0.008973925780624633,-0.5141680728934341,0.0,0.0,11.893246892843266,0.0026263211981152968,0.034950327346802035,-0.03165635909138404,-1.813775770686899,0.0,0.0,0.022682433310759406,1.2996076977934647,-6.0624070888961406,0.0,-15.545250024175296,11.89018752918112,0.0,-0.26974464782786417,0.0,30.463674694088336,0.0,0.0,-0.6771197515213903,0.0,-0.27691393937635034,0.3490658503988659,1.0,0.14,0.14,0.75,0.08726646259971647,5.0,0.184,0.175,0.174,0.0,0.0,0.0,-0.06332804992014941,0.0,0.02689060909762111,0.0,6.0046859381530275,0.0,-0.5269895201842697,0.0,0.15558199308018822,0.0,-3.4794605766199402,0.0,-0.016432316197438037,0.0,-0.016938922653519255,0.4202514662493527,0.12123836467961459,0.12118233989957151,0.0,0.0,0.0,0.3963208773956313,0.12118233989957151,0.0,0.0,0.13510512496473878,0.0,0.0,-0.003985318982574825,0.0,1.4698547207139567,0.0,4.80708750994769,0.0,0.22942193412117928,0.0,86.63772542694646,-1.621267766376929,0.0,-4.758156581913562,0.0,0.22942193412117928,0.0
sim_raptor_glider_3dof,raptor_glider_3dof,0.017,-14.797044048511896,0.0,-0.002899804032424406,11.881228354441218,0.0,-0.39168807003865097,0.0,0.0,0.0,-37.05328522522243,-0.6467018258607001,-0.027200499318095393,0.0,0.0,0.0,0.0,0.0,-0.009635828856593542,-0.5520923255931797,0.0,0.0,11.887682985114827,0.002899804032424406,0.03493397685831152,-0.03295503230390288,-1.8881842647309246,0.0,0.0,0.023319203447309336,1.3360919391377448,-6.056884208734418,0.0,-14.964619918207218,11.884450958250994,0.0,-0.27718617482762675,0.0,30.371775491460372,0.0,0.0,-0.6467018258607001,0.0,-0.27691393937635034,0.3490658503988659,1.0,0.14,0.14,0.75,0.08726646259971647,5.0,0.184,0.175,0.174,0.0,0.0,0.0,-0.06363541900543526,0.0,0.026837017397567147,0.0,6.004227882309228,0.0,-0.5271997315275571,0.0,0.15409141008568283,0.0,-3.4773099985430322,0.0,-0.015975797994547687,0.0,-0.01679117878357657,0.41483489185522177,0.12158183340269768,0.12099934316302453,0.0,0.0,0.0,0.39197037235663995,0.12099934316302453,0.0,0.0,0.13482367295688233,0.0,0.0,-0.0038080699045333556,0.0,1.4662622426532883,0.0,4.749871711707936,0.0,0.22872984122618809,0.0,86.55668253609367,-1.621969953294699,0.0,-4.698980709954354,0.0,0.22872984122618809,0.0
sim_raptor_glider_3dof,raptor_glider_3dof,0.018000000000000002,-14.785162462999029,0.0,-0.0031806243260800717,11.87517487659111,0.0,-0.406366764267136,0.0,0.0,0.0,-35.31580059558691,-0.616376998370766,-0.025937151795529776,0.0,0.0,0.0,0.0,0.0,-0.010267360393414143,-0.5882764172824109,0.0,0.0,11.882125748228791,0.0031806243260800717,0.034917645973225164,-0.03420650740319483,-1.9598885060860691,0.0,0.0,0.023939147009780684,1.371612088803658,-6.049826962802948,0.0,-14.394510054576768,11.878721190117988,0.0,-0.2844207871508604,0.0,30.27748902303025,0.0,0.0,-0.616376998370766,0.0,-0.27691393937635034,0.3490658503988659,1.0,0.14,0.14,0.75,0.08726646259971647,5.0,0.184,0.175,0.174,0.0,0.0,0.0,-0.06393111510316177,0.0,0.026784711888620652,0.0,6.003779712048695,0.0,-0.5274005574705528,0.0,0.15265409316358913,0.0,-3.4752325825244217,0.0,-0.015536399443378802,0.0,-0.01664990542416615,0.40961103076008115,0.12191160718514972,0.12082622832532677,0.0,0.0,0.0,0.3878100983567151,0.12082622832532677,0.0,0.0,0.13453087608762868,0.0,0.0,-0.003631201251374169,0.0,1.4627958372129357,0.0,4.695065015005779,0.0,0.22801976983244082,0.0,86.47577466578885,-1.6225105812146996,0.0,-4.642291090651797,0.0,0.22801976983244082,0.0
sim_raptor_glider_3dof,raptor_glider_3dof,0.019000000000000003,-14.773286603904085,0.0,-0.003468579499085734,11.86912917605487,0.0,-0.4204805551676366,0.0,0.0,0.0,-33.58378471538419,-0.5861476185644009,-0.024676627042085873,0.0,0.0,0.0,0.0,0.0,-0.010868614650137496,-0.6227257486069344,0.0,0.0,11.876574897467325,0.003468579499085734,0.03490133385485123,-0.03541159389470098,-2.0289348759975994,0.0,0.0,0.02454297924456348,1.406209127390665,-6.041346059642222,0.0,-13.83479335023959,11.872998103072526,0.0,-0.2914572688872993,0.0,30.1808918490624,0.0,0.0,-0.5861476185644009,0.0,-0.27691393937635034,0.3490658503988659,1.0,0.14,0.14,0.75,0.08726646259971647,5.0,0.184,0.175,0.174,0.0,0.0,0.0,-0.06421537327355828,0.0,0.02673377418873493,0.0,6.003341931678015,0.0,-0.5275922969062473,0.0,0.15126919634666325,0.0,-3.4732275305825633,0.0,-0.01511376479599538,0.0,-0.016514937791222182,0.40457718640012025,0.12222799534298334,0.12066252334562533,0.0,0.0,0.0,0.38383727422054154,0.12066252334562533,0.0,0.0,0.13422705099961205,0.0,0.0,-0.0034547277858920224,0.0,1.4594493770237607,0.0,4.642626850551255,0.0,0.22729229651528896,0.0,86.39499753748954,-1.6229028708835973,0.0,-4.588045643760782,0.0,0.22729229651528896,0.0
sim_raptor_glider_3dof,raptor_glider_3dof,0.02,-14.761416464610953,0.0,-0.003763475691464015,11.86309262378361,0.0,-0.43403977220690654,0.0,0.0,0.0,-31.857367833578063,-0.5560159597148702,-0.023419027333481092,0.0,0.0,0.0,0.0,0.0,-0.011439688201328353,-0.6554458528817186,0.0,0.0,11.871030162724992,0.003763475691464015,0.03488503970943898,-0.03657109215116238,-2.0953692324456155,0.0,0.0,0.025131403949834027,1.4399233795638966,-6.031547747222854,0.0,-13.285340617547305,11.867281563107921,0.0,-0.29830425113523523,0.0,30.08205964515493,0.0,0.0,-0.5560159597148702,0.0,-0.27691393937635034,0.3490658503988659,1.0,0.14,0.14,0.75,0.08726646259971647,5.0,0.184,0.175,0.174,0.0,0.0,0.0,-0.06448842567410801,0.0,0.026684272616064302,0.0,6.00291499377198,0.0,-0.5277752409870609,0.0,0.14993588178246034,0.0,-3.4712940282980953,0.0,-0.01470754789232128,0.0,-0.016386108793511593,0.39973062325583514,0.12253130512039263,0.12050777954437572,0.0,0.0,0.0,0.3800490830110758,0.12050777954437572,0.0,0.0,0.13391251128276943,0.0,0.0,-0.0032786638266873534,0.0,1.456217043540764,0.0,4.592516384877634,0.0,0.2265479911876618,0.0,86.31434709304551,-1.6231592514951618,0.0,-4.536202031165917,0.0,0.2265479911876618,0.0
sim_raptor_glider_3dof,raptor_glider_3dof,0.02,-14.761416464610953,0.0,-0.003763475691464015,11.86309262378361,0.0,-0.43403977220690654,0.0,0.0,0.0,-31.857367833578063,-0.5560159597148702,-0.023419027333481092,0.0,0.0,0.0,0.0,0.0,-0.011439688201328353,-0.6554458528817186,0.0,0.0,11.871030162724992,0.003763475691464015,0.03488503970943898,-0.03657109215116238,-2.0953692324456155,0.0,0.0,0.025131403949834027,1.4399233795638966,-5.995917891330954,0.0,-13.361596015512028,11.867281563107921,0.0,-0.29830425113523523,0.0,29.235021734449255,0.0,0.0,-0.5560159597148702,0.0,-0.2719959034039964,0.3490658503988659,1.0,0.14,0.14,0.75,0.08726646259971647,5.0,0.184,0.175,0.174,0.0,0.0,0.0,-0.056780231084986754,0.0,0.025112491379446943,0.0,6.005056497161015,0.0,-0.5267487382536509,0.0,0.1498393483763066,0.0,-3.479262067469856,0.0,-0.016974159905814697,0.0,-0.015866260868366233,0.40144220813902953,0.11873452875120032,0.11963403039272276,0.0,0.0,0.0,0.38175364662457384,0.11963403039272276,0.0,0.0,0.13014185943537918,0.0,0.0,-0.0032786638266873534,0.0,1.4456586512840401,0.0,4.613114346230503,0.0,0.22016894868213735,0.0,86.31434709304551,-1.6133610411248895,0.0,-4.557172265606215,0.0,0.22016894868213735,0.0
sim_raptor_glider_3dof,raptor_glider_3dof,0.021,-14.749552026791696,0.0,-0.004065159777454863,11.857101954197189,0.0,-0.447134709631796,0.0,0.0,0.0,-30.18506011529392,-0.526828683924298,-0.02219996473452395,0.0,0.0,0.0,0.0,0.0,-0.011981074436899516,-0.6864649992664216,0.0,0.0,11.865529748004692,0.004065159777454863,0.03486887580594402,-0.03769242605625175,-2.1596169326321593,0.0,0.0,0.02571135161935223,1.4731519333657375,-5.985429685679412,0.0,-12.829700979042121,11.86160796981487,0.0,-0.3050451953541574,0.0,29.139733258844046,0.0,0.0,-0.526828683924298,0.0,-0.2719959034039964,0.3490658503988659,1.0,0.14,0.14,0.75,0.08726646259971647,5.0,0.184,0.175,0.174,0.0,0.0,0.0,-0.05701439159377047,0.0,0.025070451235834512,0.0,6.004677357774477,0.0,-0.5269170940652873,0.0,0.14854838089527203,0.0,-3.4774755789911795,0.0,-0.01658897595891953,0.0,-0.015745660387736136,0.39674946169843517,0.11902999119177408,0.11948655772428725,0.0,0.0,0.0,0.3780869541165649,0.11948655772428725,0.0,0.0,0.12983796812240223,0.0,0.0,-0.0031079950628333532,0.0,1.4425388664363912,0.0,4.564573091679555,0.0,0.21945133117235452,0.0,86.23437851268709,-1.61352336412869,0.0,-4.506971072003399,0.0,0.21945133117235452,0.0
sim_raptor_glider_3dof,raptor_glider_3dof,0.022,-14.737693252575388,0.0,-0.004373488864879094,11.851122319698252,0.0,-0.459703309160708,0.0,0.0,0.0,-28.518266074343614,-0.497737639957094,-0.02098381855400456,0.0,0.0,0.0,0.0,0.0,-0.012493357054778477,-0.7158166311887991,0.0,0.0,11.860034880593876,0.004373488864879094,0.03485272820416079,-0.03877041684913122,-2.2213812554181143,0.0,0.0,0.026277059794352742,1.505564624229315,-5.9738267494669035,0.0,-12.307609503180341,11.855940534792127,0.0,-0.31161098243855534,0.0,29.042330642457664,0.0,0.0,-0.497737639957094,0.0,-0.2719959034039964,0.3490658503988659,1.0,0.14,0.14,0.75,0.08726646259971647,5.0,0.184,0.175,0.174,0.0,0.0,0.0,-0.05723913909886493,0.0,0.025029712758508516,0.0,6.004307937805265,0.0,-0.5270775633883448,0.0,0.14730663405745445,0.0,-3.4757543706631497,0.0,-0.01621901231317216,0.0,-0.015630667049698198,0.39223566022924605,0.11931306318949046,0.11934718561583321,0.0,0.0,0.0,0.37459659706594756,0.11934718561583321,0.0,0.0,0.1295239070568102,0.0,0.0,-0.002937734597560638,0.0,1.4395220554047592,0.0,4.518246999906321,0.0,0.21871779206834868,0.0,86.15452758849285,-1.6135707230744132,0.0,-4.459054745323983,0.0,0.21871779206834868,0.0
sim_raptor_glider_3dof,raptor_glider_3dof,0.023,-14.725840142793041,0.0,-0.004688300088418327,11.845154800252791,0.0,-0.4717546579909288,0.0,0.0,0.0,-26.857111362182962,-0.46874502084487196,-0.01977068745641825,0.0,0.0,0.0,0.0,0.0,-0.012976597804884173,-0.7435042866585916,0.0,0.0,11.854545318116925,0.004688300088418327,0.034836596191827336,-0.03980576655029253,-2.2807024236147884,0.0,0.0,0.02682916874540836,1.537198136956197,-5.961200281668092,0.0,-11.795203821170054,11.850279097708778,0.0,-0.31800944277532334,0.0,28.942883102885787,0.0,0.0,-0.46874502084487196,0.0,-0.2719959034039964,0.3490658503988659,1.0,0.14,0.14,0.75,0.08726646259971647,5.0,0.184,0.175,0.174,0.0,0.0,0.0,-0.05745465550965238,0.0,0.02499031149170027,0.0,6.003948603363962,0.0,-0.5272303990953198,0.0,0.14611337010594783,0.0,-3.4740977623095706,0.0,-0.015863981662431435,0.0,-0.015521122170907259,0.3878982941419956,0.11958402151216274,0.11921554079686462,0.0,0.0,0.0,0.37127998735418455,0.11921554079686462,0.0,0.0,0.1291999636593958,0.0,0.0,-0.0027678962438985556,0.0,1.436603380930361,0.0,4.474098607778418,0.0,0.21796885264783286,0.0,86.07479068870714,-1.6135132794156986,0.0,-4.413384474909763,0.0,0.21796885264783286,0.0
sim_raptor_glider_3dof,raptor_glider_3dof,0.024,-14.713992692279666,0.0,-0.005009448752589211,11.839200262018773,0.0,-0.48329725300947796,0.0,0.0,0.0,-25.20169781406787,-0.4398526039481421,-0.018560652852604078,0.0,0.0,0.0,0.0,0.0,-0.013430884278117665,-0.7695329842647536,0.0,0.0,11.84906068340237,0.005009448752589211,0.0348204786605612,-0.04079912933493187,-2.3376179186999857,0.0,0.0,0.027368245056814205,1.568084934435232,-5.947636904812888,0.0,-11.29236861043033,11.844623363704882,0.0,-0.32424751491474013,0.0,28.84145402206388,0.0,0.0,-0.4398526039481421,0.0,-0.2719959034039964,0.3490658503988659,1.0,0.14,0.14,0.75,0.08726646259971647,5.0,0.184,0.175,0.174,0.0,0.0,0.0,-0.05766111185082219,0.0,0.024952276851470286,0.0,6.0035996958966145,0.0,-0.5273758404307586,0.0,0.14496790370581944,0.0,-3.472505124182583,0.0,-0.015523617195994854,0.0,-0.015416872418376828,0.3837350032747609,0.11984312859081347,0.11909127325884672,0.0,0.0,0.0,0.3681347010997458,0.11909127325884672,0.0,0.0,0.1288664032902513,0.0,0.0,-0.002598491399364571,0.0,1.4337782709971432,0.0,4.432092468182878,0.0,0.21720499024016307,0.0,85.995162231625,-1.6133604770377232,0.0,-4.369923540296737,0.0,0.21720499024016307,0.0
sim_raptor_glider_3dof,raptor_glider_3dof,0.025,-14.702150894399924,0.0,-0.005336752278764895,11.833259761708065,0.0,-0.4943421286837641,0.0,0.0,0.0,-23.552155368734528,-0.4110626571256767,-0.01735381627324329,0.0,0.0,0.0,0.0,0.0,-0.013856333369324052,-0.793909421588556,0.0,0.0,11.843580992598936,0.005336752278764895,0.03480437565781814,-0.04175137394649189,-2.3921775160064493,0.0,0.0,0.02789504057716784,1.5982680944178933,-5.933221752880598,0.0,-10.798952609401631,11.838973349076147,0.0,-0.3303343277885481,0.0,28.738122560981044,0.0,0.0,-0.4110626571256767,0.0,-0.2719959034039964,0.3490658503988659,1.0,0.14,0.14,0.75,0.08726646259971647,5.0,0.184,0.175,0.174,0.0,0.0,0.0,-0.057858722638481845,0.0,0.02491562284011565,0.0,6.003261441444948,0.0,-0.5275141511989897,0.0,0.14386929916961916,0.0,-3.470975456642594,0.0,-0.015197582421940295,0.0,-0.015317742966704235,0.37974248173739683,0.12009070044631376,0.1189740230875221,0.0,0.0,0.0,0.36515735228408547,0.1189740230875221,0.0,0.0,0.1285235542972055,0.0,0.0,-0.002429534278254061,0.0,1.4310421463508278,0.0,4.392181987356937,0.0,0.21642680100674824,0.0,85.91564235221422,-1.6131214075250486,0.0,-4.328623748869786,0.0,0.21642680100674824,0.0
sim_raptor_glider_3dof,raptor_glider_3dof,0.026000000000000002,-14.690314743778446,0.0,-0.005670070310147771,11.827334066079445,0.0,-0.5048982402626153,0.0,0.0,0.0,-21.9085861766731,-0.3823769632398617,-0.016150259327011376,0.0,0.0,0.0,0.0,0.0,-0.014253044561483994,-0.816639298584924,0.0,0.0,11.83810598633344,0.005670070310147771,0.03478828642138599,-0.04266319615001661,-2.4444210799347346,0.0,0.0,0.028410151588532617,1.6277817813498103,-5.918034593402845,0.0,-10.314829990119733,11.833328822686433,0.0,-0.3362771443945268,0.0,28.632953689914128,0.0,0.0,-0.3823769632398617,0.0,-0.2719959034039964,0.3490658503988659,1.0,0.14,0.14,0.75,0.08726646259971647,5.0,0.184,0.175,0.174,0.0,0.0,0.0,-0.05804766520692744,0.0,0.024880363609096394,0.0,6.002934088404275,0.0,-0.527645562895321,0.0,0.1428168172222237,0.0,-3.4695080121167936,0.0,-0.014885603690890434,0.0,-0.015223578752309432,0.3759181065998869,0.120327005183505,0.11886346847860828,0.0,0.0,0.0,0.3623452546847909,0.11886346847860828,0.0,0.0,0.1281716887621012,0.0,0.0,-0.002261036305781593,0.0,1.4283908358817736,0.0,4.354328944305955,0.0,0.2156347742387433,0.0,85.83622718956745,-1.612804331744143,0.0,-4.289445549573858,0.0,0.2156347742387433,0.0
sim_raptor_glider_3dof,raptor_glider_3dof,0.027,-14.678484234996349,0.0,-0.006009261687229188,11.82142391793159,0.0,-0.5149748317552075,0.0,0.0,0.0,-20.271094077353485,-0.35379733463134044,-0.014950064804874128,0.0,0.0,0.0,0.0,0.0,-0.014621122800827082,-0.8377286282298891,0.0,0.0,11.832635485165017,0.006009261687229188,0.03477221042394727,-0.043535317418799936,-2.4943899478596134,0.0,0.0,0.028914194617972854,1.6566613196297242,-5.902152044308197,0.0,-9.83986939604289,11.827689606784574,0.0,-0.34208345523645395,0.0,28.526013614959012,0.0,0.0,-0.35379733463134044,0.0,-0.2719959034039964,0.3490658503988659,1.0,0.14,0.14,0.75,0.08726646259971647,5.0,0.184,0.175,0.174,0.0,0.0,0.0,-0.058228120975496664,0.0,0.024846506570344356,0.0,6.002617840354021,0.0,-0.5277703040093921,0.0,0.14180968594267748,0.0,-3.4681019779835487,0.0,-0.014587401805179478,0.0,-0.015134223915601715,0.3722591096828991,0.12055231467372848,0.11875929990442699,0.0,0.0,0.0,0.359695576083193,0.11875929990442699,0.0,0.0,0.12781108357863574,0.0,0.0,-0.002093009072682378,0.0,1.4258203504099052,0.0,4.318493564247705,0.0,0.21482940853425633,0.0,85.75691404843671,-1.6124169728387088,0.0,-4.2523478034838025,0.0,0.21482940853425633,0.0
sim_raptor_glider_3dof,raptor_glider_3dof,0.028,-14.66665936285626,0.0,-0.006354194006946165,11.815529971069585,0.0,-0.524580991964994,0.0,0.0,0.0,-18.639778479115684,-0.32532550630294976,-0.013753312309019463,0.0,0.0,0.0,0.0,0.0,-0.014960675127523783,-0.8571835434734574,0.0,0.0,11.827169302685009,0.006354194006946165,0.03475614711770845,-0.04436844772606289,-2.542124798250218,0.0,0.0,0.029407772598539106,1.6849412547767606,-5.8856472668587605,0.0,-9.373939791157627,11.822055502177829,0.0,-0.3477605753985293,0.0,28.417366704177056,0.0,0.0,-0.32532550630294976,0.0,-0.2719959034039964,0.3490658503988659,1.0,0.14,0.14,0.75,0.08726646259971647,5.0,0.184,0.175,0.174,0.0,0.0,0.0,-0.05840026765871987,0.0,0.02481405445113001,0.0,6.002312871093325,0.0,-0.527888594652207,0.0,0.14084714365763507,0.0,-3.466756537212672,0.0,-0.01430270450998695,0.0,-0.015049526057294371,0.3687627374107858,0.1207668946342567,0.11866122408395814,0.0,0.0,0.0,0.3572055017218227,0.11866122408395814,0.0,0.0,0.12744200858404361,0.0,0.0,-0.001925463723262725,0.0,1.4233269085021236,0.0,4.284636420958727,0.0,0.2140111886491574,0.0,85.67770013750935,-1.6119664885176188,0.0,-4.217289744393715,0.0,0.2140111886491574,0.0
sim_raptor_glider_3dof,raptor_glider_3dof,0.029,-14.654840122351642,0.0,-0.0067047419510930266,11.80965280978687,0.0,-0.5337256817370389,0.0,0.0,0.0,-17.014735231736516,-0.2969631511488826,-0.012560078868669645,0.0,0.0,0.0,0.0,0.0,-0.015271810251480387,-0.8750102729344506,0.0,0.0,11.821707262111195,0.0067047419510930266,0.03474009598316493,-0.045163287767015864,-2.587665777984829,0.0,0.0,0.029891477515535475,1.7126555050503784,-5.868590121733468,0.0,-8.91691041520641,11.816426305090651,0.0,-0.35331567671741976,0.0,28.307075734522883,0.0,0.0,-0.2969631511488826,0.0,-0.2719959034039964,0.3490658503988659,1.0,0.14,0.14,0.75,0.08726646259971647,5.0,0.184,0.175,0.174,0.0,0.0,0.0,-0.05856427968503928,0.0,0.02478300578622354,0.0,6.002019325749876,0.0,-0.5280006469800503,0.0,0.13992843638323454,0.0,-3.4654708657782267,0.0,-0.014031245491300966,0.0,-0.014969336301874971,0.3654262450831627,0.12097100503498229,0.11856896303347661,0.0,0.0,0.0,0.354872228028785,0.11856896303347661,0.0,0.0,0.12706472726975748,0.0,0.0,-0.0017584110416137505,0.0,1.4209069281274027,0.0,4.252718371701888,0.0,0.21318058735669185,0.0,85.59858280994216,-1.6114595029293193,0.0,-4.184230911150817,0.0,0.21318058735669185,0.0
sim_raptor_glider_3dof,raptor_glider_3dof,0.03,-14.643026508677753,0.0,-0.007060786974851258,11.803792953388223,0.0,-0.5424177370136171,0.0,0.0,0.0,-15.39605679943534,-0.26871188297420695,-0.01137043906624085,0.0,0.0,0.0,0.0,0.0,-0.01555463844418498,-0.8912151347037365,0.0,0.0,11.816249197096532,0.007060786974851258,0.03472405653147766,-0.0459205291910589,-2.631052515654971,0.0,0.0,0.03036589074687392,1.7398373809512349,-5.8510472822254105,0.0,-8.468650923976101,11.810801808914134,0.0,-0.35875579219727016,0.0,28.19520190137703,0.0,0.0,-0.26871188297420695,0.0,-0.2719959034039964,0.3490658503988659,1.0,0.14,0.14,0.75,0.08726646259971647,5.0,0.184,0.175,0.174,0.0,0.0,0.0,-0.05872032821241253,0.0,0.024753355435569103,0.0,6.001737322488722,0.0,-0.5281066653412593,0.0,0.13905281757283966,0.0,-3.4642441332316944,0.0,-0.013772764073415237,0.0,-0.014893509524671205,0.3622468991740938,0.12116490001966648,0.11848225339160283,0.0,0.0,0.0,0.35269296478172196,0.11848225339160283,0.0,0.0,0.12667949677551554,0.0,0.0,-0.0015918614692737192,0.0,1.418557017846109,0.0,4.22270058185373,0.0,0.21233806551927042,0.0,85.51955957473653,-1.610902132091434,0.0,-4.153131172704704,0.0,0.21233806551927042,0.0
sim_raptor_glider_3dof,raptor_glider_3dof,0.03,-14.643026508677753,0.0,-0.007060786974851258,11.803792953388223,0.0,-0.5424177370136171,0.0,0.0,0.0,-15.39605679943534,-0.26871188297420695,-0.01137043906624085,0.0,0.0,0.0,0.0,0.0,-0.01555463844418498,-0.8912151347037365,0.0,0.0,11.816249197096532,0.007060786974851258,0.03472405653147766,-0.0459205291910589,-2.631052515654971,0.0,0.0,0.03036589074687392,1.7398373809512349,-5.782186611160955,0.0,-8.617628646145727,11.810801808914134,0.0,-0.35875579219727016,0.0,26.531897614091175,0.0,0.0,-0.26871188297420695,0.0,-0.2620357267351009,0.3490658503988659,1.0,0.14,0.14,0.75,0.08726646259971647,5.0,0.184,0.175,0.174,0.0,0.0,0.0,-0.04439063613148061,0.0,0.021901861230098397,0.0,6.006650870906068,0.0,-0.5261537151069224,0.0,0.13887727291556368,0.0,-3.4817426823543336,0.0,-0.01797185970160961,0.0,-0.013951871687163617,0.3656003555556301,0.11366390975579566,0.11674519267470462,0.0,0.0,0.0,0.3560385994748553,0.11674519267470462,0.0,0.0,0.11920636177776124,0.0,0.0,-0.0015918614692737192,0.0,1.3977596444011897,0.0,4.26275699061739,0.0,0.19981172093172064,0.0,85.51955957473653,-1.5919654475487088,0.0,-4.194100046301352,0.0,0.19981172093172064,0.0
sim_raptor_glider_3dof,raptor_glider_3dof,0.031,-14.631218486457927,0.0,-0.007422286881800142,11.798019232305451,0.0,-0.5508224216307924,0.0,0.0,0.0,-13.878841090520737,-0.24223147339066722,-0.01025459860759926,0.0,0.0,0.0,0.0,0.0,-0.01581008547687869,-0.9058511715662264,0.0,0.0,11.810870549879908,0.007422286881800142,0.03470825046248761,-0.04665382523494049,-2.673067284103026,0.0,0.0,0.030843739758061796,1.7672161125367998,-5.7652851999796635,0.0,-8.192544014762332,11.805252940414462,0.0,-0.36423365969693816,0.0,26.42910943550404,0.0,0.0,-0.24223147339066722,0.0,-0.2620357267351009,0.3490658503988659,1.0,0.14,0.14,0.75,0.08726646259971647,5.0,0.184,0.175,0.174,0.0,0.0,0.0,-0.0445072292190478,0.0,0.02188073403779338,0.0,6.006421294748109,0.0,-0.5262472635103634,0.0,0.13802853128536394,0.0,-3.480657154289789,0.0,-0.017730117586525464,0.0,-0.013882181527050818,0.36251673388025096,0.1138557329301659,0.11666185960608796,0.0,0.0,0.0,0.353893652357842,0.11666185960608796,0.0,0.0,0.11885271681127337,0.0,0.0,-0.0014356438050638965,0.0,1.3954906225991583,0.0,4.233219622336307,0.0,0.19903762315878093,0.0,85.44172187104749,-1.591396451956555,0.0,-4.163532128060911,0.0,0.19903762315878093,0.0
sim_raptor_glider_3dof,raptor_glider_3dof,0.032,-14.61941600589005,0.0,-0.007789206292093651,11.792262583346787,0.0,-0.5588064987896056,0.0,0.0,0.0,-12.367552500710982,-0.21585451155066498,-0.009142120017659107,0.0,0.0,0.0,0.0,0.0,-0.016039128478428335,-0.9189743688820294,0.0,0.0,11.80549539569137,0.007789206292093651,0.03469245465835426,-0.0473521324568977,-2.7130773407246798,0.0,0.0,0.03131300397846937,1.7941029718426504,-5.74801225955022,0.0,-7.775610835562238,11.799708199562291,0.0,-0.369605117486972,0.0,26.324813899768287,0.0,0.0,-0.21585451155066498,0.0,-0.2620357267351009,0.3490658503988659,1.0,0.14,0.14,0.75,0.08726646259971647,5.0,0.184,0.175,0.174,0.0,0.0,0.0,-0.04461811867450937,0.0,0.021860578979649686,0.0,6.0062006212746955,0.0,-0.5263357166278081,0.0,0.13722000990081762,0.0,-3.4796217923527935,0.0,-0.017500013002283113,0.0,-0.01381628224627484,0.35957971520295384,0.11403796597296732,0.11658353270678608,0.0,0.0,0.0,0.35189239823277735,0.11658353270678608,0.0,0.0,0.1184915227788125,0.0,0.0,-0.001279896802472275,0.0,1.39328464837241,0.0,4.205450503629667,0.0,0.19825217347915497,0.0,85.36397012166354,-1.5907855510725826,0.0,-4.134786255705118,0.0,0.19825217347915497,0.0
sim_raptor_glider_3dof,raptor_glider_3dof,0.033,-14.60761906809878,0.0,-0.008161447117980593,11.786523365783397,0.0,-0.5663776612172043,0.0,0.0,0.0,-10.862281240528725,-0.18958257192484038,-0.008033075691990205,0.0,0.0,0.0,0.0,0.0,-0.016241847028637662,-0.9305892862380347,0.0,0.0,11.800123588644478,0.008161447117980593,0.0346766686903655,-0.04801605254635373,-2.7511171597844584,0.0,0.0,0.031774205517716064,1.8205278735464234,-5.730422393493677,0.0,-7.366715337843811,11.794167386593356,0.0,-0.3748764653875983,0.0,26.21906478998086,0.0,0.0,-0.18958257192484038,0.0,-0.2620357267351009,0.3490658503988659,1.0,0.14,0.14,0.75,0.08726646259971647,5.0,0.184,0.175,0.174,0.0,0.0,0.0,-0.04472341883979684,0.0,0.021841388917492294,0.0,6.005988964189933,0.0,-0.5264192396326645,0.0,0.13645105074774222,0.0,-3.4786359413018086,0.0,-0.017281331210914446,0.0,-0.013754054991358174,0.3567868839483428,0.1142108250327128,0.11650999532861642,0.0,0.0,0.0,0.3500323649946994,0.11650999532861642,0.0,0.0,0.11812300544770252,0.0,0.0,-0.001124630596878629,0.0,1.3911389330927992,0.0,4.179415245990277,0.0,0.19745577693334584,0.0,85.28630214877346,-1.5901374957026386,0.0,-4.107826928479714,0.0,0.19745577693334584,0.0
sim_raptor_glider_3dof,raptor_glider_3dof,0.034,-14.595827669746118,0.0,-0.008538923880265788,11.780801836212435,0.0,-0.5735429092301254,0.0,0.0,0.0,-9.363099166834191,-0.16341690865199449,-0.006927524561012533,0.0,0.0,0.0,0.0,0.0,-0.0164183336904632,-0.9407012271009907,0.0,0.0,11.794754909400806,0.008538923880265788,0.03466089191395811,-0.0486461300657738,-2.7872179424133003,0.0,0.0,0.0322277963753106,1.8465167153123097,-5.712567214211914,0.0,-6.965750709303551,11.788630241321256,0.0,-0.38005316238698283,0.0,26.111910050968046,0.0,0.0,-0.16341690865199449,0.0,-0.2620357267351009,0.3490658503988659,1.0,0.14,0.14,0.75,0.08726646259971647,5.0,0.184,0.175,0.174,0.0,0.0,0.0,-0.04482323403076773,0.0,0.0218231565332479,0.0,6.005786432733164,0.0,-0.5264979848740633,0.0,0.13572105961288652,0.0,-3.4776990140131065,0.0,-0.01707387778662144,0.0,-0.01369538939428582,0.35413604828656753,0.11437450820227915,0.11644104755307272,0.0,0.0,0.0,0.3483113156636338,0.11644104755307272,0.0,0.0,0.11774736654923304,0.0,0.0,-0.0009698534385417548,0.0,1.389050880324577,0.0,4.1550823340803476,0.0,0.19664879459384035,0.0,85.20871471717177,-1.5894566114771274,0.0,-4.082621612560821,0.0,0.19664879459384035,0.0
sim_raptor_glider_3dof,raptor_glider_3dof,0.034999999999999996,-14.584041806605287,0.0,-0.008921529025512681,11.775098286206605,0.0,-0.5803114212402197,0.0,0.0,0.0,-7.870098763326004,-0.13735913587717272,-0.0058255407435893435,0.0,0.0,0.0,0.0,0.0,-0.01656871267524642,-0.9493173082565313,0.0,0.0,11.789389339378337,0.008921529025512681,0.03464512427452566,-0.04924309496051721,-2.8214215113995693,0.0,0.0,0.03267438228527079,1.872104203143038,-5.69449662468035,0.0,-6.572579324080795,11.783096633288324,0.0,-0.38514247498415644,0.0,26.0034099896532,0.0,0.0,-0.13735913587717272,0.0,-0.2620357267351009,0.3490658503988659,1.0,0.14,0.14,0.75,0.08726646259971647,5.0,0.184,0.175,0.174,0.0,0.0,0.0,-0.04491769692555868,0.0,0.021805867545958667,0.0,6.005593054607219,0.0,-0.5265721222506335,0.0,0.13502922513070004,0.0,-3.476810131368403,0.0,-0.0168773986704154,0.0,-0.01364016110093478,0.3516242217265912,0.1145292584539376,0.11637647935919242,0.0,0.0,0.0,0.3467262059425268,0.11637647935919242,0.0,0.0,0.11736486032485913,0.0,0.0,-0.0008155757041025082,0.0,1.3870178296901925,0.0,4.132410881573308,0.0,0.19583168063207826,0.0,85.13120749678565,-1.58874696237193,0.0,-4.059128138354089,0.0,0.19583168063207826,0.0
sim_raptor_glider_3dof,raptor_glider_3dof,0.036,-14.572261475399628,0.0,-0.00930918213090361,11.769412895096968,0.0,-0.586690614651809,0.0,0.0,0.0,-6.383352370016402,-0.11141051617176957,-0.004727183619189927,0.0,0.0,0.0,0.0,0.0,-0.016693088401582866,-0.9564435124494837,0.0,0.0,11.784026721481723,0.00930918213090361,0.03462936531041677,-0.04980752969987352,-2.853761239775253,0.0,0.0,0.03311444129829066,1.897317727325769,-5.6762575295607505,0.0,-6.187087199092851,11.777566329034212,0.0,-0.39015014775717155,0.0,25.893613459997095,0.0,0.0,-0.11141051617176957,0.0,-0.2620357267351009,0.3490658503988659,1.0,0.14,0.14,0.75,0.08726646259971647,5.0,0.184,0.175,0.174,0.0,0.0,0.0,-0.04500691581016263,0.0,0.02178951055782881,0.0,6.0054088838171795,0.0,-0.5266417976838709,0.0,0.13437490444194836,0.0,-3.4759686177073825,0.0,-0.01669168967198819,0.0,-0.013588262851698733,0.3492490252183717,0.11467527711865322,0.11631610675794707,0.0,0.0,0.0,0.34527461134807513,0.11631610675794707,0.0,0.0,0.11697569298611546,0.0,0.0,-0.0006618057066865899,0.0,1.3850374076641954,0.0,4.111367427633811,0.0,0.19500480296723813,0.0,85.05377815856625,-1.588012166929266,0.0,-4.037311989842007,0.0,0.19500480296723813,0.0
sim_raptor_glider_3dof,raptor_glider_3dof,0.037,-14.560486672937184,0.0,-0.009701804551368497,11.763745808701564,0.0,-0.5926881066110347,0.0,0.0,0.0,-4.902932814821163,-0.08557232062270273,-0.003632512963165346,0.0,0.0,0.0,0.0,0.0,-0.01679157061812759,-0.9620861278145898,0.0,0.0,11.778666929812635,0.009701804551368497,0.034613614651657805,-0.05034003490220839,-2.8842715404378008,0.0,0.0,0.0335484642840808,1.9221854126232107,-5.657894635790485,0.0,-5.8091570658214895,11.7720391098717,0.0,-0.3950820663012858,0.0,25.782569773304218,0.0,0.0,-0.08557232062270273,0.0,-0.2620357267351009,0.3490658503988659,1.0,0.14,0.14,0.75,0.08726646259971647,5.0,0.184,0.175,0.174,0.0,0.0,0.0,-0.04509100084245011,0.0,0.021774072460742668,0.0,6.005233948855531,0.0,-0.5267071540923796,0.0,0.1337574314122219,0.0,-3.4751737555151503,0.0,-0.0165165418226139,0.0,-0.013539588982236441,0.34700799201328947,0.1148127670152779,0.11625975307174978,0.0,0.0,0.0,0.3439540193900413,0.11625975307174978,0.0,0.0,0.11658007293554042,0.0,0.0,-0.0005085518148431485,0.0,1.383107343435426,0.0,4.0919176022066965,0.0,0.19416853296275408,0.0,84.97642482776357,-1.5872555206619205,0.0,-4.017137724654491,0.0,0.19416853296275408,0.0
sim_raptor_glider_3dof,raptor_glider_3dof,0.038,-14.548717396229549,0.0,-0.010099323059156555,11.758097132050548,0.0,-0.5983114081830062,0.0,0.0,0.0,-3.428910348758857,-0.05984577534154911,-0.0025415866960571045,0.0,0.0,0.0,0.0,0.0,-0.01686427028552279,-0.9662515119283397,0.0,0.0,11.773309845064693,0.010099323059156555,0.03459787194764669,-0.050841203463985685,-2.912986383852281,0.0,0.0,0.0339769331784629,1.9467348719239415,-5.639450430160704,0.0,-5.43867268237058,11.766514756061957,0.0,-0.39994400017186255,0.0,25.67032687850891,0.0,0.0,-0.05984577534154911,0.0,-0.2620357267351009,0.3490658503988659,1.0,0.14,0.14,0.75,0.08726646259971647,5.0,0.184,0.175,0.174,0.0,0.0,0.0,-0.04517005995977014,0.0,0.02175953936000344,0.0,6.005068262045584,0.0,-0.5267683283275716,0.0,0.13317614666762492,0.0,-3.4744248245659946,0.0,-0.01635174980242063,0.0,-0.013494037820005233,0.34489867794711354,0.11494192576764753,0.11620725135673322,0.0,0.0,0.0,0.3427619417225914,0.11620725135673322,0.0,0.0,0.11617820303512698,0.0,0.0,-0.0003558221374479947,0.0,1.3812254914625641,0.0,4.074027445646297,0.0,0.1933232317220506,0.0,84.89914572803548,-1.5864799987143547,0.0,-3.9985703319842445,0.0,0.1933232317220506,0.0
sim_raptor_glider_3dof,raptor_glider_3dof,0.039,-14.536953642541077,0.0,-0.010501670933788248,11.75246692280034,0.0,-0.6035678988310588,0.0,0.0,0.0,-1.9613521342680897,-0.03423205253399607,-0.0014544605045279696,0.0,0.0,0.0,0.0,0.0,-0.01691129973970393,-0.9689461011657229,0.0,0.0,11.767955344069565,0.010501670933788248,0.034582136836432346,-0.051311618409076956,-2.939939174825889,0.0,0.0,0.03440031866937303,1.9709930736601664,-5.620965240082439,0.0,-5.075519173423926,11.760993037877565,0.0,-0.40474157558973456,0.0,25.556931172709877,0.0,0.0,-0.03423205253399607,0.0,-0.2620357267351009,0.3490658503988659,1.0,0.14,0.14,0.75,0.08726646259971647,5.0,0.184,0.175,0.174,0.0,0.0,0.0,-0.045244198552303196,0.0,0.021745896793813585,0.0,6.0049118212698565,0.0,-0.5268254510937452,0.0,0.13263040015884817,0.0,-3.47372110581896,0.0,-0.016197112561759236,0.0,-0.013451511844674278,0.3429186717944827,0.11506294530665093,0.11615844421267298,0.0,0.0,0.0,0.3416959248036733,0.11615844421267298,0.0,0.0,0.11577027992795318,0.0,0.0,-0.00020362447063391575,0.0,1.3793898262043411,0.0,4.057663526094712,0.0,0.19246924866167808,0.0,84.82193903052641,-1.5856882703184338,0.0,-3.9815753531749136,0.0,0.19246924866167808,0.0
sim_raptor_glider_3dof,raptor_glider_3dof,0.04,-14.525195409350212,0.0,-0.010908786548175438,11.746855202884579,0.0,-0.6084648531459136,0.0,0.0,0.0,-0.500322941140334,-0.00873228264616062,-0.0003711883507338769,0.0,0.0,0.0,0.0,0.0,-0.01693277236410156,-0.9701763919187767,0.0,0.0,11.762603310281715,0.010908786548175438,0.03456640897552592,-0.05175185508973888,-2.965162878614666,0.0,0.0,0.03481908272563732,1.9949864866958895,-5.602477336652645,0.0,-4.719582817267204,11.755473725638156,0.0,-0.4094803058528512,0.0,25.44242774790727,0.0,0.0,-0.00873228264616062,0.0,-0.2620357267351009,0.3490658503988659,1.0,0.14,0.14,0.75,0.08726646259971647,5.0,0.184,0.175,0.174,0.0,0.0,0.0,-0.04531351982646198,0.0,0.021733129809553976,0.0,6.004764610214988,0.0,-0.526878647400762,0.0,0.13211954867976888,0.0,-3.4730618787895895,0.0,-0.016052432517974932,0.0,-0.013411917440375601,0.3410655871744347,0.11517601250293809,0.11611318314881616,0.0,0.0,0.0,0.34075354136032515,0.11611318314881616,0.0,0.0,0.11535649491844793,0.0,0.0,-0.000051966369102742765,0.0,1.3775984365132736,0.0,4.04279284302035,0.0,0.19160692336948967,0.0,84.7448030050668,-1.5848827188343608,0.0,-3.9661187818067907,0.0,0.19160692336948967,0.0
sim_raptor_glider_3dof,raptor_glider_3dof,0.04,-14.525195409350212,0.0,-0.010908786548175438,11.746855202884579,0.0,-0.6084648531459136,0.0,0.0,0.0,-0.500322941140334,-0.00873228264616062,-0.0003711883507338769,0.0,0.0,0.0,0.0,0.0,-0.01693277236410156,-0.9701763919187767,0.0,0.0,11.762603310281715,0.010908786548175438,0.03456640897552592,-0.05175185508973888,-2.965162878614666,0.0,0.0,0.03481908272563732,1.9949864866958895,-5.511695101411729,0.0,-4.918433013069727,11.755473725638156,0.0,-0.4094803058528512,0.0,23.21307402490135,0.0,0.0,-0.00873228264616062,0.0,-0.24817902561640193,0.3490658503988659,1.0,0.14,0.14,0.75,0.08726646259971647,5.0,0.184,0.175,0.174,0.0,0.0,0.0,-0.028763658599230805,0.0,0.018306374947362376,0.0,6.011841243290613,0.0,-0.5245978098121613,0.0,0.13193381478111038,0.0,-3.49807921956581,0.0,-0.02090286760116083,0.0,-0.012261303674448217,0.34556005075494256,0.10506677644025891,0.11377335016743914,0.0,0.0,0.0,0.3452476371939066,0.11377335016743914,0.0,0.0,0.10524855891613351,0.0,0.0,-0.000051966369102742765,0.0,1.349838020603256,0.0,4.0961120202747345,0.0,0.17481766048153208,0.0,84.7448030050668,-1.559917604143109,0.0,-4.0208025856524845,0.0,0.17481766048153208,0.0
sim_raptor_glider_3dof,raptor_glider_3dof,0.041,-14.51344264725672,0.0,-0.011320709097329204,11.741352025762138,0.0,-0.613218305980712,0.0,0.0,0.0,0.8267694588586683,0.014429849212015561,0.0006136520444042883,0.0,0.0,0.0,0.0,0.0,-0.016929919136200483,-0.970012914002056,0.0,0.0,11.757354467891938,0.011320709097329204,0.03455098436008092,-0.05217982223650008,-2.9896835898943386,0.0,0.0,0.035249903100299594,2.0196706758922827,-5.4946611829019405,0.0,-4.589043883657261,11.750050640502476,0.0,-0.4143597824184676,0.0,23.11109640305213,0.0,0.0,0.014429849212015561,0.0,-0.24817902561640193,0.3490658503988659,1.0,0.14,0.14,0.75,0.08726646259971647,5.0,0.184,0.175,0.174,0.0,0.0,0.0,-0.028808400504658015,0.0,0.018299024178501794,0.0,6.0117278307258575,0.0,-0.5246437367792793,0.0,0.13143696652568299,0.0,-3.4975088103547542,0.0,-0.02076784083893782,0.0,-0.012224876148770858,0.3437551699520197,0.10518024614478705,0.11372931024977014,0.0,0.0,0.0,0.3442716452223415,0.11372931024977014,0.0,0.0,0.10487977066433558,0.0,0.0,0.00008591128621660036,0.0,1.348111573922302,0.0,4.080888105961666,0.0,0.1740496670113856,0.0,84.66918830345023,-1.5591201150497742,0.0,-4.005021475094714,0.0,0.1740496670113856,0.0
sim_raptor_glider_3dof,raptor_glider_3dof,0.042,-14.501695307332271,0.0,-0.01173748316633103,11.73586586407198,0.0,-0.6176456722705468,0.0,0.0,0.0,2.1479882621448496,0.0374894674686187,0.0015950103865503896,0.0,0.0,0.0,0.0,0.0,-0.016903955522690542,-0.9685253085270276,0.0,0.0,11.752107630376967,0.01173748316633103,0.034535565636301294,-0.052580386774865116,-3.0126342473652614,0.0,0.0,0.035676431252174574,2.044108938838234,-5.477666382865137,0.0,-4.266186338907673,11.744629336812826,0.0,-0.4191843232279025,0.0,23.00806038495269,0.0,0.0,0.0374894674686187,0.0,-0.24817902561640193,0.3490658503988659,1.0,0.14,0.14,0.75,0.08726646259971647,5.0,0.184,0.175,0.174,0.0,0.0,0.0,-0.028850242114603578,0.0,0.018292144561702205,0.0,6.0116209793917115,0.0,-0.5246865077203616,0.0,0.13097185326463356,0.0,-3.496974372085922,0.0,-0.020641487684595825,0.0,-0.012190932922938812,0.3420657721873647,0.10528631786642172,0.11368844479026524,0.0,0.0,0.0,0.34340817589366346,0.11368844479026524,0.0,0.0,0.10450543840412485,0.0,0.0,0.00022330145411705456,0.0,1.3464246516430107,0.0,4.06702048261794,0.0,0.17327370275907872,0.0,84.59363621386011,-1.5583108395425262,0.0,-3.9906368258650304,0.0,0.17327370275907872,0.0
sim_raptor_glider_3dof,raptor_glider_3dof,0.043000000000000003,-14.48995338803935,0.0,-0.0121590601442149,11.730396667831016,0.0,-0.6217529433406226,0.0,0.0,0.0,3.4632784369511627,0.060445611638120636,0.0025728406515871387,0.0,0.0,0.0,0.0,0.0,-0.016854976697313128,-0.9657190285473934,0.0,0.0,11.74686267508111,0.0121590601442149,0.03452015244374242,-0.05295402141119074,-3.034041935106625,0.0,0.0,0.03609904471387761,2.0683229065592315,-5.460740172223796,0.0,-3.9497661605399603,11.73920959686349,0.0,-0.4239584273508965,0.0,22.904003375287463,0.0,0.0,0.060445611638120636,0.0,-0.24817902561640193,0.3490658503988659,1.0,0.14,0.14,0.75,0.08726646259971647,5.0,0.184,0.175,0.174,0.0,0.0,0.0,-0.028889240001402455,0.0,0.018285728042459284,0.0,6.011520701265544,0.0,-0.5247262153367533,0.0,0.13053794168696814,0.0,-3.4964753825940886,0.0,-0.020523653331205295,0.0,-0.01215940417932798,0.34048988690113446,0.10538514273054994,0.11365063626306642,0.0,0.0,0.0,0.3426552227784648,0.11365063626306642,0.0,0.0,0.10412572037032429,0.0,0.0,0.0003601976912221994,0.0,1.3447757326315057,0.0,4.054481729299991,0.0,0.1724900494192899,0.0,84.51814493263383,-1.5574914960710857,0.0,-3.9776204072244368,0.0,0.1724900494192899,0.0
sim_raptor_glider_3dof,raptor_glider_3dof,0.044,-14.478216887747072,0.0,-0.012585386875112407,11.724944350621207,0.0,-0.6255471293244669,0.0,0.0,0.0,4.772576864477692,0.08329718008964293,0.0035470907510691853,0.0,0.0,0.0,0.0,0.0,-0.016783096476284377,-0.9616005952519785,0.0,0.0,11.74161953208203,0.012585386875112407,0.03450474457692565,-0.05330128652320213,-3.0539387603970156,0.0,0.0,0.03651819004691775,2.092338165145037,-5.443910440831958,0.0,-3.6396745367235877,11.733791218166845,0.0,-0.4286873973432284,0.0,22.798968266793246,0.0,0.0,0.08329718008964293,0.0,-0.24817902561640193,0.3490658503988659,1.0,0.14,0.14,0.75,0.08726646259971647,5.0,0.184,0.175,0.174,0.0,0.0,0.0,-0.028925459503776417,0.0,0.018279764682401924,0.0,6.011426971939732,0.0,-0.5247629580405972,0.0,0.1301345954550949,0.0,-3.496011192686984,0.0,-0.020414155877410013,0.0,-0.012130214942558335,0.33902516947149985,0.10547689304654399,0.11361576454039818,0.0,0.0,0.0,0.3420104002533052,0.11361576454039818,0.0,0.0,0.10374079939113398,0.0,0.0,0.000496592705149686,0.0,1.3431632822755042,0.0,4.04324007002786,0.0,0.17169903001721995,0.0,84.44271341776428,-1.556663619316966,0.0,-3.965939515805429,0.0,0.17169903001721995,0.0
