name,vehicle,t,north,east,down,u,v,w,p_rad,p_deg,p_hat_div_b,q_deg,q_rad,q_hat_div_c,r_rad,r_deg,r_hat_div_b,phi_rad,phi_deg,theta_rad,theta_deg,psi_rad,psi_deg,speed,altitude,mach,alpha_rad,alpha_deg,beta_rad,beta_deg,gamma_rad,gamma_deg,u_dot,v_dot,w_dot,north_dot,east_dot,down_dot,p_rad_dot,q_rad_dot,r_rad_dot,phi_rad_dot,theta_rad_dot,psi_rad_dot,del_tail_alt_rad,del_tail_splay_rad,DIM_b,DIM_c_bar,DIM_S,DIM_wing_position,DIM_wing_incidence_rad,DIM_wing_incidence_deg,DIM_empennage_length,DIM_nose_length,DIM_tail_length,CDp,CDq,CDr,CYp,CYq,CYr,CLp,CLq,CLr,Clp,Clq,Clr,Cmp,Cmq,Cmr,Cnp,Cnq,Cnr,CL_0,Cm_0,CD_0,Cl_0,CY_0,Cn_0,CL,CD,CY,Cl,Cm,Cn,p_hat,q_hat,r_hat,drag_force_wind,side_force_wind,lift_force_wind,roll_moment_wind,pitch_moment_wind,yaw_moment_wind,qbar,X_total,Y_total,Z_total,L_total,M_total,N_total
sim_raptor_glider_3dof,raptor_glider_3dof,0.0,-15.0,0.0,0.0,12.0,0.0,0.0,0.0,0.0,0.0,0.0,0.0,0.0,0.0,0.0,0.0,0.0,0.0,0.0,0.0,0.0,0.0,12.0,-0.0,0.035264039495724236,0.0,0.0,0.0,0.0,0.0,0.0,-6.762323679567097,0.0,-22.180662212099,12.0,0.0,0.0,0.0,-57.923420197563935,0.0,0.0,0.0,0.0,0.282908729519428,0.3490658503988659,1.0,0.14,0.14,0.75,0.08726646259971647,5.0,0.184,0.175,0.174,0.0,0.0,0.0,-0.004945137760536613,0.0,0.0228171566109056,0.0,6.062286282818934,0.0,-0.5155269527930131,0.0,0.1949207853932352,0.0,-3.6483930698731046,0.0,-0.045459327429634,0.0,-0.01857964390052979,0.7123833205835884,-0.25233768185816036,0.15060241903941213,0.0,0.0,0.0,0.7123833205835884,0.15060241903941213,0.0,0.0,-0.25233768185816036,0.0,0.0,0.0,0.0,1.8596390118809518,0.0,8.796510858327226,0.0,-0.436221277507854,0.0,88.20001620075907,-1.8596390118809518,0.0,-8.796510858327226,0.0,-0.436221277507854,0.0
sim_raptor_glider_3dof,raptor_glider_3dof,0.001,-14.988003384894647,0.0,-0.000011011237602733406,11.993225873225748,0.0,-0.02228876584542084,0.0,0.0,0.0,-3.3048823748837455,-0.05768107883285091,-0.0024047316307022133,0.0,0.0,0.0,0.0,0.0,-0.00002888121698827249,-0.0016547718406295482,0.0,0.0,11.9932465844447,0.000011011237602733406,0.035244193436318134,-0.001858444126759253,-0.10648100492418097,0.0,0.0,0.0018295629097709804,0.10482623308355142,-6.786099006773322,0.0,-22.395194277820117,11.993226511950507,0.0,-0.021942386877339192,0.0,-57.439128731441556,0.0,0.0,-0.05768107883285091,0.0,0.282908729519428,0.3490658503988659,1.0,0.14,0.14,0.75,0.08726646259971647,5.0,0.184,0.175,0.174,0.0,0.0,0.0,-0.005015256113954305,0.0,0.022768642532541558,0.0,6.06347686132737,0.0,-0.5158065365874335,0.0,0.19279526986522819,0.0,-3.6497468232978205,0.0,-0.04489908505681201,0.0,-0.01833985318355853,0.704866390962786,-0.2517385331440019,0.1499739169450426,0.0,0.0,0.0,0.702825046118721,0.1499739169450426,0.0,0.0,-0.2505098005157964,0.0,0.0,-0.0003366624282983099,0.0,1.8497944358844722,0.0,8.668719776033242,0.0,-0.4325740784764864,0.0,88.10076890914698,-1.865901563542512,0.0,-8.665267068336012,0.0,-0.4325740784764864,0.0
sim_raptor_glider_3dof,raptor_glider_3dof,0.002,-14.976013553751367,0.0,-0.00004372553411516313,11.986427474868496,0.0,-0.044787107819400006,0.0,0.0,0.0,-6.58208381052244,-0.11487903413583117,-0.0047920129852515765,0.0,0.0,0.0,0.0,0.0,-0.00011520145323758746,-0.006600557064287475,0.0,0.0,11.986511147757264,0.00004372553411516313,0.035224400210870914,-0.00373646772451475,-0.21408383090154554,0.0,0.0,0.0036212662712771628,0.20748327383725806,-6.810859034114563,0.0,-22.599858184929523,11.986432554870206,0.0,-0.043406253661029265,0.0,-56.95717127467638,0.0,0.0,-0.11487903413583117,0.0,0.282908729519428,0.3490658503988659,1.0,0.14,0.14,0.75,0.08726646259971647,5.0,0.184,0.175,0.174,0.0,0.0,0.0,-0.005086377830045352,0.0,0.022723383139910684,0.0,6.064662436795497,0.0,-0.5160858579607731,0.0,0.19064739268720962,0.0,-3.651101479474505,0.0,-0.044334168369544964,0.0,-0.018100303939723585,0.6972402334122828,-0.2511365407401552,0.1493463308824084,0.0,0.0,0.0,0.693171561651522,0.1493463308824084,0.0,0.0,-0.24868708314213936,0.0,0.0,-0.0006708818179352208,0.0,1.8399852990355758,0.0,8.540052344188966,0.0,-0.4289444568695878,0.0,88.00184148023479,-1.8718820105577427,0.0,-8.533117699920984,0.0,-0.4289444568695878,0.0
sim_raptor_glider_3dof,raptor_glider_3dof,0.003,-14.964030525663864,0.0,-0.0000976632724562294,11.979603840863387,0.0,-0.06748525844817264,0.0,0.0,0.0,-9.831738068951754,-0.17159620049687738,-0.007161901181100072,0.0,0.0,0.0,0.0,0.0,-0.0002584790441193742,-0.014809758320615943,0.0,0.0,11.979793923275,0.0000976632724562294,0.0352046605050839,-0.005633286833675633,-0.3227635603562287,0.0,0.0,0.0053748077895562595,0.3079538020356128,-6.836563091228324,0.0,-22.794845423104643,11.979620884201141,0.0,-0.06438877967854466,0.0,-56.47755114830425,0.0,0.0,-0.17159620049687738,0.0,0.282908729519428,0.3490658503988659,1.0,0.14,0.14,0.75,0.08726646259971647,5.0,0.184,0.175,0.174,0.0,0.0,0.0,-0.0051584662602719095,0.0,0.022681232434388646,0.0,6.065842120478063,0.0,-0.5163646438628399,0.0,0.18847791823562968,0.0,-3.6524561704848164,0.0,-0.04376472573339424,0.0,-0.017861160444461566,0.6895079852477155,-0.250531767441695,0.14872015454284376,0.0,0.0,0.0,0.6834259705891329,0.14872015454284376,0.0,0.0,-0.24686957321911138,0.0,0.0,-0.0010026661653540101,0.0,1.8302176165818673,0.0,8.410549698840263,0.0,-0.4253324376978793,0.0,87.90323689327971,-1.8775673649641855,0.0,-8.400106163063066,0.0,-0.4253324376978793,0.0
sim_raptor_glider_3dof,raptor_glider_3dof,0.004,-14.952054316998339,0.0,-0.00017234177385241992,11.972754047644067,0.0,-0.09037363643597167,0.0,0.0,0.0,-13.053979022015442,-0.2278349144204388,-0.00951445353252735,0.0,0.0,0.0,0.0,0.0,-0.00045823436140924944,-0.026254894936622437,0.0,0.0,11.973095125302399,0.00017234177385241992,0.03518497494872726,-0.007548131344328574,-0.43247606924043563,0.0,0.0,0.007089896982919324,0.40622117430381316,-6.86316987578735,0.0,-22.98034807369242,11.972794202936376,0.0,-0.08488729983437095,0.0,-56.00026559771315,0.0,0.0,-0.2278349144204388,0.0,0.282908729519428,0.3490658503988659,1.0,0.14,0.14,0.75,0.08726646259971647,5.0,0.184,0.175,0.174,0.0,0.0,0.0,-0.005231484036435501,0.0,0.02264202253260699,0.0,6.067015064908507,0.0,-0.5166426243193899,0.0,0.18628758722401179,0.0,-3.6538100630229207,0.0,-0.04319089235270537,0.0,-0.017622580200224783,0.6816728169969928,-0.2499242496151181,0.1480958667283429,0.0,0.0,0.0,0.6735914103887226,0.1480958667283429,0.0,0.0,-0.24505728876653438,0.0,0.0,-0.001332023494553829,0.0,1.820497186850104,0.0,8.280253154859839,0.0,-0.42173800021637775,0.0,87.80495784191223,-1.882945171224465,0.0,-8.266276053826047,0.0,-0.42173800021637775,0.0
sim_raptor_glider_3dof,raptor_glider_3dof,0.005,-14.940084941403372,0.0,-0.00026727573175581776,11.965877213814261,0.0,-0.11344285559883864,0.0,0.0,0.0,-16.248940216552782,-0.28359750673856643,-0.011849727253390896,0.0,0.0,0.0,0.0,0.0,-0.0007139901460654854,-0.0409086219834815,0.0,0.0,11.966414950918498,0.00026727573175581776,0.035165344120951236,-0.009480245784768405,-0.5431780722139186,0.0,0.0,0.00876625563870292,0.5022694502304371,-6.890637597257169,0.0,-23.15655848298117,11.965955160894564,0.0,-0.10489930898947662,0.0,-55.52530598891363,0.0,0.0,-0.28359750673856643,0.0,0.282908729519428,0.3490658503988659,1.0,0.14,0.14,0.75,0.08726646259971647,5.0,0.184,0.175,0.174,0.0,0.0,0.0,-0.005305393140730693,0.0,0.02260556439623983,0.0,6.068180464028841,0.0,-0.5169195327089245,0.0,0.184077116158791,0.0,-3.6551623586910362,0.0,-0.042612790368051816,0.0,-0.017384713888153276,0.6737379266599945,-0.24931399773362614,0.1474739311195227,0.0,0.0,0.0,0.663671046980761,0.1474739311195227,0.0,0.0,-0.2432502229511972,0.0,0.0,-0.0016589618154747258,0.0,1.8108295903374922,0.0,8.149204140689863,0.0,-0.4181610794025086,0.0,87.70700676146112,-1.8880035177088375,0.0,-8.131671085883744,0.0,-0.4181610794025086,0.0
sim_raptor_glider_3dof,raptor_glider_3dof,0.006,-14.92812240994118,0.0,-0.00038197745108097545,11.958972499442448,0.0,-0.13668371970970322,0.0,0.0,0.0,-19.416754536916855,-0.338886296720746,-0.014167779230103218,0.0,0.0,0.0,0.0,0.0,-0.0010252714346641212,-0.05874372606157708,0.0,0.0,11.959753579470375,0.00038197745108097545,0.035145768548797716,-0.01142888893487901,-0.654827100492334,0.0,0.0,0.010403617500214887,0.5960833744307569,-6.918924096363011,0.0,-23.323669157017633,11.959106351806437,0.0,-0.12442245712652074,0.0,-55.05265806837675,0.0,0.0,-0.338886296720746,0.0,0.282908729519428,0.3490658503988659,1.0,0.14,0.14,0.75,0.08726646259971647,5.0,0.184,0.175,0.174,0.0,0.0,0.0,-0.005380154933450916,0.0,0.0225716486273385,0.0,6.069337552519837,0.0,-0.5171951058625329,0.0,0.18184719815249115,0.0,-3.656512293403542,0.0,-0.04203052932265932,0.0,-0.01714770547855089,0.66570653859993,-0.24870099732703121,0.14685479645909846,0.0,0.0,0.0,0.6536680737675393,0.14685479645909846,0.0,0.0,-0.24144834507751725,0.0,0.0,-0.0019834890922144507,0.0,1.8012201931973446,0.0,8.017444186417357,0.0,-0.41460156791294533,0.0,87.60938582228421,-1.8927310416084975,0.0,-7.996335077448354,0.0,-0.41460156791294533,0.0
sim_raptor_glider_3dof,raptor_glider_3dof,0.007,-14.91616673111236,0.0,-0.0005159569676985626,11.952039106840312,0.0,-0.1600872248163493,0.0,0.0,0.0,-22.557553895229713,-0.3937035866678305,-0.01646866581203833,0.0,0.0,0.0,0.0,0.0,-0.0013916055720967374,-0.07973312602803145,0.0,0.0,11.953111173706601,0.0005159569676985626,0.03512624871053102,-0.013393334061875857,-0.7673815153542943,0.0,0.0,0.01200172848977912,0.6876483893262629,-6.947986970206845,0.0,-23.4818725468515,11.952250312087662,0.0,-0.14345455095596327,0.0,-54.58230219726426,0.0,0.0,-0.3937035866678305,0.0,0.282908729519428,0.3490658503988659,1.0,0.14,0.14,0.75,0.08726646259971647,5.0,0.184,0.175,0.174,0.0,0.0,0.0,-0.005455730206374589,0.0,0.022540046284153084,0.0,6.0704856054548015,0.0,-0.517469084250615,0.0,0.1795985030362256,0.0,-3.65785913718747,0.0,-0.041444206455977683,0.0,-0.01691169227272693,0.6575818997591633,-0.2480852097678768,0.14623889655586633,0.0,0.0,0.0,0.6435857079337398,0.14623889655586633,0.0,0.0,-0.2396516014073776,0.0,0.0,-0.0023056132136853665,0.0,1.7916741489973973,0.0,7.885014881308024,0.0,-0.4110593178475972,0.0,87.51209694713178,-1.8971169359988551,0.0,-7.860311906392828,0.0,-0.4110593178475972,0.0
sim_raptor_glider_3dof,raptor_glider_3dof,0.008,-14.904217910902588,0.0,-0.0006687221927535833,11.94507628089033,0.0,-0.18364455977213917,0.0,0.0,0.0,-25.67146893629676,-0.4480516567618249,-0.018752442610791013,0.0,0.0,0.0,0.0,0.0,-0.001812522200902069,-0.10384987238545165,0.0,0.0,11.946487880570702,0.0006687221927535833,0.03510678503796968,-0.015372869006418516,-0.8808005130752522,0.0,0.0,0.013560346805516446,0.7769506406898005,-6.977783688769371,0.0,-23.63136085819433,11.945389519353448,0.0,-0.16199355401833218,0.0,-54.11421359759171,0.0,0.0,-0.4480516567618249,0.0,0.282908729519428,0.3490658503988659,1.0,0.14,0.14,0.75,0.08726646259971647,5.0,0.184,0.175,0.174,0.0,0.0,0.0,-0.005532079232241012,0.0,0.022510509729971602,0.0,6.071623937799833,0.0,-0.5177412121422126,0.0,0.17733167765235328,0.0,-3.659202193830249,0.0,-0.040853907054113,0.0,-0.01667680497309603,0.6493672763624119,-0.2474665731350698,0.14562665036342676,0.0,0.0,0.0,0.6334271872397064,0.14562665036342676,0.0,0.0,-0.23785991605531828,0.0,0.0,-0.0026253419655107423,0.0,1.7821964012714797,0.0,7.751957837036363,0.0,-0.40753414260346316,0.0,87.4151418234731,-1.901150955169746,0.0,-7.723645471249419,0.0,-0.40753414260346316,0.0
sim_raptor_glider_3dof,raptor_glider_3dof,0.009000000000000001,-14.89227595285142,0.0,-0.0008397790829030442,11.938083309026917,0.0,-0.20734710543518753,0.0,0.0,0.0,-28.75862873674389,-0.5019327598148384,-0.0210191642937356,0.0,0.0,0.0,0.0,0.0,-0.0022875532301502503,-0.131067145499128,0.0,0.0,11.939883831738038,0.0008397790829030442,0.035087377918064114,-0.01736679615696284,-0.9950441234579882,0.0,0.0,0.015079242926812588,0.8639769779588602,-7.008271703377638,0.0,-23.7723258762178,11.938526390770898,0.0,-0.18003758570428352,0.0,-53.64836260879852,0.0,0.0,-0.5019327598148384,0.0,0.282908729519428,0.3490658503988659,1.0,0.14,0.14,0.75,0.08726646259971647,5.0,0.184,0.175,0.174,0.0,0.0,0.0,-0.005609161811408137,0.0,0.0224827735083065,0.0,6.072751903795611,0.0,-0.5180112377434841,0.0,0.17504734628216467,0.0,-3.6605408004104927,0.0,-0.04025970484339637,0.0,-0.016443167774979974,0.6410659509816119,-0.24684500313708746,0.14501846211669958,0.0,0.0,0.0,0.6231957671842753,0.14501846211669958,0.0,0.0,-0.23607319194880239,0.0,0.0,-0.0029426830011229847,0.0,1.7727916866779594,0.0,7.618314655330726,0.0,-0.40402581880686167,0.0,87.31852191202654,-1.9048234185272188,0.0,-7.586379656740868,0.0,-0.40402581880686167,0.0
sim_raptor_glider_3dof,raptor_glider_3dof,0.01,-14.88034085811308,0.0,-0.0010286317944622886,11.931059521201584,0.0,-0.23118643416027737,0.0,0.0,0.0,-31.81916053506853,-0.5553491165575865,-0.023268884398405725,0.0,0.0,0.0,0.0,0.0,-0.0028162328056127216,-0.16135825388789574,0.0,0.0,11.933299144234788,0.0010286317944622886,0.03506802769471565,-0.019374432447823223,-1.1100732097215873,0.0,0.0,0.016558199642210503,0.9487149558336916,-7.039408549680297,0.0,-23.90495878885396,11.93166328157826,0.0,-0.19758492055779017,0.0,-53.184714943928384,0.0,0.0,-0.5553491165575865,0.0,0.282908729519428,0.3490658503988659,1.0,0.14,0.14,0.75,0.08726646259971647,5.0,0.184,0.175,0.174,0.0,0.0,0.0,-0.005686937320630837,0.0,0.0224565552374902,0.0,6.073868896306599,0.0,-0.5182789133343246,0.0,0.17274611105174925,0.0,-3.6618743268097984,0.0,-0.039661662384657084,0.0,-0.016210898462797548,0.6326812194223537,-0.24622039404742188,0.14441472148129195,0.0,0.0,0.0,0.6128947179744614,0.14441472148129195,0.0,0.0,-0.2342913117925381,0.0,0.0,-0.0032576438157768017,0.0,1.7634645383129923,0.0,7.484126893582097,0.0,-0.4005340882427247,0.0,87.22223845645811,-1.9081252136775275,0.0,-7.4485582971508215,0.0,-0.4005340882427247,0.0
sim_raptor_glider_3dof,raptor_glider_3dof,0.01,-14.88034085811308,0.0,-0.0010286317944622886,11.931059521201584,0.0,-0.23118643416027737,0.0,0.0,0.0,-31.81916053506853,-0.5553491165575865,-0.023268884398405725,0.0,0.0,0.0,0.0,0.0,-0.0028162328056127216,-0.16135825388789574,0.0,0.0,11.933299144234788,0.0010286317944622886,0.03506802769471565,-0.019374432447823223,-1.1100732097215873,0.0,0.0,0.016558199642210503,0.9487149558336916,-4.845708817481655,0.0,-19.458011239020124,11.93166328157826,0.0,-0.19758492055779017,0.0,-0.9905764835806915,0.0,0.0,-0.5553491165575865,0.0,-0.07064001715818152,0.3490658503988659,1.0,0.14,0.14,0.75,0.08726646259971647,5.0,0.184,0.175,0.174,0.0,0.0,0.0,-0.012022676678444606,0.0,0.0025023816201738785,0.0,6.0755138365320205,0.0,-0.5184181134282608,0.0,0.17035653210048082,0.0,-3.76350550770854,0.0,-0.0358526696626874,0.0,-0.008836121947975483,0.5316009312119034,-0.016623885321558212,0.09696102321901975,0.0,0.0,0.0,0.5118090711346586,0.09696102321901975,0.0,0.0,-0.004363724878729554,0.0,0.0,-0.0032576438157768017,0.0,1.1840020483468119,0.0,6.249758598535974,0.0,-0.007460031497846188,0.0,87.22223845645811,-1.3048577873229008,0.0,-6.225647720946517,0.0,-0.007460031497846188,0.0
sim_raptor_glider_3dof,raptor_glider_3dof,0.011,-14.868411536537664,0.0,-0.0012325801870023924,11.926205100540088,0.0,-0.2504849586358897,0.0,0.0,0.0,-31.87225938736603,-0.556275866359208,-0.023316436765736297,0.0,0.0,0.0,0.0,0.0,-0.003372053034168087,-0.19320440715211498,0.0,0.0,11.928835266473053,0.0012325801870023924,0.035054909831241154,-0.020999818030230048,-1.2032009436749116,0.0,0.0,0.01762776499606196,1.0099965365227965,-4.862981479366076,0.0,-19.13958240930279,11.926981942669784,0.0,-0.21026781465583555,0.0,-0.8633159018045133,0.0,0.0,-0.556275866359208,0.0,-0.07064001715818152,0.3490658503988659,1.0,0.14,0.14,0.75,0.08726646259971647,5.0,0.184,0.175,0.174,0.0,0.0,0.0,-0.012101904909531919,0.0,0.002490981164491145,0.0,6.075734155524202,0.0,-0.518632359478439,0.0,0.16847591736565354,0.0,-3.762662304477181,0.0,-0.03535541278664491,0.0,-0.00866268899180186,0.5248241995315518,-0.016088421492128812,0.09662091596780527,0.0,0.0,0.0,0.5049911735575732,0.09662091596780527,0.0,0.0,-0.0038059586150861607,0.0,0.0,-0.003264301147203081,0.0,1.178966435295956,0.0,6.161891944219136,0.0,-0.0065016320564897905,0.0,87.15699638314894,-1.3080955863826202,0.0,-6.135777059564131,0.0,-0.0065016320564897905,0.0
sim_raptor_glider_3dof,raptor_glider_3dof,0.012,-14.856486895259538,0.0,-0.0014490530979802208,11.921333987990952,0.0,-0.2694667688860686,0.0,0.0,0.0,-31.918146330375794,-0.5570767445984034,-0.0233587317612296,0.0,0.0,0.0,0.0,0.0,-0.0039287389065757695,-0.22510015815563342,0.0,0.0,11.92437907787077,0.0014490530979802208,0.03504181456366855,-0.022599894475573014,-1.2948785708913586,0.0,0.0,0.018671155568997243,1.0697784127357253,-4.879063314315729,0.0,-18.824560905803025,11.922300647132987,0.0,-0.2226290011084212,0.0,-0.7388690271521402,0.0,0.0,-0.5570767445984034,0.0,-0.07064001715818152,0.3490658503988659,1.0,0.14,0.14,0.75,0.08726646259971647,5.0,0.184,0.175,0.174,0.0,0.0,0.0,-0.012179746077392997,0.0,0.0024794649250629375,0.0,6.075938862652022,0.0,-0.5188400937516269,0.0,0.16662353507090363,0.0,-3.7618225787560093,0.0,-0.034866344570188945,0.0,-0.008493700532267945,0.5181400391586016,-0.01556176182393712,0.09629120598028493,0.0,0.0,0.0,0.49827036750595693,0.09629120598028493,0.0,0.0,-0.0032597651868673076,0.0,0.0,-0.003270222446572145,0.0,1.1740656506784397,0.0,6.075343197585899,0.0,-0.005564422643482768,0.0,87.09189103778318,-1.3110562608585372,0.0,-6.047260255803439,0.0,-0.005564422643482768,0.0
sim_raptor_glider_3dof,raptor_glider_3dof,0.013000000000000001,-14.844566934973493,0.0,-0.0016777355710409572,11.916447346789466,0.0,-0.2881351954633958,0.0,0.0,0.0,-31.956978932416646,-0.5577545013611329,-0.02339587923551597,0.0,0.0,0.0,0.0,0.0,-0.004486166708299965,-0.2570384185776851,0.0,0.0,11.919930337869866,0.0016777355710409572,0.03502874118507704,-0.024174911668338062,-1.3851204086973388,0.0,0.0,0.0196887449600381,1.1280819901196537,-4.8939902102815145,0.0,-18.512968084324562,11.917620051803201,0.0,-0.23467330595676805,0.0,-0.6171921356072313,0.0,0.0,-0.5577545013611329,0.0,-0.07064001715818152,0.3490658503988659,1.0,0.14,0.14,0.75,0.08726646259971647,5.0,0.184,0.175,0.174,0.0,0.0,0.0,-0.01225622639665819,0.0,0.002467847753547384,0.0,6.076128568395244,0.0,-0.5190415037568962,0.0,0.16479915482773888,0.0,-3.7609866489331103,0.0,-0.03438536048753238,0.0,-0.008329058525799592,0.5115485128339418,-0.015043802730792458,0.09597163708090392,0.0,0.0,0.0,0.49164662100515166,0.09597163708090392,0.0,0.0,-0.002724980208516685,0.0,0.0,-0.0032754230929722358,0.0,1.1692962211838762,0.0,5.990108677780728,0.0,-0.004648073973258059,0.0,87.02691878183026,-1.313750797477844,0.0,-5.960093494788921,0.0,-0.004648073973258059,0.0
sim_raptor_glider_3dof,raptor_glider_3dof,0.014,-14.83265165464582,0.0,-0.0019183011142871035,11.911546359464815,0.0,-0.30649380242331775,0.0,0.0,0.0,-31.988920695809202,-0.558311990301226,-0.023427993436497832,0.0,0.0,0.0,0.0,0.0,-0.0050442099756862835,-0.28901194258461166,0.0,0.0,11.915488874763106,0.0019183011142871035,0.03501568919087574,-0.02572513924040458,-1.4739419058615628,0.0,0.0,0.020680929264718297,1.1849299632769512,-4.907797902753726,0.0,-18.20481992865834,11.912940833309582,0.0,-0.24640581703473222,0.0,-0.4982398349248212,0.0,0.0,-0.558311990301226,0.0,-0.07064001715818152,0.3490658503988659,1.0,0.14,0.14,0.75,0.08726646259971647,5.0,0.184,0.175,0.174,0.0,0.0,0.0,-0.012331372190630158,0.0,0.002456143684792288,0.0,6.076303868280887,0.0,-0.5192367746140252,0.0,0.1630025210398648,0.0,-3.7601548100105053,0.0,-0.03391235126754128,0.0,-0.00816866430354445,0.5050495353299715,-0.014534434720244818,0.09566195304832123,0.0,0.0,0.0,0.4851197503297764,0.09566195304832123,0.0,0.0,-0.0022014312109649523,0.0,0.0,-0.003279919081109697,0.0,1.1646546976026482,0.0,5.906182950665913,0.0,-0.0037522441968188287,0.0,86.96207698719141,-1.316189965720696,0.0,-5.874271153557758,0.0,-0.0037522441968188287,0.0
sim_raptor_glider_3dof,raptor_glider_3dof,0.015,-14.820741052602767,0.0,-0.0021704453065629075,11.906632109339839,0.0,-0.3245459892319399,0.0,0.0,0.0,-32.01412400136656,-0.5587518709655881,-0.02345518077201569,0.0,0.0,0.0,0.0,0.0,-0.005602751724026847,-0.3210140274463841,0.0,0.0,11.911054457363923,0.0021704453065629075,0.03500265790168363,-0.027250833440315078,-1.5613577443440234,0.0,0.0,0.02164808171628823,1.2403437168976392,-4.9205211516185505,0.0,-17.900129873209316,11.908263571402511,0.0,-0.257831340796451,0.0,-0.3819689623501839,0.0,0.0,-0.5587518709655881,0.0,-0.07064001715818152,0.3490658503988659,1.0,0.14,0.14,0.75,0.08726646259971647,5.0,0.184,0.175,0.174,0.0,0.0,0.0,-0.012405208320968147,0.0,0.0024443662009946674,0.0,6.0764653391210075,0.0,-0.5194260848986415,0.0,0.16123339134622736,0.0,-3.7593273513223755,0.0,-0.03344721296630422,0.0,-0.008012422060641417,0.498643015112309,-0.014033553284455155,0.09536190440918992,0.0,0.0,0.0,0.4786895720945531,0.09536190440918992,0.0,0.0,-0.0016889549195522584,0.0,0.0,-0.003283725308082197,0.0,1.1601377121442986,0.0,5.823560555315317,0.0,-0.002876608255459235,0.0,86.8973621618369,-1.3183842129310221,0.0,-5.789787571203118,0.0,-0.002876608255459235,0.0
sim_raptor_glider_3dof,raptor_glider_3dof,0.016,-14.808835126623155,0.0,-0.0024338634169150516,11.901705664880184,0.0,-0.34229521885301883,0.0,0.0,0.0,-32.03274133023269,-0.5590768046522286,-0.023477547844065937,0.0,0.0,0.0,0.0,0.0,-0.006161675583096343,-0.353038005640231,0.0,0.0,11.906626883810993,0.0024338634169150516,0.0349896467242969,-0.028752256107108617,-1.64738292641657,0.0,0.0,0.022590580524012274,1.294344920776339,-4.932194219540883,0.0,-17.598907748350307,11.903588832798903,0.0,-0.2689547358869204,0.0,-0.26833622425414777,0.0,0.0,-0.5590768046522286,0.0,-0.07064001715818152,0.3490658503988659,1.0,0.14,0.14,0.75,0.08726646259971647,5.0,0.184,0.175,0.174,0.0,0.0,0.0,-0.012477759147537302,0.0,0.002432528113819593,0.0,6.076613541645049,0.0,-0.5196096091804172,0.0,0.15949151471840864,0.0,-3.758504546695054,0.0,-0.03298984112497719,0.0,-0.007860236879448717,0.49232877794283264,-0.01354105265127748,0.09507124460457307,0.0,0.0,0.0,0.47235582002129073,0.09507124460457307,0.0,0.0,-0.0011873868068733306,0.0,0.0,-0.0032868566981692315,0.0,1.1557419488839649,0.0,5.742235081372125,0.0,-0.0020208401048579868,0.0,86.83277124667377,-1.3203437268560716,0.0,-5.706636104142497,0.0,-0.0020208401048579868,0.0
sim_raptor_glider_3dof,raptor_glider_3dof,0.017,-14.796933873918162,0.0,-0.0027082556874622925,11.89676805971213,0.0,-0.3597449628096539,0.0,0.0,0.0,-32.04492262978896,-0.5592894084366572,-0.023495199559427915,0.0,0.0,0.0,0.0,0.0,-0.006720867893321686,-0.38507736495231343,0.0,0.0,11.902205959604869,0.0027082556874622925,0.03497665508714587,-0.030229670113808168,-1.732032513593967,0.0,0.0,0.023508802220486482,1.3469551486416536,-4.9428507377563715,0.0,-17.30116021588158,11.898917151997177,0.0,-0.2797808334411989,0.0,-0.15729875199522367,0.0,0.0,-0.5592894084366572,0.0,-0.07064001715818152,0.3490658503988659,1.0,0.14,0.14,0.75,0.08726646259971647,5.0,0.184,0.175,0.174,0.0,0.0,0.0,-0.012549048343632987,0.0,0.0024206416180903483,0.0,6.076749020236421,0.0,-0.5197875175354173,0.0,0.15777663680681098,0.0,-3.757686657048437,0.0,-0.03254013211695023,0.0,-0.0077120152192295165,0.48610658878376545,-0.013056827275722277,0.09478973095168305,0.0,0.0,0.0,0.46611816845734366,0.09478973095168305,0.0,0.0,-0.000696563571240913,0.0,0.0,-0.003289327938319908,0.0,1.1514641508776533,0.0,5.662199435136729,0.0,-0.0011846169012760296,0.0,86.76830129450161,-1.322078420646093,0.0,-5.624809399764673,0.0,-0.0011846169012760296,0.0
sim_raptor_glider_3dof,raptor_glider_3dof,0.018000000000000002,-14.78503729114707,0.0,-0.0029933274707485257,11.891820292087475,0.0,-0.37689869832093476,0.0,0.0,0.0,-32.05081525383079,-0.5593922541277694,-0.023508239083881933,0.0,0.0,0.0,0.0,0.0,-0.007280217750213544,-0.4171257510234635,0.0,0.0,11.897791496244144,0.0029933274707485257,0.03496368243628712,-0.03168333914006449,-1.8153216136073465,0.0,0.0,0.02440312138985095,1.398195862583883,-4.952523688425822,0.0,-17.00689093011642,11.89424903125873,0.0,-0.2903144338476131,0.0,-0.04881411911186869,0.0,0.0,-0.5593922541277694,0.0,-0.07064001715818152,0.3490658503988659,1.0,0.14,0.14,0.75,0.08726646259971647,5.0,0.184,0.175,0.174,0.0,0.0,0.0,-0.012619098920397323,0.0,0.002408718313570271,0.0,6.076872303213362,0.0,-0.5199599756171807,0.0,0.15608850027250606,0.0,-3.756873930719572,0.0,-0.03209798317347673,0.0,-0.007567664947859218,0.47997615549636097,-0.012580771906704227,0.09451712471251332,0.0,0.0,0.0,0.4599762361182986,0.09451712471251332,0.0,0.0,-0.0002163232267139662,0.0,0.0,-0.003291153471743471,0.0,1.1473011204515675,0.0,5.583445885439121,0.0,-0.00036761913103148315,0.0,86.70394944991939,-1.3235979329995216,0.0,-5.544299444328009,0.0,-0.00036761913103148315,0.0
sim_raptor_glider_3dof,raptor_glider_3dof,0.019000000000000003,-14.77314537451465,0.0,-0.0032887886196996327,11.88686332962089,0.0,-0.3937599042210729,0.0,0.0,0.0,-32.05056428339965,-0.5593878738674208,-0.02351676806542012,0.0,0.0,0.0,0.0,0.0,-0.007839616644207043,-0.44917694671357705,0.0,0.0,11.89338331507305,0.0032887886196996327,0.034950728246710305,-0.03311352732780376,-1.8972653606742702,0.0,0.0,0.025273910683596718,1.4480884139606933,-4.9612453985608305,0.0,-16.716100805597005,11.889584945702433,0.0,-0.3005603070668286,0.0,0.057159664858529635,0.0,0.0,-0.5593878738674208,0.0,-0.07064001715818152,0.3490658503988659,1.0,0.14,0.14,0.75,0.08726646259971647,5.0,0.184,0.175,0.174,0.0,0.0,0.0,-0.012687933244402887,0.0,0.002396769227364934,0.0,6.076983903107282,0.0,-0.5201271447150474,0.0,0.15442684525387979,0.0,-3.7560666038591717,0.0,-0.03166329244594441,0.0,-0.007427095381967224,0.47393713293211004,-0.012112781691667024,0.0942531911762021,0.0,0.0,0.0,0.45392958999397687,0.0942531911762021,0.0,0.0,0.00025349491090466934,0.0,0.0,-0.003292347529158817,0.0,1.1432497206663206,0.0,5.505966116230789,0.0,0.0004304694360495867,0.0,86.63971300520491,-1.3249116297957757,0.0,-5.465097617620118,0.0,0.0004304694360495867,0.0
sim_raptor_glider_3dof,raptor_glider_3dof,0.02,-14.761258119762779,0.0,-0.0035943537531281495,11.88189810784548,0.0,-0.41033205897516273,0.0,0.0,0.0,-32.04431240019872,-0.5592787579211145,-0.023520886541752883,0.0,0.0,0.0,0.0,0.0,-0.008398958584310898,-0.4812248791861873,0.0,0.0,11.888981244995081,0.0035943537531281495,0.034937792015619265,-0.03452049912705543,-1.9778789066653188,0.0,0.0,0.026121540542744535,1.4966540274791316,-4.969047526781556,0.0,-16.428788137530432,11.884925342329101,0.0,-0.3105231893245072,0.0,0.16066413737683244,0.0,0.0,-0.5592787579211145,0.0,-0.07064001715818152,0.3490658503988659,1.0,0.14,0.14,0.75,0.08726646259971647,5.0,0.184,0.175,0.174,0.0,0.0,0.0,-0.012755573063217805,0.0,0.002384804834424577,0.0,6.077084316964379,0.0,-0.5202891818361031,0.0,0.1527914096113459,0.0,-3.755264900729139,0.0,-0.031235959011351434,0.0,-0.007290217305075627,0.4679891261231895,-0.01165275221850201,0.09399769969763108,0.0,0.0,0.0,0.4479777486218316,0.09399769969763108,0.0,0.0,0.0007130501344967677,0.0,0.0,-0.0032929241158454036,0.0,1.1393068750615818,0.0,5.4297512654165985,0.0,0.001209961618584925,0.0,86.57558936673595,-1.3260286053649557,0.0,-5.387194733589051,0.0,0.001209961618584925,0.0
sim_raptor_glider_3dof,raptor_glider_3dof,0.02,-14.761258119762779,0.0,-0.0035943537531281495,11.88189810784548,0.0,-0.41033205897516273,0.0,0.0,0.0,-32.04431240019872,-0.5592787579211145,-0.023520886541752883,0.0,0.0,0.0,0.0,0.0,-0.008398958584310898,-0.4812248791861873,0.0,0.0,11.888981244995081,0.0035943537531281495,0.034937792015619265,-0.03452049912705543,-1.9778789066653188,0.0,0.0,0.026121540542744535,1.4966540274791316,-4.974702193330767,0.0,-16.41052782799062,11.884925342329101,0.0,-0.3105231893245072,0.0,0.3695069205551697,0.0,0.0,-0.5592787579211145,0.0,-0.07223981975587085,0.3490658503988659,1.0,0.14,0.14,0.75,0.08726646259971647,5.0,0.184,0.175,0.174,0.0,0.0,0.0,-0.012751223732380492,0.0,0.0024468825862846025,0.0,6.07673679348016,0.0,-0.5203061235113009,0.0,0.15278302612782596,0.0,-3.7539866270070315,0.0,-0.03123477270094094,0.0,-0.007317091416301224,0.46757835428609423,-0.010721669190635443,0.0941402192547862,0.0,0.0,0.0,0.44756812115319833,0.0941402192547862,0.0,0.0,0.0016399239039971546,0.0,0.0,-0.0032929241158454036,0.0,1.1410342951135606,0.0,5.424786341884116,0.0,0.002782756618700983,0.0,86.57558936673595,-1.3275836386659887,0.0,-5.3821731484656015,0.0,0.002782756618700983,0.0
sim_raptor_glider_3dof,raptor_glider_3dof,0.021,-14.749375529825711,0.0,-0.003909729633422699,11.876919965733736,0.0,-0.4265993258697253,0.0,0.0,0.0,-32.02027577154965,-0.558859239610109,-0.02351194963834498,0.0,0.0,0.0,0.0,0.0,-0.00895803039883723,-0.5132573346032668,0.0,0.0,11.884578867476842,0.003909729633422699,0.03492485488106274,-0.03590291196049472,-2.057085327566112,0.0,0.0,0.026944881561657492,1.543827992962845,-4.981509412162966,0.0,-16.12484857727756,11.880264868047282,0.0,-0.3201898223220492,0.0,0.46915811088180176,0.0,0.0,-0.558859239610109,0.0,-0.07223981975587085,0.3490658503988659,1.0,0.14,0.14,0.75,0.08726646259971647,5.0,0.184,0.175,0.174,0.0,0.0,0.0,-0.012817552784503817,0.0,0.0024350413075627897,0.0,6.076822123638163,0.0,-0.5204631318756554,0.0,0.15117544582659195,0.0,-3.7531802306292774,0.0,-0.030815253607757172,0.0,-0.007184037204370322,0.4617280803444279,-0.010270508989989172,0.09389372999899899,0.0,0.0,0.0,0.44172516934192535,0.09389372999899899,0.0,0.0,0.0020837328492770875,0.0,0.0,-0.003291672949368297,0.0,1.1372040418939418,0.0,5.350002050054661,0.0,0.0035332297330508493,0.0,86.51148499068844,-1.328510571076741,0.0,-5.305734127434802,0.0,0.0035332297330508493,0.0
sim_raptor_glider_3dof,raptor_glider_3dof,0.022,-14.737497592849147,0.0,-0.0042346317430625455,11.871935435688151,0.0,-0.4425828910120887,0.0,0.0,0.0,-31.990600898333536,-0.558341315367376,-0.023498853090049624,0.0,0.0,0.0,0.0,0.0,-0.009516636207206386,-0.5452630898343132,0.0,0.0,11.880182263103737,0.0042346317430625455,0.03491193471187439,-0.03726250308510888,-2.1349841608699482,0.0,0.0,0.027745866877902495,1.589721071035635,-4.987455201191586,0.0,-15.842679694585884,11.87560967751782,0.0,-0.32958366435506886,0.0,0.5664217240270367,0.0,0.0,-0.558341315367376,0.0,-0.07223981975587085,0.3490658503988659,1.0,0.14,0.14,0.75,0.08726646259971647,5.0,0.184,0.175,0.174,0.0,0.0,0.0,-0.012882724410043558,0.0,0.0024232036010160204,0.0,6.076897302517633,0.0,-0.5206152964226691,0.0,0.14959371312247285,0.0,-3.7523801596887227,0.0,-0.03040293128139602,0.0,-0.007054509739225608,0.45596848352659797,-0.009827143473219712,0.09365524412177648,0.0,0.0,0.0,0.43597646715287264,0.09365524412177648,0.0,0.0,0.002517584742256204,0.0,0.0,-0.003289839432606948,0.0,1.1334764878353243,0.0,5.27646988058395,0.0,0.004265722003647614,0.0,86.44748837414701,-1.3292586448427874,0.0,-5.230580732987096,0.0,0.004265722003647614,0.0
sim_raptor_glider_3dof,raptor_glider_3dof,0.023,-14.725624308067262,0.0,-0.0045687858217663534,11.866945400466847,0.0,-0.4582861385727441,0.0,0.0,0.0,-31.955424391219402,-0.5577273694988831,-0.02348169291521477,0.0,0.0,0.0,0.0,0.0,-0.01007467327476137,-0.5772362586170704,0.0,0.0,11.875791313528087,0.0045687858217663534,0.034899031160269434,-0.038599529761995745,-2.211590146551967,0.0,0.0,0.028524856487234376,1.6343538879348967,-4.992569505717197,0.0,-15.564014071455647,11.8709601687763,0.0,-0.33870930574124086,0.0,0.6613375944429567,0.0,0.0,-0.5577273694988831,0.0,-0.07223981975587085,0.3490658503988659,1.0,0.14,0.14,0.75,0.08726646259971647,5.0,0.184,0.175,0.174,0.0,0.0,0.0,-0.01294675833880639,0.0,0.00241137839244021,0.0,6.076962783211031,0.0,-0.5207627615814908,0.0,0.14803756895749215,0.0,-3.751586608352845,0.0,-0.029997709697069667,0.0,-0.006928424607011685,0.45029906782033197,-0.009391471580360392,0.09342454344304764,0.0,0.0,0.0,0.4303214354697749,0.09342454344304764,0.0,0.0,0.0029416330751439144,0.0,0.0,-0.003287437008130068,0.0,1.1298487446804886,0.0,5.204179926991256,0.0,0.004980533423749907,0.0,86.38359770212796,-1.329836174293315,0.0,-5.156702691439143,0.0,0.004980533423749907,0.0
sim_raptor_glider_3dof,raptor_glider_3dof,0.024,-14.713755670303584,0.0,-0.004911953614660362,11.86195059049049,0.0,-0.47371220172412687,0.0,0.0,0.0,-31.91486571288711,-0.5570194870217273,-0.023460552928838592,0.0,0.0,0.0,0.0,0.0,-0.010632056571257261,-0.609171969077374,0.0,0.0,11.871405774435479,0.004911953614660362,0.034886143508288454,-0.03991422887906388,-2.286916857289547,0.0,0.0,0.02928217230780662,1.677744888212173,-4.996881013791116,0.0,-15.288843219905512,11.866316595679269,0.0,-0.34757087393335806,0.0,0.7539423501551852,0.0,0.0,-0.5570194870217273,0.0,-0.07223981975587085,0.3490658503988659,1.0,0.14,0.14,0.75,0.08726646259971647,5.0,0.184,0.175,0.174,0.0,0.0,0.0,-0.013009672803641046,0.0,0.00239957433015584,0.0,6.0770190038646,0.0,-0.5209056656846935,0.0,0.14650677633561648,0.0,-3.750799772246046,0.0,-0.02959949987188461,0.0,-0.006805700758151818,0.4447193843429576,-0.008963399419898333,0.09320141727636709,0.0,0.0,0.0,0.4247595527043963,0.09320141727636709,0.0,0.0,0.003356017701617243,0.0,0.0,-0.0032844774100374034,0.0,1.126317999607256,0.0,5.133122904102008,0.0,0.0056779398390187,0.0,86.31980933044508,-1.330251169339296,0.0,-5.084090362230726,0.0,0.0056779398390187,0.0
sim_raptor_glider_3dof,raptor_glider_3dof,0.025,-14.701891672854687,0.0,-0.005263847331606111,11.856951876072706,0.0,-0.4888649090034194,0.0,0.0,0.0,-31.86906922123795,-0.5562201874565874,-0.023435534986108404,0.0,0.0,0.0,0.0,0.0,-0.011188684025074084,-0.6410643729421912,0.0,0.0,11.867025604200869,0.005263847331606111,0.03487327163360918,-0.04120689565916216,-2.3609812081059443,0.0,0.0,0.030018211634088077,1.719916835163753,-5.000418883047462,0.0,-15.01715111306682,11.861679358646679,0.0,-0.35617338953703104,0.0,0.8442787479121666,0.0,0.0,-0.5562201874565874,0.0,-0.07223981975587085,0.3490658503988659,1.0,0.14,0.14,0.75,0.08726646259971647,5.0,0.184,0.175,0.174,0.0,0.0,0.0,-0.013071488333837417,0.0,0.002387799091781547,0.0,6.077066391240728,0.0,-0.5210441495897571,0.0,0.14500102872614848,0.0,-3.750019801469668,0.0,-0.02920819599256748,0.0,-0.006686253171227803,0.4392286992848167,-0.008542814634649887,0.09298564910928823,0.0,0.0,0.0,0.4192899970013411,0.09298564910928823,0.0,0.0,0.0037609062011819527,0.0,0.0,-0.0032809748980551774,0.0,1.122881416513269,0.0,5.063286112132772,0.0,0.006358263250526527,0.0,86.2561225667906,-1.3305114819176715,0.0,-5.012730605703112,0.0,0.006358263250526527,0.0
sim_raptor_glider_3dof,raptor_glider_3dof,0.026000000000000002,-14.690032309357544,0.0,-0.005624215902496057,11.851949998912357,0.0,-0.5037476574479095,0.0,0.0,0.0,-31.818160893274584,-0.5553316695169416,-0.023406727797702226,0.0,0.0,0.0,0.0,0.0,-0.011744467397771106,-0.672908414521277,0.0,0.0,11.862650651481855,0.005624215902496057,0.03486041509148625,-0.04247778972189183,-2.433798074108589,0.0,0.0,0.030733322324120727,1.760889659587312,-5.003210874482988,0.0,-14.74892328720921,11.857048735608734,0.0,-0.3645212757881325,0.0,0.9323851229093106,0.0,0.0,-0.5553316695169416,0.0,-0.07223981975587085,0.3490658503988659,1.0,0.14,0.14,0.75,0.08726646259971647,5.0,0.184,0.175,0.174,0.0,0.0,0.0,-0.01313222328439924,0.0,0.002376060235643059,0.0,6.077105356655746,0.0,-0.5211783464718491,0.0,0.14352005947111943,0.0,-3.749246856756789,0.0,-0.028823703844094738,0.0,-0.006570001668967961,0.43382639437154724,-0.008129616991638021,0.0927770326924559,0.0,0.0,0.0,0.41391207324817936,0.0927770326924559,0.0,0.0,0.0041564470955115385,0.0,0.0,-0.0032769418916783126,0.0,1.1195362708854115,0.0,4.994658327722052,0.0,0.007021792360630019,0.0,86.19253512547137,-1.3306246471039407,0.0,-4.942611791455079,0.0,0.007021792360630019,0.0
sim_raptor_glider_3dof,raptor_glider_3dof,0.027,-14.678177573069323,0.0,-0.005992806783670843,11.84694569215169,0.0,-0.518363903738551,0.0,0.0,0.0,-31.762267470348007,-0.5543561452566631,-0.023374220720776735,0.0,0.0,0.0,0.0,0.0,-0.012299318502051506,-0.704699041054717,0.0,0.0,11.858280793162665,0.005992806783670843,0.03484757352012303,-0.043727176024328455,-2.5053826362196627,0.0,0.0,0.03142785752227695,1.8006835951649458,-5.005284179427719,0.0,-14.484143066579984,11.852425002556263,0.0,-0.37261901222260996,0.0,1.0183000194407077,0.0,0.0,-0.5543561452566631,0.0,-0.07223981975587085,0.3490658503988659,1.0,0.14,0.14,0.75,0.08726646259971647,5.0,0.184,0.175,0.174,0.0,0.0,0.0,-0.013191895822124652,0.0,0.0023643648527958863,0.0,6.077136298244203,0.0,-0.5213083864203616,0.0,0.14206359418597359,0.0,-3.7484810853517145,0.0,-0.028445928369284487,0.0,-0.006456867055799726,0.42851179513580684,-0.007723705032522509,0.09257536497766704,0.0,0.0,0.0,0.40862502960985025,0.09257536497766704,0.0,0.0,0.004542790363410972,0.0,0.0,-0.0032723909009087435,0.0,1.1162798903863482,0.0,4.927227706550675,0.0,0.00766881744640797,0.0,86.12904513417185,-1.33059795955601,0.0,-4.87372165145969,0.0,0.00766881744640797,0.0
sim_raptor_glider_3dof,raptor_glider_3dof,0.028,-14.666327456971526,0.0,-0.006369372020655977,11.84193966130514,0.0,-0.5327170866466157,0.0,0.0,0.0,-31.70151343487685,-0.553295787303818,-0.023338101579076388,0.0,0.0,0.0,0.0,0.0,-0.012853151409438613,-0.7364313292034581,0.0,0.0,11.85391591147824,0.006369372020655977,0.03483474657344688,-0.04495531840252743,-2.575750011131624,0.0,0.0,0.032102166993088814,1.8393186819281657,-5.006665294541318,0.0,-14.22279225622412,11.847808414672494,0.0,-0.38047103123973,0.0,1.1020614666152628,0.0,0.0,-0.553295787303818,0.0,-0.07223981975587085,0.3490658503988659,1.0,0.14,0.14,0.75,0.08726646259971647,5.0,0.184,0.175,0.174,0.0,0.0,0.0,-0.013250523641070388,0.0,0.0023527196397808694,0.0,6.077159600989743,0.0,-0.5214343958296032,0.0,0.1406313583329029,0.0,-3.7477226250936044,0.0,-0.028074775592454828,0.0,-0.006346771709995572,0.4232842001473342,-0.007324978165570251,0.09238044718976288,0.0,0.0,0.0,0.40342808861611207,0.09238044718976288,0.0,0.0,0.00492008421847898,0.0,0.0,-0.0032673342210706945,0.0,1.113109663214508,0.0,4.860982139741317,0.0,0.008299624905079545,0.0,86.06565080100762,-1.3304384668913527,0.0,-4.806047645523438,0.0,0.008299624905079545,0.0
sim_raptor_glider_3dof,raptor_glider_3dof,0.029,-14.654481953786936,0.0,-0.0067536683021396935,11.836932584315813,0.0,-0.5468106251404008,0.0,0.0,0.0,-31.636020989611758,-0.55215272849876,-0.023298456645827987,0.0,0.0,0.0,0.0,0.0,-0.013405882459960076,-0.7681004856041702,0.0,0.0,11.849555893171855,0.0067536683021396935,0.034821933918633675,-0.04616247941684417,-2.6449152424447044,0.0,0.0,0.03275659695688409,1.8768147568405342,-5.0073800258454515,0.0,-13.96485124806392,11.843199206588505,0.0,-0.3880817162213352,0.0,1.1837069707074828,0.0,0.0,-0.55215272849876,0.0,-0.07223981975587085,0.3490658503988659,1.0,0.14,0.14,0.75,0.08726646259971647,5.0,0.184,0.175,0.174,0.0,0.0,0.0,-0.013308123978738753,0.0,0.0023411309148051516,0.0,6.077175637044416,0.0,-0.521556497478877,0.0,0.13922307745430998,0.0,-3.746971604743648,0.0,-0.02771015263424686,0.0,-0.006239639582783267,0.418142883419805,-0.006933336704270977,0.09219208481546466,0.0,0.0,0.0,0.3983204495845784,0.09219208481546466,0.0,0.0,0.0052884750638066,0.0,0.0,-0.0032617839304159182,0.0,1.110023037564569,0.0,4.79590928285192,0.0,0.008914497196398053,0.0,86.00235040214717,-1.3301529743274723,0.0,-4.739576991478993,0.0,0.008914497196398053,0.0
sim_raptor_glider_3dof,raptor_glider_3dof,0.03,-14.642641056027804,0.0,-0.007145456431804018,11.831925115160443,0.0,-0.5606479188020185,0.0,0.0,0.0,-31.565910323765014,-0.5509290665389688,-0.023255370830795225,0.0,0.0,0.0,0.0,0.0,-0.013957429987018566,-0.7997018311054992,0.0,0.0,11.845200632307646,0.007145456431804018,0.034809135244372874,-0.04734892037762838,-2.7128933021390864,0.0,0.0,0.03339149039060982,1.9131914710335873,-5.007453503468425,0.0,-13.710299152821161,11.838597596086018,0.0,-0.3954554052833765,0.0,1.263273545179301,0.0,0.0,-0.5509290665389688,0.0,-0.07223981975587085,0.3490658503988659,1.0,0.14,0.14,0.75,0.08726646259971647,5.0,0.184,0.175,0.174,0.0,0.0,0.0,-0.013364713639834878,0.0,0.002329604631772701,0.0,6.077184766047884,0.0,-0.5216748106295556,0.0,0.13783847719433373,0.0,-3.7462281441993235,0.0,-0.027351967673090925,0.0,-0.006135396180172135,0.4130870959706082,-0.006548681847472942,0.09201008756063452,0.0,0.0,0.0,0.3933012900227698,0.09201008756063452,0.0,0.0,0.005648107611943451,0.0,0.0,-0.0032557519163113322,0.0,1.107017521397007,0.0,4.731996575444294,0.0,0.009513713068745315,0.0,85.93914232249527,-1.3297480502930445,0.0,-4.674296685645696,0.0,0.009513713068745315,0.0
sim_raptor_glider_3dof,raptor_glider_3dof,0.03,-14.642641056027804,0.0,-0.007145456431804018,11.831925115160443,0.0,-0.5606479188020185,0.0,0.0,0.0,-31.565910323765014,-0.5509290665389688,-0.023255370830795225,0.0,0.0,0.0,0.0,0.0,-0.013957429987018566,-0.7997018311054992,0.0,0.0,11.845200632307646,0.007145456431804018,0.034809135244372874,-0.04734892037762838,-2.7128933021390864,0.0,0.0,0.03339149039060982,1.9131914710335873,-5.012338128763657,0.0,-13.694652571600887,11.838597596086018,0.0,-0.3954554052833765,0.0,1.4420494439391918,0.0,0.0,-0.5509290665389688,0.0,-0.07362691480062883,0.3490658503988659,1.0,0.14,0.14,0.75,0.08726646259971647,5.0,0.184,0.175,0.174,0.0,0.0,0.0,-0.01334265962046518,0.0,0.0023834573146619283,0.0,6.076846033038384,0.0,-0.5216876967900616,0.0,0.13783114772144267,0.0,-3.745012415674352,0.0,-0.027356518915165856,0.0,-0.0061591903210030975,0.412734049009199,-0.005745415053244638,0.09213853591245448,0.0,0.0,0.0,0.39294934589200536,0.09213853591245448,0.0,0.0,0.006447416295696864,0.0,0.0,-0.0032557519163113322,0.0,1.1085629451633476,0.0,4.727762166700226,0.0,0.010860074362306054,0.0,85.93914232249527,-1.3310913222492335,0.0,-4.669993875810121,0.0,0.010860074362306054,0.0
sim_raptor_glider_3dof,raptor_glider_3dof,0.031,-14.630804769345492,0.0,-0.007544492799852812,11.826913101795213,0.0,-0.574215561768119,0.0,0.0,0.0,-31.48108942721998,-0.5494486626197644,-0.023201413777959645,0.0,0.0,0.0,0.0,0.0,-0.014507615342200866,-0.8312251299073512,0.0,0.0,11.840844439008222,0.007544492799852812,0.03479633382999272,-0.04851350496171707,-2.7796190836933667,0.0,0.0,0.03400588961951621,1.9483939537860155,-5.011687849976236,0.0,-13.44190646527872,11.833998719360412,0.0,-0.40258084774126013,0.0,1.5183691409926159,0.0,0.0,-0.5494486626197644,0.0,-0.07362691480062883,0.3490658503988659,1.0,0.14,0.14,0.75,0.08726646259971647,5.0,0.184,0.175,0.174,0.0,0.0,0.0,-0.013398088434942708,0.0,0.002372104625543957,0.0,6.076845602788708,0.0,-0.5218022670346283,0.0,0.13647161272858238,0.0,-3.74426942569164,0.0,-0.02700516121321711,0.0,-0.006057942054845961,0.40776930550045043,-0.005368489891641522,0.09196332454111532,0.0,0.0,0.0,0.38803050819913987,0.09196332454111532,0.0,0.0,0.006793638302187389,0.0,0.0,-0.003248197928914351,0.0,1.1056412225763355,0.0,4.665148064437412,0.0,0.01143483800081539,0.0,85.87594395400379,-1.3305742980476953,0.0,-4.606041794595345,0.0,0.01143483800081539,0.0
sim_raptor_glider_3dof,raptor_glider_3dof,0.032,-14.618973066075185,0.0,-0.00795052271974581,11.821902036036285,0.0,-0.5875327824944063,0.0,0.0,0.0,-31.391964243528303,-0.5478931347178999,-0.02314423463842624,0.0,0.0,0.0,0.0,0.0,-0.015056286246205601,-0.86266165704845,0.0,0.0,11.836492830232462,0.00795052271974581,0.03478354588801452,-0.049657810502595316,-2.845182961659125,0.0,0.0,0.03460152425638972,1.9825213046106749,-5.010443421482359,0.0,-13.192534973627364,11.829407825020718,0.0,-0.409478973187924,0.0,1.592686477449722,0.0,0.0,-0.5478931347178999,0.0,-0.07362691480062883,0.3490658503988659,1.0,0.14,0.14,0.75,0.08726646259971647,5.0,0.184,0.175,0.174,0.0,0.0,0.0,-0.01345253801006156,0.0,0.002360823790825225,0.0,6.076839016769715,0.0,-0.5219132711247492,0.0,0.13513530215606298,0.0,-3.7435344155704535,0.0,-0.0266600821494892,0.0,-0.005959441657158998,0.40288886870180934,-0.004998376388288883,0.09179411009915421,0.0,0.0,0.0,0.3831987383728407,0.09179411009915421,0.0,0.0,0.007131397056449214,0.0,0.0,-0.003240192849379673,0.0,1.1027957992782063,0.0,4.603671831556553,0.0,0.011994521861673857,0.0,85.81283530586529,-1.329950708498479,0.0,-4.5432569837658665,0.0,0.011994521861673857,0.0
sim_raptor_glider_3dof,raptor_glider_3dof,0.033,-14.607145949632358,0.0,-0.008363338954076729,11.816892500244286,0.0,-0.6006023101153131,0.0,0.0,0.0,-31.29863744815743,-0.5462642748583432,-0.02308390588774696,0.0,0.0,0.0,0.0,0.0,-0.015603364970801357,-0.8940069590291868,0.0,0.0,11.832145684416055,0.008363338954076729,0.0347707710612009,-0.0507820427746893,-2.9095967260425133,0.0,0.0,0.03517867780388794,2.0155897670133265,-5.008627724784849,0.0,-12.946521406293412,11.824825066355501,0.0,-0.41615339399807433,0.0,1.66503235255893,0.0,0.0,-0.5462642748583432,0.0,-0.07362691480062883,0.3490658503988659,1.0,0.14,0.14,0.75,0.08726646259971647,5.0,0.184,0.175,0.174,0.0,0.0,0.0,-0.013506021475631515,0.0,0.0023496202740522433,0.0,6.076826599718289,0.0,-0.5220208136533143,0.0,0.13382200277387438,0.0,-3.742807512371021,0.0,-0.026321208510790294,0.0,-0.005863623430588872,0.3980921502296056,-0.0046349948641048605,0.09163072165759628,0.0,0.0,0.0,0.378453385164238,0.09163072165759628,0.0,0.0,0.007460811427908637,0.0,0.0,-0.003231746824284575,0.0,1.10002443439819,0.0,4.543323062728043,0.0,0.012539358647121301,0.0,85.74981454276387,-1.329226434112848,0.0,-4.481628643188236,0.0,0.012539358647121301,0.0
sim_raptor_glider_3dof,raptor_glider_3dof,0.034,-14.595323412828945,0.0,-0.008782746390545692,11.8118849874707,0.0,-0.6134270869464673,0.0,0.0,0.0,-31.201207576170134,-0.5445638028023683,-0.023020497158330478,0.0,0.0,0.0,0.0,0.0,-0.016148787772107286,-0.9252573835942189,0.0,0.0,11.827802828430787,0.008782746390545692,0.03475800884078517,-0.051886426175985774,-2.972873233901104,0.0,0.0,0.03573763840387849,2.0476158503068853,-5.00626299919987,0.0,-12.703843693908476,11.820250522782084,0.0,-0.42260776957505347,0.0,1.7354384444769742,0.0,0.0,-0.5445638028023683,0.0,-0.07362691480062883,0.3490658503988659,1.0,0.14,0.14,0.75,0.08726646259971647,5.0,0.184,0.175,0.174,0.0,0.0,0.0,-0.013558552552504153,0.0,0.002338499052712702,0.0,6.076808665737145,0.0,-0.5221249981745476,0.0,0.13253147849021957,0.0,-3.7420888230309735,0.0,-0.025988462021391424,0.0,-0.005770421329102484,0.39337846006691346,-0.004278260040108945,0.09147298902771923,0.0,0.0,0.0,0.3737936981399287,0.09147298902771923,0.0,0.0,0.007782004276243724,0.0,0.0,-0.0032228696021662675,0.0,1.0973248930498076,0.0,4.48409015813175,0.0,0.013069586925356093,0.0,85.68687908493504,-1.328407145588641,0.0,-4.421144752517138,0.0,0.013069586925356093,0.0
sim_raptor_glider_3dof,raptor_glider_3dof,0.034999999999999996,-14.583505446069447,0.0,-0.009208491913438754,11.806880125439985,0.0,-0.6260109646833081,0.0,0.0,0.0,-31.099802528321245,-0.5427939508392627,-0.022954099455245437,0.0,0.0,0.0,0.0,0.0,-0.016692472515249766,-0.9564082247619373,0.0,0.0,11.823464298775272,0.009208491913438754,0.03474525933402472,-0.052971261589917204,-3.0350297245857027,0.0,0.0,0.03627878907466744,2.0786214998237655,-5.003372039357463,0.0,-12.464470275858698,11.815684422680716,0.0,-0.4288468818048007,0.0,1.8039442096432474,0.0,0.0,-0.5427939508392627,0.0,-0.07362691480062883,0.3490658503988659,1.0,0.14,0.14,0.75,0.08726646259971647,5.0,0.184,0.175,0.174,0.0,0.0,0.0,-0.013610148243278384,0.0,0.002327464018900681,0.0,6.076785516539747,0.0,-0.5222259323423095,0.0,0.13126340285071966,0.0,-3.741378396213845,0.0,-0.025661741921463,0.0,-0.0056797640686702495,0.3887467605884678,-0.003928062524587966,0.0913207349285005,0.0,0.0,0.0,0.36921856111238904,0.0913207349285005,0.0,0.0,0.008095133528307933,0.0,0.0,-0.003213573923734362,0.0,1.0946949008334046,0.0,4.4259573300546995,0.0,0.013585503842823298,0.0,85.62402939254979,-1.3274983447559396,0.0,-4.361789008886815,0.0,0.013585503842823298,0.0
sim_raptor_glider_3dof,raptor_glider_3dof,0.036,-14.571692041137396,0.0,-0.009640370282681261,11.801878409271792,0.0,-0.6383571140866752,0.0,0.0,0.0,-30.99452618395106,-0.5409565320055396,-0.022884786457385925,0.0,0.0,0.0,0.0,0.0,-0.017234353385027126,-0.9874557115990582,0.0,0.0,11.819129993038436,0.009640370282681261,0.03473252223996719,-0.054036793300337733,-3.096080194530155,0.0,0.0,0.03680243991531061,2.1086244829310967,-4.999976154189257,0.0,-12.228374842116802,11.81112686583641,0.0,-0.434874638784683,0.0,1.8705822125231588,0.0,0.0,-0.5409565320055396,0.0,-0.07362691480062883,0.3490658503988659,1.0,0.14,0.14,0.75,0.08726646259971647,5.0,0.184,0.175,0.174,0.0,0.0,0.0,-0.013660821303820694,0.0,0.0023165191990570265,0.0,6.076757441847936,0.0,-0.5223237129935191,0.0,0.13001751679802676,0.0,-3.740676310274917,0.0,-0.025340965235871968,0.0,-0.005591584095060808,0.3841962357152555,-0.0035843141350297278,0.09117379410635483,0.0,0.0,0.0,0.3647270942178526,0.09117379410635483,0.0,0.0,0.008400326864328404,0.0,0.0,-0.0032038701040340302,0.0,1.092132308338855,0.0,4.368911563088091,0.0,0.01408735464251191,0.0,85.56126391387635,-1.3265052923692238,0.0,-4.303547947254546,0.0,0.01408735464251191,0.0
sim_raptor_glider_3dof,raptor_glider_3dof,0.037,-14.559883189445516,0.0,-0.010078172404038691,11.796880332764045,0.0,-0.6504687953386044,0.0,0.0,0.0,-30.885484488170793,-0.539053395392216,-0.02281263342294728,0.0,0.0,0.0,0.0,0.0,-0.017774363825340703,-1.0183960307220274,0.0,0.0,11.814799839153618,0.010078172404038691,0.03471979734683246,-0.05508327345103057,-3.1560390905090685,0.0,0.0,0.03730890962568986,2.1376430597870413,-4.996096182394782,0.0,-11.99552932056768,11.8065779596229,0.0,-0.44069504491333755,0.0,1.9353851697459807,0.0,0.0,-0.539053395392216,0.0,-0.07362691480062883,0.3490658503988659,1.0,0.14,0.14,0.75,0.08726646259971647,5.0,0.184,0.175,0.174,0.0,0.0,0.0,-0.013710583698097824,0.0,0.0023056681595444175,0.0,6.076724719428542,0.0,-0.5224184331028725,0.0,0.1287935527275037,0.0,-3.7399826313112303,0.0,-0.02502604726486468,0.0,-0.005505812782651012,0.3797260170818645,-0.0032469263406962614,0.09103200394612575,0.0,0.0,0.0,0.3603183640007565,0.09103200394612575,0.0,0.0,0.008697713047984744,0.0,0.0,-0.0031937686792126198,0.0,1.0896350096814427,0.0,4.312939263412484,0.0,0.01457538571335698,0.0,85.49858153860346,-1.3254330531057459,0.0,-4.246407512938823,0.0,0.01457538571335698,0.0
sim_raptor_glider_3dof,raptor_glider_3dof,0.038,-14.54807888230023,0.0,-0.010521692667110408,11.791886371065827,0.0,-0.6623492457766627,0.0,0.0,0.0,-30.772781765899055,-0.5370863618126134,-0.02273771451491386,0.0,0.0,0.0,0.0,0.0,-0.01831243891865851,-1.0492254626302457,0.0,0.0,11.810473771678632,0.010521692667110408,0.03470708446230754,-0.05611095264502948,-3.2149207710186123,0.0,0.0,0.03779851372637097,2.1656953083883668,-4.991752360078577,0.0,-11.765904987311188,11.802037800983339,0.0,-0.4463120608601701,0.0,1.9983854486329633,0.0,0.0,-0.5370863618126134,0.0,-0.07362691480062883,0.3490658503988659,1.0,0.14,0.14,0.75,0.08726646259971647,5.0,0.184,0.175,0.174,0.0,0.0,0.0,-0.013759447304572552,0.0,0.00229491422936869,0.0,6.076687617154744,0.0,-0.5225101831915102,0.0,0.1275912434301169,0.0,-3.739297418178096,0.0,-0.02471690421779172,0.0,-0.005422383355207897,0.3753352253499901,-0.0029158111042110364,0.09089520575272557,0.0,0.0,0.0,0.3559914269970653,0.09089520575272557,0.0,0.0,0.008987419701113287,0.0,0.0,-0.003183280032087941,0.0,1.0872009532657176,0.0,4.258026763683596,0.0,0.015049840813654847,0.0,85.43598125385468,-1.324286495293023,0.0,-4.190353578328708,0.0,0.015049840813654847,0.0
sim_raptor_glider_3dof,raptor_glider_3dof,0.039,-14.536279110903582,0.0,-0.010970729923281202,11.786896976684549,0.0,-0.6740016699949973,0.0,0.0,0.0,-30.656520252620442,-0.5350572156125505,-0.022660102462077468,0.0,0.0,0.0,0.0,0.0,-0.018848515795166165,-1.07994040514869,0.0,0.0,11.806151726542032,0.010970729923281202,0.03469438339810759,-0.05712007912791232,-3.2727394594826795,0.0,0.0,0.03827156333274615,2.1927990543339897,-4.986964314722459,0.0,-11.539472571619985,11.797506472494499,0.0,-0.4517295890040836,0.0,2.0596149808392687,0.0,0.0,-0.5350572156125505,0.0,-0.07362691480062883,0.3490658503988659,1.0,0.14,0.14,0.75,0.08726646259971647,5.0,0.184,0.175,0.174,0.0,0.0,0.0,-0.013807423911555762,0.0,0.002284260521045392,0.0,6.076646393343371,0.0,-0.5225990513715865,0.0,0.12641032305130095,0.0,-3.7386207232207203,0.0,-0.024413453433793256,0.0,-0.005341230966309201,0.3710229747823955,-0.002590881096436481,0.0907632448032313,0.0,0.0,0.0,0.35174533459653906,0.0907632448032313,0.0,0.0,0.009269572915267397,0.0,0.0,-0.003172414344690846,0.0,1.0848281412331642,0.0,4.204160377309649,0.0,0.015510960420700532,0.0,85.37346206802731,-1.3230702954833309,0.0,-4.135371998667286,0.0,0.015510960420700532,0.0
sim_raptor_glider_3dof,raptor_glider_3dof,0.04,-14.524483866388739,0.0,-0.011425086600871765,11.78191258434852,0.0,-0.6854292451702801,0.0,0.0,0.0,-30.536800505729214,-0.5329677118496443,-0.02257986885174345,0.0,0.0,0.0,0.0,0.0,-0.019382533215144,-1.1105373494998854,0.0,0.0,11.80183364547072,0.011425086600871765,0.03468169398298722,-0.058110899215992676,-3.329509268786465,0.0,0.0,0.038728366000848675,2.2189719192865796,-4.981751091700608,0.0,-11.316202309282811,11.792984047174485,0.0,-0.45695148369694677,0.0,2.119105326431332,0.0,0.0,-0.5329677118496443,0.0,-0.07362691480062883,0.3490658503988659,1.0,0.14,0.14,0.75,0.08726646259971647,5.0,0.184,0.175,0.174,0.0,0.0,0.0,-0.013854525235765624,0.0,0.0022737099345883183,0.0,6.076601296998455,0.0,-0.5226851234333412,0.0,0.1252505266569788,0.0,-3.7379525922184316,0.0,-0.02411561323418694,0.0,-0.005262292610738169,0.3667883724428657,-0.002272049577792608,0.09063597022907703,0.0,0.0,0.0,0.3475791319937874,0.09063597022907703,0.0,0.0,0.009544297525093125,0.0,0.0,-0.0031611816392440833,0.0,1.0825146286662952,0.0,4.1513263889759715,0.0,0.015958982213354362,0.0,85.31102307476378,-1.3217889446749491,0.0,-4.081448602496409,0.0,0.015958982213354362,0.0
sim_raptor_glider_3dof,raptor_glider_3dof,0.04,-14.524483866388739,0.0,-0.011425086600871765,11.78191258434852,0.0,-0.6854292451702801,0.0,0.0,0.0,-30.536800505729214,-0.5329677118496443,-0.02257986885174345,0.0,0.0,0.0,0.0,0.0,-0.019382533215144,-1.1105373494998854,0.0,0.0,11.80183364547072,0.011425086600871765,0.03468169398298722,-0.058110899215992676,-3.329509268786465,0.0,0.0,0.038728366000848675,2.2189719192865796,-4.985837064270496,0.0,-11.30326316639907,11.792984047174485,0.0,-0.45695148369694677,0.0,2.2670147938225917,0.0,0.0,-0.5329677118496443,0.0,-0.07478835567695657,0.3490658503988659,1.0,0.14,0.14,0.75,0.08726646259971647,5.0,0.184,0.175,0.174,0.0,0.0,0.0,-0.013822515624770689,0.0,0.002318982501358932,0.0,6.076293033563476,0.0,-0.5226943127186635,0.0,0.12524440703123707,0.0,-3.7368629144618444,0.0,-0.024123450882115115,0.0,-0.005282672730458901,0.36649544114261623,-0.0016024313370386414,0.09074719378696915,0.0,0.0,0.0,0.34728717517024865,0.09074719378696915,0.0,0.0,0.010210471096530274,0.0,0.0,-0.0031611816392440833,0.0,1.083843032038226,0.0,4.1478393900326065,0.0,0.01707288841227794,0.0,85.31102307476378,-1.322912587131668,0.0,-4.07789033820338,0.0,0.01707288841227794,0.0
sim_raptor_glider_3dof,raptor_glider_3dof,0.041,-14.51269316213096,0.0,-0.011884570410328095,11.776929631186011,0.0,-0.6966207651501516,0.0,0.0,0.0,-30.405267522786684,-0.5306720282223276,-0.022490839967297293,0.0,0.0,0.0,0.0,0.0,-0.019914342720492792,-1.1410077896613111,0.0,0.0,11.797514654720521,0.011884570410328095,0.03466900189462083,-0.059082462480862526,-3.385175743393458,0.0,0.0,0.039168119760369734,2.244167953732147,-4.980117308528451,0.0,-11.081846518574837,11.788466282562588,0.0,-0.4619683249211329,0.0,2.3238141483673784,0.0,0.0,-0.5306720282223276,0.0,-0.07478835567695657,0.3490658503988659,1.0,0.14,0.14,0.75,0.08726646259971647,5.0,0.184,0.175,0.174,0.0,0.0,0.0,-0.013868596954473775,0.0,0.0023086162373837198,0.0,6.076242341078809,0.0,-0.5227775987094875,0.0,0.12410689403529895,0.0,-3.7361987233342777,0.0,-0.02383154327925816,0.0,-0.005206025734793388,0.36234296831696045,-0.0012902786876670162,0.09062490350947656,0.0,0.0,0.0,0.3432105971435597,0.09062490350947656,0.0,0.0,0.01047395597248742,0.0,0.0,-0.003148717595421621,0.0,1.0815903819375656,0.0,4.096150908571232,0.0,0.01750064435135473,0.0,85.24859377599735,-1.3215730646884323,0.0,-4.0251378429538045,0.0,0.01750064435135473,0.0
sim_raptor_glider_3dof,raptor_glider_3dof,0.042,-14.500906950228876,0.0,-0.012348953810563265,11.771952568049375,0.0,-0.707593462967002,0.0,0.0,0.0,-30.27054344548279,-0.5283206494916634,-0.022399377156822373,0.0,0.0,0.0,0.0,0.0,-0.02044383906398355,-1.1713456954109407,0.0,0.0,11.793199556237397,0.012348953810563265,0.03465632124434276,-0.06003618498271934,-3.4398200175765115,0.0,0.0,0.0395923459187358,2.268474322165571,-4.974008745187835,0.0,-10.863549192896135,11.783957525898078,0.0,-0.46679845872493175,0.0,2.378943150741923,0.0,0.0,-0.5283206494916634,0.0,-0.07478835567695657,0.3490658503988659,1.0,0.14,0.14,0.75,0.08726646259971647,5.0,0.184,0.175,0.174,0.0,0.0,0.0,-0.013913827546567888,0.0,0.0022983570066201853,0.0,6.076188296671646,0.0,-0.5228582532954421,0.0,0.12299000347607211,0.0,-3.7355432945816567,0.0,-0.023545090706060312,0.0,-0.005131471203313875,0.35826643025597454,-0.0009840551314174377,0.09050700247611106,0.0,0.0,0.0,0.339212033589352,0.09050700247611106,0.0,0.0,0.010730282908318832,0.0,0.0,-0.0031359128019551323,0.0,1.079393217932523,0.0,4.04546784757442,0.0,0.017915820868237422,0.0,85.18624355829138,-1.3201771320089484,0.0,-3.973415679839924,0.0,0.017915820868237422,0.0
sim_raptor_glider_3dof,raptor_glider_3dof,0.043000000000000003,-14.489125242563121,0.0,-0.012818075469256087,11.766981799214761,0.0,-0.7183494130010428,0.0,0.0,0.0,-30.132707863130655,-0.5259149647532148,-0.022305536913153446,0.0,0.0,0.0,0.0,0.0,-0.02097095690076106,-1.2015473227643578,0.0,0.0,11.788888265744585,0.012818075469256087,0.03464365178449142,-0.06097222067215945,-3.4934509120550477,0.0,0.0,0.040001263771398385,2.2919035892906896,-4.967528393132595,0.0,-10.648353594353896,11.779457816757446,0.0,-0.47144467909000404,0.0,2.4324247304221056,0.0,0.0,-0.5259149647532148,0.0,-0.07478835567695657,0.3490658503988659,1.0,0.14,0.14,0.75,0.08726646259971647,5.0,0.184,0.175,0.174,0.0,0.0,0.0,-0.013958214712253503,0.0,0.0022882081266369218,0.0,6.076131127858874,0.0,-0.5229363484701104,0.0,0.12189357493722965,0.0,-3.7348967140335954,0.0,-0.02326404037675615,0.0,-0.005058958036014418,0.3542652876326003,-0.0006837035876181304,0.09039336141015787,0.0,0.0,0.0,0.33529089622997393,0.09039336141015787,0.0,0.0,0.010979539125418733,0.0,0.0,-0.003122775167841483,0.0,1.0772498643456718,0.0,3.9957809605196246,0.0,0.01831859064480888,0.0,85.12397114284867,-1.3187287981688407,0.0,-3.922714253111494,0.0,0.01831859064480888,0.0
sim_raptor_glider_3dof,raptor_glider_3dof,0.044,-14.477348031150697,0.0,-0.013291774418059359,11.762017646034119,0.0,-0.72889134096564,0.0,0.0,0.0,-29.991843437517236,-0.52345641672733,-0.022209378133609143,0.0,0.0,0.0,0.0,0.0,-0.02149564890220744,-1.2316099599915076,0.0,0.0,11.784580675295691,0.013291774418059359,0.03463099319784799,-0.06189077928679533,-3.5460804439090676,0.0,0.0,0.04039513038458789,2.3144704839175603,-4.960692899081184,0.0,-10.436231577979765,11.774967140328451,0.0,-0.47591021919880977,0.0,2.484285943127004,0.0,0.0,-0.52345641672733,0.0,-0.07478835567695657,0.3490658503988659,1.0,0.14,0.14,0.75,0.08726646259971647,5.0,0.184,0.175,0.174,0.0,0.0,0.0,-0.014001768426957632,0.0,0.0022781721253010874,0.0,6.076071051392573,0.0,-0.5230119591886163,0.0,0.12081738162335141,0.0,-3.7342590228412953,0.0,-0.022988323063749812,0.0,-0.004988432129353261,0.3503387508578927,-0.0003891490578407902,0.09028384708860147,0.0,0.0,0.0,0.33144634452130517,0.09028384708860147,0.0,0.0,0.011221830838356588,0.0,0.0,-0.0031093129387052805,0.0,1.0751585990810801,0.0,3.94707800938472,0.0,0.01870915743768947,0.0,85.06177491100898,-1.317231883385949,0.0,-3.873020912767957,0.0,0.01870915743768947,0.0
