name,vehicle,t,north,east,down,u,v,w,p_rad,p_deg,p_hat_div_b,q_deg,q_rad,q_hat_div_c,r_rad,r_deg,r_hat_div_b,phi_rad,phi_deg,theta_rad,theta_deg,psi_rad,psi_deg,speed,altitude,mach,alpha_rad,alpha_deg,beta_rad,beta_deg,gamma_rad,gamma_deg,u_dot,v_dot,w_dot,north_dot,east_dot,down_dot,p_rad_dot,q_rad_dot,r_rad_dot,phi_rad_dot,theta_rad_dot,psi_rad_dot,del_tail_alt_rad,del_tail_splay_rad,DIM_b,DIM_c_bar,DIM_S,DIM_wing_position,DIM_wing_incidence_rad,DIM_wing_incidence_deg,DIM_empennage_length,DIM_nose_length,DIM_tail_length,CDp,CDq,CDr,CYp,CYq,CYr,CLp,CLq,CLr,Clp,Clq,Clr,Cmp,Cmq,Cmr,Cnp,Cnq,Cnr,CL_0,Cm_0,CD_0,Cl_0,CY_0,Cn_0,CL,CD,CY,Cl,Cm,Cn,p_hat,q_hat,r_hat,drag_force_wind,side_force_wind,lift_force_wind,roll_moment_wind,pitch_moment_wind,yaw_moment_wind,qbar,X_total,Y_total,Z_total,L_total,M_total,N_total
sim_raptor_glider_3dof,raptor_glider_3dof,0.0,-15.0,0.0,0.0,12.0,0.0,0.0,0.0,0.0,0.0,0.0,0.0,0.0,0.0,0.0,0.0,0.0,0.0,0.0,0.0,0.0,0.0,12.0,-0.0,0.035264039495724236,0.0,0.0,0.0,0.0,0.0,0.0,-7.487178041450953,0.0,-25.024054441263395,12.0,0.0,0.0,0.0,-89.41363838472799,0.0,0.0,0.0,0.0,0.4363323129985824,0.3490658503988659,1.0,0.14,0.14,0.75,0.08726646259971647,5.0,0.184,0.175,0.174,0.0,0.0,0.0,-0.053153656886407115,0.0,0.055671173493162154,0.0,6.024209384397437,0.0,-0.5269202128147928,0.0,0.19813275846416445,0.0,-3.4552995296441478,0.0,-0.03588346466142729,0.0,-0.029845922084054996,0.7757079658211316,-0.38952171953159265,0.1667455120831285,0.0,0.0,0.0,0.7757079658211316,0.1667455120831285,0.0,0.0,-0.38952171953159265,0.0,0.0,0.0,0.0,2.0589739613990123,0.0,9.578443721347433,0.0,-0.6733741106753866,0.0,88.20001620075907,-2.0589739613990123,0.0,-9.578443721347433,0.0,-0.6733741106753866,0.0
sim_raptor_glider_3dof,raptor_glider_3dof,0.001,-14.988003746590733,0.0,-0.000012415174634177188,11.992502827180262,0.0,-0.02526770405029525,0.0,0.0,0.0,-5.103039651887635,-0.0890648437852645,-0.0037133468875430262,0.0,0.0,0.0,0.0,0.0,-0.000044590487564095195,-0.0025548467438532376,0.0,0.0,11.992529446150822,0.000012415174634177188,0.03524208600355821,-0.002106955238988487,-0.12071964281701804,0.0,0.0,0.002062364751424392,0.1181647960731648,-7.507675599275719,0.0,-25.508550485583747,11.99250394195709,0.0,-0.024732952477174667,0.0,-88.71856693472195,0.0,0.0,-0.0890648437852645,0.0,0.4363323129985824,0.3490658503988659,1.0,0.14,0.14,0.75,0.08726646259971647,5.0,0.184,0.175,0.174,0.0,0.0,0.0,-0.053430186057496054,0.0,0.0554080780660455,0.0,6.0240249874908525,0.0,-0.5274002219771142,0.0,0.1957017793236076,0.0,-3.453669819760639,0.0,-0.03525814560644711,0.0,-0.029499655008724115,0.7671435812705255,-0.38877083359862435,0.165760584735996,0.0,0.0,0.0,0.7640118800492363,0.165760584735996,0.0,0.0,-0.386975379228011,0.0,0.0,-0.0005198685642560238,0.0,2.0442643995802876,0.0,9.422277857722193,0.0,-0.6681395275853911,0.0,88.09023322213056,-2.064112165078258,0.0,-9.417949773357746,0.0,-0.6681395275853911,0.0
sim_raptor_glider_3dof,raptor_glider_3dof,0.002,-14.976014997218163,0.0,-0.000049270492086499364,11.984983638081903,0.0,-0.051011581957007696,0.0,0.0,0.0,-10.166686259086081,-0.1774421492383174,-0.0074026192836820276,0.0,0.0,0.0,0.0,0.0,-0.00017790069037163533,-0.010192958730758345,0.0,0.0,11.985092197667264,0.000049270492086499364,0.03522023038486956,-0.004256265628603735,-0.24386605700559036,0.0,0.0,0.0040783649382321,0.233673098274832,-7.5312069778045,0.0,-25.97647568606275,11.984992523423195,0.0,-0.04887944429772272,0.0,-88.03854836579413,0.0,0.0,-0.1774421492383174,0.0,0.4363323129985824,0.3490658503988659,1.0,0.14,0.14,0.75,0.08726646259971647,5.0,0.184,0.175,0.174,0.0,0.0,0.0,-0.05371000072613438,0.0,0.05518325282971427,0.0,6.023796383437123,0.0,-0.5278990096560925,0.0,0.1932332307470952,0.0,-3.4519868033346692,0.0,-0.03462545852853912,0.0,-0.029153229463314653,0.758374006898808,-0.388063512765844,0.16478068235403653,0.0,0.0,0.0,0.7521311449211472,0.16478068235403653,0.0,0.0,-0.38448598859501065,0.0,0.0,-0.001036366699715484,0.0,2.0296598650783366,0.0,9.264255835778041,0.0,-0.6630183077427956,0.0,87.98100758981425,-2.069072495287059,0.0,-9.25553317577674,0.0,-0.6630183077427956,0.0
sim_raptor_glider_3dof,raptor_glider_3dof,0.003,-14.964033765483153,0.0,-0.00010997650410396534,11.977439408842296,0.0,-0.07721526894416839,0.0,0.0,0.0,-15.191799193026208,-0.2651469152201249,-0.011068367643203196,0.0,0.0,0.0,0.0,0.0,-0.0003992506169425001,-0.022875375318799577,0.0,0.0,11.97768829909372,0.00010997650410396534,0.035198472770559576,-0.006446636600632963,-0.3693650692708328,0.0,0.0,0.006047385983690463,0.3464896939520332,-7.557751963901034,0.0,-26.428240508352538,11.977469282477013,0.0,-0.07243326284374174,0.0,-87.37346069275941,0.0,0.0,-0.2651469152201249,0.0,0.4363323129985824,0.3490658503988659,1.0,0.14,0.14,0.75,0.08726646259971647,5.0,0.184,0.175,0.174,0.0,0.0,0.0,-0.0539933342342998,0.0,0.0549956890768542,0.0,6.023523849844041,0.0,-0.5284156910211553,0.0,0.1907277346999606,0.0,-3.450251759098094,0.0,-0.033984927296559594,0.0,-0.028807107836358457,0.7494038488665931,-0.387399686775176,0.16380724554970857,0.0,0.0,0.0,0.7400699681597184,0.16380724554970857,0.0,0.0,-0.38205327508479314,0.0,0.0,-0.0015495714700484477,0.0,2.015177614704102,0.0,9.104435082498677,0.0,-0.6580095324771711,0.0,87.87233904709669,-2.0738283182350847,0.0,-9.09125486919839,0.0,-0.6580095324771711,0.0
sim_raptor_glider_3dof,raptor_glider_3dof,0.004,-14.95206006146447,0.0,-0.00019393750269191865,11.969867139046595,0.0,-0.10386280993339823,0.0,0.0,0.0,-20.179227607931264,-0.35219396226773997,-0.01471113674262299,0.0,0.0,0.0,0.0,0.0,-0.0007079751977142588,-0.040563990828967035,0.0,0.0,11.970317740549529,0.00019393750269191865,0.03517681313159225,-0.008676805031272569,-0.49714430794979647,0.0,0.0,0.00796882983355831,0.4565803171208294,-7.587282867422961,0.0,-26.864252771312174,11.96993767151242,0.0,-0.09538841555743248,0.0,-86.72306067972036,0.0,0.0,-0.35219396226773997,0.0,0.4363323129985824,0.3490658503988659,1.0,0.14,0.14,0.75,0.08726646259971647,5.0,0.184,0.175,0.174,0.0,0.0,0.0,-0.054280487125545326,0.0,0.054843901706905056,0.0,6.023207997132767,0.0,-0.5289492506950555,0.0,0.18818569052618506,0.0,-3.4484661334741316,0.0,-0.033335929119057396,0.0,-0.028461722112779208,0.7402377623774763,-0.38677875516894367,0.16284159593212236,0.0,0.0,0.0,0.727832609270965,0.16284159593212236,0.0,0.0,-0.37967643521108574,0.0,0.0,-0.0020595591439672187,0.0,2.000833340210975,0.0,8.942873240625298,0.0,-0.6531113699789741,0.0,87.76422654166264,-2.078352616244555,0.0,-8.925175978978858,0.0,-0.6531113699789741,0.0
sim_raptor_glider_3dof,raptor_glider_3dof,0.005,-14.94009389182307,0.0,-0.0003005518855746,11.962263859629724,0.0,-0.13093865674169305,0.0,0.0,0.0,-25.12980322664479,-0.4385978066832464,-0.01833146045868009,0.0,0.0,0.0,0.0,0.0,-0.0011034240774344013,-0.06322154265010774,0.0,0.0,11.962980463882431,0.0003005518855746,0.035155251297077285,-0.010945539172903748,-0.6271331991024985,0.0,0.0,0.009842115095469346,0.5639116564523908,-7.619764933048298,0.0,-27.284916404279006,11.96240105817221,0.0,-0.11773912974501546,0.0,-86.08698535636344,0.0,0.0,-0.4385978066832464,0.0,0.4363323129985824,0.3490658503988659,1.0,0.14,0.14,0.75,0.08726646259971647,5.0,0.184,0.175,0.174,0.0,0.0,0.0,-0.05457182683161292,0.0,0.05472593032343835,0.0,6.022849768199583,0.0,-0.529498543215881,0.0,0.18560727572066893,0.0,-3.446631540314975,0.0,-0.03267769521599154,0.0,-0.028117473742245224,0.7308804509402165,-0.3861995880247053,0.16188493539638366,0.0,0.0,0.0,0.7154233824078116,0.16188493539638366,0.0,0.0,-0.37735413745313595,0.0,0.0,-0.002566404464215213,0.0,1.9866411722863777,0.0,8.779628219436473,0.0,-0.6483210867187731,0.0,87.65666831823584,-2.0826180146542357,0.0,-8.757357879177162,0.0,-0.6483210867187731,0.0
sim_raptor_glider_3dof,raptor_glider_3dof,0.006,-14.92813525992473,0.0,-0.0004292124397594923,11.954626639550906,0.0,-0.15842765930436845,0.0,0.0,0.0,-30.04433358782197,-0.5243725426750143,-0.02192985685369944,0.0,0.0,0.0,0.0,0.0,-0.0015849610904613313,-0.09081158117588696,0.0,0.0,11.955676367913814,0.0004292124397594923,0.03513378696968413,-0.01325163807797221,-0.7592629335026617,0.0,0.0,0.01166667698751088,0.6684513523267749,-7.65515672930522,0.0,-27.690630360815796,11.954862725505864,0.0,-0.13947985016959272,0.0,-85.46475387002384,0.0,0.0,-0.5243725426750143,0.0,0.4363323129985824,0.3490658503988659,1.0,0.14,0.14,0.75,0.08726646259971647,5.0,0.184,0.175,0.174,0.0,0.0,0.0,-0.05486778710977721,0.0,0.05463934182373924,0.0,6.022450437086101,0.0,-0.5300622937916623,0.0,0.18299244783751023,0.0,-3.444749760445701,0.0,-0.03200931203935526,0.0,-0.02777473367758559,0.7213366671206888,-0.3856605284654083,0.16093834608201854,0.0,0.0,0.0,0.7028466604815571,0.16093834608201854,0.0,0.0,-0.37508452678533377,0.0,0.0,-0.003070179959517922,0.0,1.9726136922696764,0.0,8.61475825857789,0.0,-0.6436350613951496,0.0,87.54966199755503,-2.0865968109073574,0.0,-8.58786227075033,0.0,-0.6436350613951496,0.0
sim_raptor_glider_3dof,raptor_glider_3dof,0.007,-14.916184165882276,0.0,-0.0005793064854676666,11.946952592434664,0.0,-0.18631506489291877,0.0,0.0,0.0,-34.923595341205655,-0.6095317253381911,-0.025506823267053384,0.0,0.0,0.0,0.0,0.0,-0.00215196395569408,-0.12329845232554847,0.0,0.0,11.94840531406963,0.0005793064854676666,0.03511241974218939,-0.015593931681301612,-0.8934664713539263,0.0,0.0,0.013441967725607532,0.7701680190283778,-7.693410528399182,0.0,-28.081787400130356,11.947325872576652,0.0,-0.1606052419691676,0.0,-84.85576962259707,0.0,0.0,-0.6095317253381911,0.0,0.4363323129985824,0.3490658503988659,1.0,0.14,0.14,0.75,0.08726646259971647,5.0,0.184,0.175,0.174,0.0,0.0,0.0,-0.05516886739682447,0.0,0.05458123429015566,0.0,6.022011606567932,0.0,-0.5306390995932566,0.0,0.18034094615955698,0.0,-3.442822740123928,0.0,-0.031329722669104235,0.0,-0.027433842397851762,0.7116112100401488,-0.3851593965008954,0.16000279048359145,0.0,0.0,0.0,0.6901068760336266,0.16000279048359145,0.0,0.0,-0.3728652305367967,0.0,0.0,-0.0035709552573874744,0.0,1.9587619456352325,0.0,8.448321951825605,0.0,-0.6390488010277785,0.0,87.4432046606849,-2.090261009781001,0.0,-8.416751218395161,0.0,-0.6390488010277785,0.0
sim_raptor_glider_3dof,raptor_glider_3dof,0.008,-14.904240606651282,0.0,-0.0007502161182813057,11.939238882633015,0.0,-0.21458650998107728,0.0,0.0,0.0,-39.768327695755914,-0.6940882563029905,-0.02906283149078703,0.0,0.0,0.0,0.0,0.0,-0.0028038236298313884,-0.16064726048838937,0.0,0.0,11.941167131685324,0.0007502161182813057,0.035091149113066274,-0.017971280258754233,-1.0296785112733915,0.0,0.0,0.015167456628922844,0.8690312507850021,-7.734472659743328,0.0,-28.458772998507442,11.939793614875626,0.0,-0.18111019026309105,0.0,-84.25932271685393,0.0,0.0,-0.6940882563029905,0.0,0.4363323129985824,0.3490658503988659,1.0,0.14,0.14,0.75,0.08726646259971647,5.0,0.184,0.175,0.174,0.0,0.0,0.0,-0.05547563193059443,0.0,0.054548242134604644,0.0,6.021535204946049,0.0,-0.5312274312413525,0.0,0.17765229454057654,0.0,-3.440852589499303,0.0,-0.030637728722487007,0.0,-0.027095110104628704,0.7017089249620452,-0.38469349440195466,0.1590791122370665,0.0,0.0,0.0,0.6772085241452388,0.1590791122370665,0.0,0.0,-0.37069336574289874,0.0,0.0,-0.004068796408710184,0.0,1.9450954633896698,0.0,8.280378294547667,0.0,-0.634556959380627,0.0,87.33729292823296,-2.0935823601488033,0.0,-8.244087212286694,0.0,-0.634556959380627,0.0
sim_raptor_glider_3dof,raptor_glider_3dof,0.009000000000000001,-14.892304576113405,0.0,-0.0009413184291606596,11.931482731000013,0.0,-0.24322801242629782,0.0,0.0,0.0,-44.57922600410458,-0.7780542717623,-0.03259832301805841,0.0,0.0,0.0,0.0,0.0,-0.0035399435977275817,-0.2028238278641469,0.0,0.0,11.933961623290918,0.0009413184291606596,0.03506997450201568,-0.020382573901800104,-1.1678354601866447,0.0,0.0,0.01684263030407252,0.9650116323224979,-7.778283843616755,0.0,-28.821964269395146,11.932268984822977,0.0,-0.20098980076623565,0.0,-83.67459264387269,0.0,0.0,-0.7780542717623,0.0,0.4363323129985824,0.3490658503988659,1.0,0.14,0.14,0.75,0.08726646259971647,5.0,0.184,0.175,0.174,0.0,0.0,0.0,-0.055788708736007504,0.0,0.0545365423304085,0.0,6.021023482042527,0.0,-0.531825634606743,0.0,0.17492580464570248,0.0,-3.4388415806117196,0.0,-0.029931992558805562,0.0,-0.02675881698380161,0.6916347024036031,-0.3842596132891834,0.15816803727685969,0.0,0.0,0.0,0.6641561648322319,0.15816803727685969,0.0,0.0,-0.3685655476778038,0.0,0.0,-0.004563765222528177,0.0,1.9316222876944662,0.0,8.110986723910683,0.0,-0.6301533572010052,0.0,87.23192303897322,-2.096532395351765,0.0,-8.0699332223392,0.0,-0.6301533572010052,0.0
sim_raptor_glider_3dof,raptor_glider_3dof,0.01,-14.88037606515921,0.0,-0.0011519857253842968,11.923681420343334,0.0,-0.27222596258209436,0.0,0.0,0.0,-49.356935507178044,-0.8614410332947542,-0.03611370438294382,0.0,0.0,0.0,0.0,0.0,-0.004359739052099519,-0.24979464746366856,0.0,0.0,11.926788569792983,0.0011519857253842968,0.03504889526519434,-0.022826731891997996,-1.3078753974881616,0.0,0.0,0.01846699283989848,1.058080750024493,-7.824779502619,0.0,-29.171728920063018,11.924754932281528,0.0,-0.22023940058925584,0.0,-83.10065118556057,0.0,0.0,-0.8614410332947542,0.0,0.4363323129985824,0.3490658503988659,1.0,0.14,0.14,0.75,0.08726646259971647,5.0,0.184,0.175,0.174,0.0,0.0,0.0,-0.05610878847395166,0.0,0.05454186162840115,0.0,6.020479004498773,0.0,-0.5324319328652451,0.0,0.17216057968112747,0.0,-3.4367921450673697,0.0,-0.02921103978427371,0.0,-0.02642521354291394,0.6813934773072167,-0.3838540408424605,0.15727017538811427,0.0,0.0,0.0,0.6509544254455103,0.15727017538811427,0.0,0.0,-0.3664778994650984,0.0,0.0,-0.0050559186136121355,0.0,1.9183490019530007,0.0,7.940207158086878,0.0,-0.6258310040784566,0.0,87.12709092666549,-2.099082476605616,0.0,-7.894352751368246,0.0,-0.6258310040784566,0.0
sim_raptor_glider_3dof,raptor_glider_3dof,0.01,-14.88037606515921,0.0,-0.0011519857253842968,11.923681420343334,0.0,-0.27222596258209436,0.0,0.0,0.0,-49.356935507178044,-0.8614410332947542,-0.03611370438294382,0.0,0.0,0.0,0.0,0.0,-0.004359739052099519,-0.24979464746366856,0.0,0.0,11.926788569792983,0.0011519857253842968,0.03504889526519434,-0.022826731891997996,-1.3078753974881616,0.0,0.0,0.01846699283989848,1.058080750024493,-5.18255173109475,0.0,-21.267291088183498,11.924754932281528,0.0,-0.22023940058925584,0.0,8.463755045994198,0.0,0.0,-0.8614410332947542,0.0,-0.12841749763448834,0.3490658503988659,1.0,0.14,0.14,0.75,0.08726646259971647,5.0,0.184,0.175,0.174,0.0,0.0,0.0,-0.0036472446567444544,0.0,0.004379876322296944,0.0,6.061014895804693,0.0,-0.5181500371028951,0.0,0.16586545858569035,0.0,-3.7048060388306294,0.0,-0.03713478287248858,0.0,-0.00943546604259368,0.5020791522972048,0.01859437216403568,0.1017840122599639,0.0,0.0,0.0,0.47143515426812543,0.1017840122599639,0.0,0.0,0.037325569975582104,0.0,0.0,-0.0050559186136121355,0.0,1.2415402847476595,0.0,5.750468297272375,0.0,0.0637405392513823,0.0,87.12709092666549,-1.3724698394364472,0.0,-5.720632347601377,0.0,0.0637405392513823,0.0
sim_raptor_glider_3dof,raptor_glider_3dof,0.011,-14.868453760237438,0.0,-0.0013776713001308167,11.918489959328415,0.0,-0.2932695820293583,0.0,0.0,0.0,-48.86970739584612,-0.8529372985437387,-0.035771276617503976,0.0,0.0,0.0,0.0,0.0,-0.005216930970028298,-0.298908126593712,0.0,0.0,11.922097548600913,0.0013776713001308167,0.03503510990214497,-0.024601305704196406,-1.4095509873615717,0.0,0.0,0.019384374734168108,1.1106428607678596,-5.2001485940672625,0.0,-20.820845138037953,11.91985773091249,0.0,-0.2310879338296453,0.0,8.543292768057634,0.0,0.0,-0.8529372985437387,0.0,-0.12841749763448834,0.3490658503988659,1.0,0.14,0.14,0.75,0.08726646259971647,5.0,0.184,0.175,0.174,0.0,0.0,0.0,-0.0036811019701204557,0.0,0.0043805497602961395,0.0,6.061126126087702,0.0,-0.5183681091101665,0.0,0.16381089897092427,0.0,-3.703550021688291,0.0,-0.036607221114265294,0.0,-0.009258118409282666,0.4946620150989124,0.019158690523804266,0.10144966841682787,0.0,0.0,0.0,0.4643080244011315,0.10144966841682787,0.0,0.0,0.03770599024476473,0.0,0.0,-0.005007978726450557,0.0,1.2364887869858092,0.0,5.659078781023421,0.0,0.06433953783624205,0.0,87.05856709058834,-1.3753213135903823,0.0,-5.6269501912274995,0.0,0.06433953783624205,0.0
sim_raptor_glider_3dof,raptor_glider_3dof,0.012,-14.856536348602738,0.0,-0.00161404153387049,11.913281782100254,0.0,-0.3138697770556883,0.0,0.0,0.0,-48.37801464682742,-0.8443556411651801,-0.03542528271869622,0.0,0.0,0.0,0.0,0.0,-0.006065583141986498,-0.34753231432152754,0.0,0.0,11.917415703778685,0.00161404153387049,0.03502135150541798,-0.02634011279671588,-1.5091772951503513,0.0,0.0,0.02027452965472938,1.1616449808288236,-5.215942358095197,0.0,-20.380441970624382,11.914966421771593,0.0,-0.2416034451869638,0.0,8.619537063767797,0.0,0.0,-0.8443556411651801,0.0,-0.12841749763448834,0.3490658503988659,1.0,0.14,0.14,0.75,0.08726646259971647,5.0,0.184,0.175,0.174,0.0,0.0,0.0,-0.0037142428914326087,0.0,0.004381101545842581,0.0,6.061220879406122,0.0,-0.5185779574882631,0.0,0.16179664994893722,0.0,-3.7023079378783907,0.0,-0.03609072863900481,0.0,-0.009086501794499933,0.48738096541413517,0.01971064960484193,0.10112830828540206,0.0,0.0,0.0,0.4573201005558555,0.10112830828540206,0.0,0.0,0.038072392362384064,0.0,0.0,-0.004959539580617471,0.0,1.231604105997333,0.0,5.569531648943924,0.0,0.06491373362723529,0.0,86.9902041757492,-1.3778620150415684,0.0,-5.53516284584321,0.0,0.06491373362723529,0.0
sim_raptor_glider_3dof,raptor_glider_3dof,0.013000000000000001,-14.84462382532742,0.0,-0.0018607723012065921,11.908058634175003,0.0,-0.33403243327702176,0.0,0.0,0.0,-47.88204105854659,-0.835699269046749,-0.035075854975946084,0.0,0.0,0.0,0.0,0.0,-0.006905618112813528,-0.3956627727933116,0.0,0.0,11.912742677546209,0.0018607723012065921,0.035007619023615766,-0.028043602492259092,-1.606780065149003,0.0,0.0,0.021137984379445564,1.2111172923556912,-5.2300049141055664,0.0,-19.94607899694351,11.910081384252052,0.0,-0.25179261689634747,0.0,8.69256074126604,0.0,0.0,-0.835699269046749,0.0,-0.12841749763448834,0.3490658503988659,1.0,0.14,0.14,0.75,0.08726646259971647,5.0,0.184,0.175,0.174,0.0,0.0,0.0,-0.0037466868163905354,0.0,0.004381526770867588,0.0,6.061300034579721,0.0,-0.5187798761584439,0.0,0.1598222740004765,0.0,-3.701080170741631,0.0,-0.03558513826770359,0.0,-0.008920441348250867,0.4802355700329346,0.02025046825584933,0.10081951872287853,0.0,0.0,0.0,0.45047083069592847,0.10081951872287853,0.0,0.0,0.03842506544110898,0.0,0.0,-0.004910619696632452,0.0,1.2268807437773293,0.0,5.481815374792067,0.0,0.06546367494247456,0.0,86.92199680313622,-1.3801080412360889,0.0,-5.445258300326421,0.0,0.06546367494247456,0.0
sim_raptor_glider_3dof,raptor_glider_3dof,0.014,-14.832716183662612,0.0,-0.002117526473431322,11.902822289809908,0.0,-0.3537638424274792,0.0,0.0,0.0,-47.38197714426035,-0.8269715072720433,-0.034723130414225006,0.0,0.0,0.0,0.0,0.0,-0.0077369594489756326,-0.44329512269016674,0.0,0.0,11.908078237860408,0.002117526473431322,0.034993911774840306,-0.029712258540333332,-1.7023870141626358,0.0,0.0,0.0219752990913577,1.2590918914724691,-5.242407070429408,0.0,-19.517743902094907,11.905203066089634,0.0,-0.2616625196213768,0.0,8.762438499240192,0.0,0.0,-0.8269715072720433,0.0,-0.12841749763448834,0.3490658503988659,1.0,0.14,0.14,0.75,0.08726646259971647,5.0,0.184,0.175,0.174,0.0,0.0,0.0,-0.0037784526603746316,0.0,0.004381821693294326,0.0,6.0613644409478376,0.0,-0.5189741535645909,0.0,0.15788728925102166,0.0,-3.699867051393583,0.0,-0.03509027446575044,0.0,-0.008759763702828972,0.4732251429920832,0.02077837202093616,0.10052288884022136,0.0,0.0,0.0,0.44375940627611826,0.10052288884022136,0.0,0.0,0.038764307280652846,0.0,0.0,-0.004861238257991501,0.0,1.2223132740484817,0.0,5.395915487838044,0.0,0.0659899243377779,0.0,86.85394143639965,-1.3820750209333024,0.0,-5.357221511970343,0.0,0.0659899243377779,0.0
sim_raptor_glider_3dof,raptor_glider_3dof,0.015,-14.82081341682633,0.0,-0.0023839937184323336,11.897574344509106,0.0,-0.3730699242898577,0.0,0.0,0.0,-46.8779979523895,-0.8181754110123568,-0.034367235225164765,0.0,0.0,0.0,0.0,0.0,-0.00855953862654103,-0.4904254378800063,0.0,0.0,11.903422047946167,0.0023839937184323336,0.03498022876942069,-0.0313465343439743,-1.7960241202716143,0.0,0.0,0.022786995717433273,1.305598682391608,-5.253217070519792,0.0,-19.09542232453626,11.900331772539074,0.0,-0.27121975412558247,0.0,8.829240227460408,0.0,0.0,-0.8181754110123568,0.0,-0.12841749763448834,0.3490658503988659,1.0,0.14,0.14,0.75,0.08726646259971647,5.0,0.184,0.175,0.174,0.0,0.0,0.0,-0.003809557702994582,0.0,0.004381983624601827,0.0,6.061414915952263,0.0,-0.5191610652416071,0.0,0.15599124473850404,0.0,-3.6986689060682827,0.0,-0.03460597248347865,0.0,-0.008604303187908025,0.4663490237505139,0.021294572803818423,0.10023802182334947,0.0,0.0,0.0,0.43718505364057436,0.10023802182334947,0.0,0.0,0.039090396207897636,0.0,0.0,-0.004811412931523067,0.0,1.2178964380211943,0.0,5.3118179100072,0.0,0.06649300815300434,0.0,86.78603301759843,-1.3837779467493494,0.0,-5.271037832999126,0.0,0.06649300815300434,0.0
sim_raptor_glider_3dof,raptor_glider_3dof,0.016,-14.808915517651519,0.0,-0.002659864449975925,11.892316359454664,0.0,-0.39195668355932767,0.0,0.0,0.0,-46.370277885005315,-0.8093140241580553,-0.03400829515529879,0.0,0.0,0.0,0.0,0.0,-0.00937328872239454,-0.5370498839507787,0.0,0.0,11.898773820656475,0.002659864449975925,0.03496656916352662,-0.032946890981458955,-1.8877178013152327,0.0,0.0,0.023573602259064415,1.350667917364454,-5.2625015129004415,0.0,-18.67909425084759,11.895467811858861,0.0,-0.2804709827586792,0.0,8.893035202623425,0.0,0.0,-0.8093140241580553,0.0,-0.12841749763448834,0.3490658503988659,1.0,0.14,0.14,0.75,0.08726646259971647,5.0,0.184,0.175,0.174,0.0,0.0,0.0,-0.00384001838672923,0.0,0.004382010850257412,0.0,6.061452247715044,0.0,-0.5193408786223225,0.0,0.15413367654843138,0.0,-3.6974860295382124,0.0,-0.034132066984417855,0.0,-0.008453897992339922,0.4596064240397873,0.021799281113615464,0.09996452800893314,0.0,0.0,0.0,0.43074687204438133,0.09996452800893314,0.0,0.0,0.03940360858513357,0.0,0.0,-0.004761161321741831,0.0,1.213625091337539,0.0,5.2295071295840625,0.0,0.06697344811095701,0.0,86.71826722011157,-1.3852312891691168,0.0,-5.186691137536672,0.0,0.06697344811095701,0.0
sim_raptor_glider_3dof,raptor_glider_3dof,0.017,-14.797022478666253,0.0,-0.0029448358955502245,11.887049828338036,0.0,-0.4104301022384515,0.0,0.0,0.0,-45.85898730880085,-0.8003903201688684,-0.03364643313240104,0.0,0.0,0.0,0.0,0.0,-0.010178145907075754,-0.5831648037437936,0.0,0.0,11.894133280328365,0.0029448358955502245,0.03495293214707562,-0.03451378827303043,-1.9774944030527577,0.0,0.0,0.024335642365954674,1.394329599308964,-5.270325141113335,0.0,-18.26873522959347,11.890611461585044,0.0,-0.28942280462528736,0.0,8.953891173087321,0.0,0.0,-0.8003903201688684,0.0,-0.12841749763448834,0.3490658503988659,1.0,0.14,0.14,0.75,0.08726646259971647,5.0,0.184,0.175,0.174,0.0,0.0,0.0,-0.0038698502172582394,0.0,0.004381902542191788,0.0,6.061477195293155,0.0,-0.5195138522365259,0.0,0.1523141183526583,0.0,-3.6963186922545046,0.0,-0.033668394617129956,0.0,-0.008308390925114756,0.45299647123051795,0.02229270341413741,0.09970202652007301,0.0,0.0,0.0,0.42444387903161723,0.09970202652007301,0.0,0.0,0.03970421497423535,0.0,0.0,-0.004710500638536146,0.0,1.209494215501034,0.0,5.148966720252234,0.0,0.06743175442452062,0.0,86.65063989142303,-1.3864489791313033,0.0,-5.104164355882485,0.0,0.06743175442452062,0.0
sim_raptor_glider_3dof,raptor_glider_3dof,0.018000000000000002,-14.785134292118185,0.0,-0.003238612270926071,11.881776176838423,0.0,-0.42849613445467816,0.0,0.0,0.0,-45.34429250150983,-0.7914072011387223,-0.033281769228777916,0.0,0.0,0.0,0.0,0.0,-0.010974049481487717,-0.6287667194569756,0.0,0.0,11.889500159961633,0.003238612270926071,0.03493931693544222,-0.03604768436664477,-2.065380175428463,0.0,0.0,0.02507363488515705,1.4366134559714876,-5.2767508457141,0.0,-17.864316701964896,11.885762967679057,0.0,-0.2980817503250485,0.0,9.011874371849984,0.0,0.0,-0.7914072011387223,0.0,-0.12841749763448834,0.3490658503988659,1.0,0.14,0.14,0.75,0.08726646259971647,5.0,0.184,0.175,0.174,0.0,0.0,0.0,-0.0038990678223968095,0.0,0.004381658678656719,0.0,6.061490489372783,0.0,-0.5196802359273321,0.0,0.1505321020705843,0.0,-3.6951671413731835,0.0,-0.03321479406049587,0.0,-0.008167629339678871,0.4465182156991684,0.022775042168513147,0.0994501453241793,0.0,0.0,0.0,0.4182750178282052,0.0994501453241793,0.0,0.0,0.039992480177045486,0.0,0.0,-0.004659447692028908,0.0,1.2054989174110544,0.0,5.070179430390409,0.0,0.06786842589440223,0.0,86.58314701167744,-1.3874444159195267,0.0,-5.023439567563937,0.0,0.06786842589440223,0.0
sim_raptor_glider_3dof,raptor_glider_3dof,0.019000000000000003,-14.773250950039966,0.0,-0.0035409038871691404,11.876496772708856,0.0,-0.4461607050060784,0.0,0.0,0.0,-44.82635622799886,-0.7823675078504461,-0.03291442105669893,0.0,0.0,0.0,0.0,0.0,-0.011760941432169608,-0.6738523071638645,0.0,0.0,11.884874209130503,0.0035409038871691404,0.0349257227927077,-0.03754903560338687,-2.151401264860532,0.0,0.0,0.02578809417121726,1.4775489576966676,-5.281839692821991,0.0,-17.465806420449766,11.880922554138573,0.0,-0.30645428601475744,0.0,9.067049613904992,0.0,0.0,-0.7823675078504461,0.0,-0.12841749763448834,0.3490658503988659,1.0,0.14,0.14,0.75,0.08726646259971647,5.0,0.184,0.175,0.174,0.0,0.0,0.0,-0.003927685012776062,0.0,0.004381279968798689,0.0,6.061492832971767,0.0,-0.5198402710953477,0.0,0.14878715819892688,0.0,-3.6940316015673216,0.0,-0.03277110598920633,0.0,-0.008031465032170384,0.440170636726756,0.02324649596516913,0.09920852122855645,0.0,0.0,0.0,0.4122391628996326,0.09920852122855645,0.0,0.0,0.04026866357947255,0.0,0.0,-0.00460801894793785,0.0,1.2016344303304198,0.0,4.993127258993989,0.0,0.0682839506423185,0.0,86.51578480859493,-1.3882304786345705,0.0,-4.944498080377255,0.0,0.0682839506423185,0.0
sim_raptor_glider_3dof,raptor_glider_3dof,0.02,-14.761372444251023,0.0,-0.0038514275020179725,11.871212923396055,0.0,-0.46342970468082284,0.0,0.0,0.0,-44.305337571041086,-0.773274016822214,-0.032544503653263716,0.0,0.0,0.0,0.0,0.0,-0.012538766562025539,-0.7184184043038245,0.0,0.0,11.88025518933773,0.0038514275020179725,0.03491214901800737,-0.03901829614474646,-2.2355836928855433,0.0,0.0,0.026479529582720922,1.5171652885817186,-5.285650931854404,0.0,-17.07316871359337,11.876090420238329,0.0,-0.31454680750162617,0.0,9.119480296569328,0.0,0.0,-0.773274016822214,0.0,-0.12841749763448834,0.3490658503988659,1.0,0.14,0.14,0.75,0.08726646259971647,5.0,0.184,0.175,0.174,0.0,0.0,0.0,-0.00395571483453444,0.0,0.004380767781800737,0.0,6.0614849021398465,0.0,-0.5199941909130819,0.0,0.1470788164114703,0.0,-3.6929122760095456,0.0,-0.03233717311263533,0.0,-0.00789975416194384,0.43395264912467735,0.023707259562211234,0.09897679990162457,0.0,0.0,0.0,0.40633512666881233,0.09897679990162457,0.0,0.0,0.04053301915029975,0.0,0.0,-0.004556230511456921,0.0,1.197896112614591,0.0,4.917791534370858,0.0,0.06867880611346362,0.0,86.44854968936507,-1.3888195353092696,0.0,-4.867320512406201,0.0,0.06867880611346362,0.0
sim_raptor_glider_3dof,raptor_glider_3dof,0.02,-14.761372444251023,0.0,-0.0038514275020179725,11.871212923396055,0.0,-0.46342970468082284,0.0,0.0,0.0,-44.305337571041086,-0.773274016822214,-0.032544503653263716,0.0,0.0,0.0,0.0,0.0,-0.012538766562025539,-0.7184184043038245,0.0,0.0,11.88025518933773,0.0038514275020179725,0.03491214901800737,-0.03901829614474646,-2.2355836928855433,0.0,0.0,0.026479529582720922,1.5171652885817186,-5.300856730940247,0.0,-17.03270776422913,11.876090420238329,0.0,-0.31454680750162617,0.0,9.57693814076893,0.0,0.0,-0.773274016822214,0.0,-0.13184937507944727,0.3490658503988659,1.0,0.14,0.14,0.75,0.08726646259971647,5.0,0.184,0.175,0.174,0.0,0.0,0.0,-0.003182514227673299,0.0,0.004525481655638793,0.0,6.060376906593741,0.0,-0.519901926085755,0.0,0.1470446002066431,0.0,-3.6886587527835863,0.0,-0.032548714802293974,0.0,-0.007975191771061105,0.4330424237126719,0.025759885673939997,0.09935790595415483,0.0,0.0,0.0,0.40542994953992056,0.09935790595415483,0.0,0.0,0.0425662652297252,0.0,0.0,-0.004556230511456921,0.0,1.2025085617872622,0.0,4.906836359370204,0.0,0.0721239211381308,0.0,86.44854968936507,-1.3930011300578764,0.0,-4.856193751331035,0.0,0.0721239211381308,0.0
sim_raptor_glider_3dof,raptor_glider_3dof,0.021,-14.74949877938356,0.0,-0.00416988083492515,11.865910861818396,0.0,-0.48026636542061196,0.0,0.0,0.0,-43.75527430329052,-0.7636736017056875,-0.032152982601060115,0.0,0.0,0.0,0.0,0.0,-0.013307230576095914,-0.7624481490177389,0.0,0.0,11.875626146118533,0.00416988083492515,0.03489854578776494,-0.04045238278714971,-2.3177508049513365,0.0,0.0,0.027145152211053795,1.5553026559335974,-5.303190043580988,0.0,-16.641867177154275,11.871251082062354,0.0,-0.3223260911056781,0.0,9.623628788633972,0.0,0.0,-0.7636736017056875,0.0,-0.13184937507944727,0.3490658503988659,1.0,0.14,0.14,0.75,0.08726646259971647,5.0,0.184,0.175,0.174,0.0,0.0,0.0,-0.0032064830268545724,0.0,0.004525764899781029,0.0,6.0603576713937315,0.0,-0.5200487958729513,0.0,0.14537667612746702,0.0,-3.6875504452141428,0.0,-0.03212626144089946,0.0,-0.007848569619551366,0.42696874391155304,0.026207937493591946,0.09913756285121957,0.0,0.0,0.0,0.3996885434445197,0.09913756285121957,0.0,0.0,0.042807141836362195,0.0,0.0,-0.004501417564148416,0.0,1.198906959240878,0.0,4.8335803552446315,0.0,0.07247554840720245,0.0,86.3811948886284,-1.3934026699346929,0.0,-4.781140653331786,0.0,0.07247554840720245,0.0
sim_raptor_glider_3dof,raptor_glider_3dof,0.022,-14.737629944257876,0.0,-0.004495981844998911,11.860607012615743,0.0,-0.4967153503742311,0.0,0.0,0.0,-43.20260819924997,-0.7540277585260104,-0.031759225600409564,0.0,0.0,0.0,0.0,0.0,-0.014066084337909053,-0.8059272668372577,0.0,0.0,11.871003531589363,0.004495981844998911,0.03488496144932076,-0.04185496248567811,-2.398112702107745,0.0,0.0,0.027788878147769057,1.5921854352704874,-5.304351410569847,0.0,-16.256916330852533,11.866420302986755,0.0,-0.3298394152778523,0.0,9.667698407035864,0.0,0.0,-0.7540277585260104,0.0,-0.13184937507944727,0.3490658503988659,1.0,0.14,0.14,0.75,0.08726646259971647,5.0,0.184,0.175,0.174,0.0,0.0,0.0,-0.003229962523414217,0.0,0.00452590594789404,0.0,6.06032952513413,0.0,-0.5201899877995559,0.0,0.14374478870122562,0.0,-3.686459165468719,0.0,-0.03171332742201618,0.0,-0.007726132408249546,0.4210236836196471,0.026645594539928038,0.09892643949246209,0.0,0.0,0.0,0.394077691455429,0.09892643949246209,0.0,0.0,0.04303666690232265,0.0,0.0,-0.00444629158405734,0.0,1.1954225813314836,0.0,4.76201684384584,0.0,0.0728074367033871,0.0,86.31395982311622,-1.39363148804011,0.0,-4.707826552090872,0.0,0.0728074367033871,0.0
sim_raptor_glider_3dof,raptor_glider_3dof,0.023,-14.725765934922812,0.0,-0.004829448925444697,11.855302637323112,0.0,-0.5127826982263158,0.0,0.0,0.0,-42.6475003261669,-0.744339298436968,-0.031363349342439624,0.0,0.0,0.0,0.0,0.0,-0.014815267997930563,-0.848852328636654,0.0,0.0,11.866387264796332,0.004829448925444697,0.034871395764778074,-0.043226503002937795,-2.476696185177915,0.0,0.0,0.02841123500500723,1.6278438565412607,-5.3043962865841765,0.0,-15.87780923036663,11.861598323282374,0.0,-0.33709336277262353,0.0,9.709209200866926,0.0,0.0,-0.744339298436968,0.0,-0.13184937507944727,0.3490658503988659,1.0,0.14,0.14,0.75,0.08726646259971647,5.0,0.184,0.175,0.174,0.0,0.0,0.0,-0.003252962469387743,0.0,0.004525907361180875,0.0,6.060293070039137,0.0,-0.5203257148878419,0.0,0.14214844256774437,0.0,-3.685385041442589,0.0,-0.03130975574374548,0.0,-0.007607746193669616,0.4152059049401872,0.027073048102953395,0.09872420293920996,0.0,0.0,0.0,0.38859595252593876,0.09872420293920996,0.0,0.0,0.04325509069521653,0.0,0.0,-0.004390868907941548,0.0,1.1920511192266317,0.0,4.692124386364697,0.0,0.07312005449172883,0.0,86.2468432068451,-1.3936985715870187,0.0,-4.636229224221346,0.0,0.07312005449172883,0.0
sim_raptor_glider_3dof,raptor_glider_3dof,0.024,-14.71390674419898,0.0,-0.0051700699829547135,11.84999863314432,0.0,-0.5284732225590579,0.0,0.0,0.0,-42.090070519745666,-0.7346103129661629,-0.030965441278542047,0.0,0.0,0.0,0.0,0.0,-0.015554747280909982,-0.8912213705887351,0.0,0.0,11.861776913788432,0.0051700699829547135,0.03485784746477543,-0.04456737077874762,-2.5535222496169117,0.0,0.0,0.029012623497837634,1.6623008790281764,-5.303376437453334,0.0,-15.504508170694717,11.856785043441027,0.0,-0.3440929905088904,0.0,9.748211572394936,0.0,0.0,-0.7346103129661629,0.0,-0.13184937507944727,0.3490658503988659,1.0,0.14,0.14,0.75,0.08726646259971647,5.0,0.184,0.175,0.174,0.0,0.0,0.0,-0.003275490438737273,0.0,0.0045257721933016585,0.0,6.060248887022163,0.0,-0.5204561731291334,0.0,0.14058725754183565,0.0,-3.684328259963714,0.0,-0.03091542031626353,0.0,-0.007493289540816552,0.4095144436087805,0.027490455262942626,0.09853054334871322,0.0,0.0,0.0,0.38324228426255963,0.09853054334871322,0.0,0.0,0.04346261431681174,0.0,0.0,-0.0043351617789958875,0.0,1.1887884859814966,0.0,4.623886151324349,0.0,0.07341378135170627,0.0,86.17983865558531,-1.3936143015722426,0.0,-4.566331173191952,0.0,0.07341378135170627,0.0
sim_raptor_glider_3dof,raptor_glider_3dof,0.025,-14.702052362067848,0.0,-0.005517559697464656,11.844696188359823,0.0,-0.5437934749275227,0.0,0.0,0.0,-41.5304801651773,-0.7248436188165424,-0.030565618415856123,0.0,0.0,0.0,0.0,0.0,-0.016284477387204847,-0.9330318258630638,0.0,0.0,11.85717247651899,0.005517559697464656,0.03484431654329833,-0.04587807805213985,-2.6286202445593863,0.0,0.0,0.029593600664935004,1.6955884186963224,-5.301344432340138,0.0,-15.136954394006413,11.85198071106788,0.0,-0.3508452114457273,0.0,9.78476933366842,0.0,0.0,-0.7248436188165424,0.0,-0.13184937507944727,0.3490658503988659,1.0,0.14,0.14,0.75,0.08726646259971647,5.0,0.184,0.175,0.174,0.0,0.0,0.0,-0.003297556017716325,0.0,0.004525503921621061,0.0,6.060197528978149,0.0,-0.5205815659580306,0.0,0.13906068107194086,0.0,-3.683288873275888,0.0,-0.030530153211816055,0.0,-0.007382632201197257,0.40394766423339196,0.02789801599669514,0.09834513783228953,0.0,0.0,0.0,0.3780149483060275,0.09834513783228953,0.0,0.0,0.04365949630692387,0.0,0.0,-0.004279186578219857,0.0,1.185630536634192,0.0,4.557277318377699,0.0,0.07368909785185687,0.0,86.11294603937743,-1.393388786404279,0.0,-4.498106714599168,0.0,0.07368909785185687,0.0
sim_raptor_glider_3dof,raptor_glider_3dof,0.026000000000000002,-14.690202779778211,0.0,-0.005871680400346184,11.83939626065466,0.0,-0.5587490255774914,0.0,0.0,0.0,-40.968863903702385,-0.7150415659210637,-0.030163978792051373,0.0,0.0,0.0,0.0,0.0,-0.017004422942515498,-0.9742816676615665,0.0,0.0,11.852573741191714,0.005871680400346184,0.034830802377947376,-0.04715905582929873,-2.7020148648406397,0.0,0.0,0.030154632886783234,1.7277331971790733,-5.298349805942254,0.0,-14.775097070920337,11.84718536569554,0.0,-0.35735584679249033,0.0,9.818937372038285,0.0,0.0,-0.7150415659210637,0.0,-0.13184937507944727,0.3490658503988659,1.0,0.14,0.14,0.75,0.08726646259971647,5.0,0.184,0.175,0.174,0.0,0.0,0.0,-0.0033191670361513536,0.0,0.004525106399360181,0.0,6.060139527823624,0.0,-0.5207020821012684,0.0,0.13756825263805256,0.0,-3.682266977745534,0.0,-0.03015381140664798,0.0,-0.007275654546796963,0.3985042271267701,0.02829590256998905,0.09816768367649228,0.0,0.0,0.0,0.37291251829958993,0.09816768367649228,0.0,0.0,0.043845957793263286,0.0,0.0,-0.004222957030887192,0.0,1.1825733403059246,0.0,4.49227674415469,0.0,0.07394641734882032,0.0,86.04616218299701,-1.3930315893507041,0.0,-4.431533937853396,0.0,0.07394641734882032,0.0
sim_raptor_glider_3dof,raptor_glider_3dof,0.027,-14.678357988318082,0.0,-0.00623219324205253,11.834099790219469,0.0,-0.573345546103501,0.0,0.0,0.0,-40.40535719537015,-0.7052065185035908,-0.029760621057403788,0.0,0.0,0.0,0.0,0.0,-0.017714549684894366,-1.0149689329192495,0.0,0.0,11.847980543540286,0.00623219324205253,0.034817304485998075,-0.04841074426384427,-2.773731329405436,0.0,0.0,0.030696194578949905,1.7587623964861867,-5.294440645533137,0.0,-14.41888207228923,11.842399064306491,0.0,-0.3636308042807881,0.0,9.850770628044398,0.0,0.0,-0.7052065185035908,0.0,-0.13184937507944727,0.3490658503988659,1.0,0.14,0.14,0.75,0.08726646259971647,5.0,0.184,0.175,0.174,0.0,0.0,0.0,-0.003340331121056205,0.0,0.004524583804918569,0.0,6.060075392655442,0.0,-0.5208179047180547,0.0,0.13610949867741362,0.0,-3.6812626436314924,0.0,-0.0297862501385569,0.0,-0.007172239673656574,0.3931827083303755,0.028684287823556705,0.09799788495986625,0.0,0.0,0.0,0.36793348330275927,0.09799788495986625,0.0,0.0,0.044022220580541775,0.0,0.0,-0.004166486948036531,0.0,1.1796130697852043,0.0,4.4288623769102555,0.0,0.07418615359980237,0.0,85.97948460595416,-1.3925518563404102,0.0,-4.366590005418657,0.0,0.07418615359980237,0.0
sim_raptor_glider_3dof,raptor_glider_3dof,0.028,-14.666517978621789,0.0,-0.006598865400639853,11.828807668684375,0.0,-0.5875886517657791,0.0,0.0,0.0,-39.840092300417716,-0.6953407849407309,-0.029355641620935263,0.0,0.0,0.0,0.0,0.0,-0.018414825754090446,-1.055091796178196,0.0,0.0,11.843392727019154,0.006598865400639853,0.03480382240741471,-0.04963357950002917,-2.843794627478714,0.0,0.0,0.031218753745938722,1.7887028313005178,-5.2896634013347406,0.0,-14.068253771549765,11.837621847778967,0.0,-0.3696759058909357,0.0,9.880322825038311,0.0,0.0,-0.6953407849407309,0.0,-0.13184937507944727,0.3490658503988659,1.0,0.14,0.14,0.75,0.08726646259971647,5.0,0.184,0.175,0.174,0.0,0.0,0.0,-0.0033610555107426994,0.0,0.0045239405972473555,0.0,6.060005610822263,0.0,-0.5209292103334756,0.0,0.1346839480228666,0.0,-3.6802759260589903,0.0,-0.02942732672802482,0.0,-0.007072274418911384,0.38798165869512147,0.02906334119474075,0.0978354543490112,0.0,0.0,0.0,0.3630763092846197,0.0978354543490112,0.0,0.0,0.04418850175595682,0.0,0.0,-0.004109789826930938,0.0,1.1767460147256508,0.0,4.367011967541316,0.0,0.07440871119536352,0.0,85.91291094358515,-1.3919583127327733,0.0,-4.303251882406596,0.0,0.07440871119536352,0.0
sim_raptor_glider_3dof,raptor_glider_3dof,0.029,-14.654682741588132,0.0,-0.006971470202368925,11.823520739049584,0.0,-0.6014838981103238,0.0,0.0,0.0,-39.27319823906685,-0.6854466170601556,-0.028949134622339858,0.0,0.0,0.0,0.0,0.0,-0.01910522171822673,-1.0946485711160705,0.0,0.0,11.838810140652718,0.006971470202368925,0.03479035569852983,-0.050827993393957736,-2.9122295025926075,0.0,0.0,0.03172277167573101,1.817580931476537,-5.284062919379505,0.0,-13.723155227312349,11.83285374016945,0.0,-0.3754968843805501,0.0,9.907646476645336,0.0,0.0,-0.6854466170601556,0.0,-0.13184937507944727,0.3490658503988659,1.0,0.14,0.14,0.75,0.08726646259971647,5.0,0.184,0.175,0.174,0.0,0.0,0.0,-0.0033813470827514466,0.0,0.004523181473968393,0.0,6.059930648608126,0.0,-0.5210361690314846,0.0,0.13329113234459275,0.0,-3.6793068658659505,0.0,-0.029076900613155546,0.0,-0.006975649273733091,0.38289960812750407,0.029433228745112873,0.09768011300649641,0.0,0.0,0.0,0.3583394433867001,0.09768011300649641,0.0,0.0,0.044345013713872256,0.0,0.0,-0.004052878847127581,0.0,1.1739685796277977,0.0,4.306703119286131,0.0,0.07461448561561602,0.0,85.84643891563243,-1.3912592762895566,0.0,-4.241496388040482,0.0,0.07461448561561602,0.0
sim_raptor_glider_3dof,raptor_glider_3dof,0.03,-14.6428522681011,0.0,-0.007349786311295714,11.818239803150789,0.0,-0.6150367863424814,0.0,0.0,0.0,-38.70480124409426,-0.6755262180394423,-0.02854119224752816,0.0,0.0,0.0,0.0,0.0,-0.019785710229946202,-1.133637690844735,0.0,0.0,11.834232644887969,0.007349786311295714,0.034776903949243196,-0.05199441393998789,-2.9790604770174802,0.0,0.0,0.03220870371004168,1.8454227861727448,-5.277682496275226,0.0,-13.38352833762287,11.82809475554463,0.0,-0.38109939279631233,0.0,9.932792993961804,0.0,0.0,-0.6755262180394423,0.0,-0.13184937507944727,0.3490658503988659,1.0,0.14,0.14,0.75,0.08726646259971647,5.0,0.184,0.175,0.174,0.0,0.0,0.0,-0.0034012123915772526,0.0,0.004522311332154475,0.0,6.05985095186105,0.0,-0.5211389447055274,0.0,0.1319305857642146,0.0,-3.6783554898626076,0.0,-0.028734833179876306,0.0,-0.006882258241427685,0.3779350666526444,0.02979411340113717,0.09753159040167354,0.0,0.0,0.0,0.35372131471146384,0.09753159040167354,0.0,0.0,0.044491964567865874,0.0,0.0,-0.003995766914653943,0.0,1.1712772822545987,0.0,4.247913301367204,0.0,0.07480386403752635,0.0,85.78006641092365,-1.390462671891957,0.0,-4.18130020997455,0.0,0.07480386403752635,0.0
sim_raptor_glider_3dof,raptor_glider_3dof,0.03,-14.6428522681011,0.0,-0.007349786311295714,11.818239803150789,0.0,-0.6150367863424814,0.0,0.0,0.0,-38.70480124409426,-0.6755262180394423,-0.02854119224752816,0.0,0.0,0.0,0.0,0.0,-0.019785710229946202,-1.133637690844735,0.0,0.0,11.834232644887969,0.007349786311295714,0.034776903949243196,-0.05199441393998789,-2.9790604770174802,0.0,0.0,0.03220870371004168,1.8454227861727448,-5.2879320694364935,0.0,-13.356560624555314,11.82809475554463,0.0,-0.38109939279631233,0.0,10.237353409730405,0.0,0.0,-0.6755262180394423,0.0,-0.13415548714804199,0.3490658503988659,1.0,0.14,0.14,0.75,0.08726646259971647,5.0,0.184,0.175,0.174,0.0,0.0,0.0,-0.002868896483149823,0.0,0.0046292649440669185,0.0,6.059086753404073,0.0,-0.5210723888596329,0.0,0.13190892431405657,0.0,-3.675410675271239,0.0,-0.028879541140039922,0.0,-0.006937127447286998,0.37732750936642023,0.031170097814754796,0.09779807311346919,0.0,0.0,0.0,0.35311681098415026,0.09779807311346919,0.0,0.0,0.04585618218876952,0.0,0.0,-0.003995766914653943,0.0,1.1744775289147256,0.0,4.240653689584758,0.0,0.07709750852867968,0.0,85.78006641092365,-1.3932813045113057,0.0,-4.173884088880972,0.0,0.07709750852867968,0.0
sim_raptor_glider_3dof,raptor_glider_3dof,0.031,-14.631026566700793,0.0,-0.007733582468066046,11.812955547278852,0.0,-0.6282239734869519,0.0,0.0,0.0,-38.117638230933906,-0.6652782902138633,-0.028119106372890175,0.0,0.0,0.0,0.0,0.0,-0.02045608451959264,-1.1720473083355565,0.0,0.0,11.82964852068099,0.007733582468066046,0.03476343272115252,-0.05313088023420333,-3.0441751992348975,0.0,0.0,0.03267479571461069,1.8721278908993413,-5.280614092184703,0.0,-13.019683325437757,11.823334166070822,0.0,-0.3864625729256388,0.0,10.258376669919276,0.0,0.0,-0.6652782902138633,0.0,-0.13415548714804199,0.3490658503988659,1.0,0.14,0.14,0.75,0.08726646259971647,5.0,0.184,0.175,0.174,0.0,0.0,0.0,-0.002886535155544352,0.0,0.0046287981235705235,0.0,6.059002017668116,0.0,-0.5211704964613069,0.0,0.1305831027057223,0.0,-3.674474785191973,0.0,-0.02854682867421945,0.0,-0.00684726902686925,0.3724896997278418,0.03152075853423955,0.09765709185492812,0.0,0.0,0.0,0.34863737861307054,0.09765709185492812,0.0,0.0,0.04598597116314377,0.0,0.0,-0.003936674892204625,0.0,1.1718760487340067,0.0,4.183616222127443,0.0,0.07725583470116207,0.0,85.71362351929896,-1.3923970478437149,0.0,-4.1154791493579985,0.0,0.07725583470116207,0.0
sim_raptor_glider_3dof,raptor_glider_3dof,0.032,-14.619205608277362,0.0,-0.008122623707070084,11.807678941881205,0.0,-0.6410779203150402,0.0,0.0,0.0,-37.529333662818864,-0.6550104384957326,-0.027695839421739383,0.0,0.0,0.0,0.0,0.0,-0.021116228891419533,-1.2098707947105523,0.0,0.0,11.825069255376913,0.008122623707070084,0.03474997577177382,-0.054240051746696535,-3.1077260456569005,0.0,0.0,0.033123822855277,1.897855250946348,-5.272596257733781,0.0,-12.68821051740993,11.818582688573384,0.0,-0.39161987668378695,0.0,10.27732651117799,0.0,0.0,-0.6550104384957326,0.0,-0.13415548714804199,0.3490658503988659,1.0,0.14,0.14,0.75,0.08726646259971647,5.0,0.184,0.175,0.174,0.0,0.0,0.0,-0.002903797168604361,0.0,0.004628224514544379,0.0,6.058913440851296,0.0,-0.5212647318464116,0.0,0.12928879888467787,0.0,-3.6735568366383387,0.0,-0.028222235406259295,0.0,-0.006760442284898113,0.3677669908689887,0.03186269425121447,0.09752240035721754,0.0,0.0,0.0,0.34427405374706366,0.09752240035721754,0.0,0.0,0.04610660788679804,0.0,0.0,-0.0038774175190435145,0.0,1.1693539218451394,0.0,4.12805892250435,0.0,0.07739854595568144,0.0,85.6472767547236,-1.3914305914168312,0.0,-4.058593348867535,0.0,0.07739854595568144,0.0
sim_raptor_glider_3dof,raptor_glider_3dof,0.033,-14.607389396794652,0.0,-0.008516721767742184,11.80241068469265,0.0,-0.6536030717979271,0.0,0.0,0.0,-36.94000155669563,-0.6447246528561694,-0.027271475062401143,0.0,0.0,0.0,0.0,0.0,-0.021766096451232293,-1.2471054631302891,0.0,0.0,11.820494699698946,0.008516721767742184,0.03473653266243188,-0.055322269105590544,-3.1697325328373216,0.0,0.0,0.03355617265435825,1.9226270697070327,-5.263917423965246,0.0,-12.362094778743792,11.813840286794889,0.0,-0.39657612599974096,0.0,10.294243648031511,0.0,0.0,-0.6447246528561694,0.0,-0.13415548714804199,0.3490658503988659,1.0,0.14,0.14,0.75,0.08726646259971647,5.0,0.184,0.175,0.174,0.0,0.0,0.0,-0.0029206816468137684,0.0,0.0046275551047619224,0.0,6.058821425955998,0.0,-0.5213552324305403,0.0,0.12802564396905236,0.0,-3.6726568780311997,0.0,-0.0279056504315972,0.0,-0.006676557597697208,0.3631581710736839,0.03219602681092859,0.0973937577835899,0.0,0.0,0.0,0.34002555143411384,0.0973937577835899,0.0,0.0,0.04621825467560634,0.0,0.0,-0.003818006508736161,0.0,1.166908051406254,0.0,4.07396287690188,0.0,0.07752594891332532,0.0,85.58102387388386,-1.3903887377169941,0.0,-4.003207099419305,0.0,0.07752594891332532,0.0
sim_raptor_glider_3dof,raptor_glider_3dof,0.034,-14.59557792431543,0.0,-0.008915701792603106,11.797151341790734,0.0,-0.6658041160043706,0.0,0.0,0.0,-36.349743361866956,-0.634422703919531,-0.026846087957328166,0.0,0.0,0.0,0.0,0.0,-0.022405672161427803,-1.283750452003574,0.0,0.0,11.815924631699513,0.008915701792603106,0.03472310274089604,-0.05637789455086739,-3.2302154155983036,0.0,0.0,0.03397222238943959,1.9464649635947293,-5.25461486846201,0.0,-12.04128109066741,11.809106837866947,0.0,-0.40133601115195405,0.0,10.309168902426894,0.0,0.0,-0.634422703919531,0.0,-0.13415548714804199,0.3490658503988659,1.0,0.14,0.14,0.75,0.08726646259971647,5.0,0.184,0.175,0.174,0.0,0.0,0.0,-0.0029371885661842972,0.0,0.004626800171829023,0.0,6.058726356074378,0.0,-0.5214421331090078,0.0,0.12679324215765353,0.0,-3.6717749260799923,0.0,-0.027596957181354482,0.0,-0.006595526218958705,0.3586619101342697,0.03252088450330595,0.0972709278131172,0.0,0.0,0.0,0.33589047604123196,0.0972709278131172,0.0,0.0,0.04632107547081374,0.0,0.0,-0.003758452314025943,0.0,1.1645353899459454,0.0,4.021307859295005,0.0,0.07763835100417694,0.0,85.51486158502138,-1.389277951085056,0.0,-3.949299475640362,0.0,0.07763835100417694,0.0
sim_raptor_glider_3dof,raptor_glider_3dof,0.034999999999999996,-14.58377118045056,0.0,-0.009319338740881151,11.791901621694606,0.0,-0.6776871623924782,0.0,0.0,0.0,-35.75869008882053,-0.6241068782501817,-0.026419774094717175,0.0,0.0,0.0,0.0,0.0,-0.0230349381312878,-1.3198047362677585,0.0,0.0,11.81135909816459,0.009319338740881151,0.034709686144654826,-0.05740741028269122,-3.289202321974131,0.0,0.0,0.03437247215140342,1.9693975857063726,-5.244725929963952,0.0,-11.725696840556187,11.804382420532413,0.0,-0.40590567330452076,0.0,10.322153921407642,0.0,0.0,-0.6241068782501817,0.0,-0.13415548714804199,0.3490658503988659,1.0,0.14,0.14,0.75,0.08726646259971647,5.0,0.184,0.175,0.174,0.0,0.0,0.0,-0.0029533202939241443,0.0,0.004625969192618356,0.0,6.058628584722176,0.0,-0.521525574144727,0.0,0.12559105592570532,0.0,-3.6709108830176493,0.0,-0.027296004658085054,0.0,-0.006517252852203786,0.35427634232774524,0.0328374322812972,0.09715366774538856,0.0,0.0,0.0,0.3318668785332434,0.09715366774538856,0.0,0.0,0.04641528135646031,0.0,0.0,-0.0036987683732604046,0.0,1.1622328760675373,0.0,3.9700672723964696,0.0,0.07773614118212095,0.0,85.44879048970802,-1.3881043852923691,0.0,-3.8968430326480767,0.0,0.07773614118212095,0.0
sim_raptor_glider_3dof,raptor_glider_3dof,0.036,-14.571969156508047,0.0,-0.009727452053598104,11.786662069994232,0.0,-0.689257220644312,0.0,0.0,0.0,-35.1669475399701,-0.6137790224485985,-0.02599261137893983,0.0,0.0,0.0,0.0,0.0,-0.02365388208100974,-1.3552676123419831,0.0,0.0,11.806797968477781,0.009727452053598104,0.03469628248986976,-0.058411206926994697,-3.346715633182115,0.0,0.0,0.034757324845984955,1.991448020840132,-5.234285589325962,0.0,-11.41528098923152,11.799666957582728,0.0,-0.41029009076680706,0.0,10.333241531524537,0.0,0.0,-0.6137790224485985,0.0,-0.13415548714804199,0.3490658503988659,1.0,0.14,0.14,0.75,0.08726646259971647,5.0,0.184,0.175,0.174,0.0,0.0,0.0,-0.0029690782462186796,0.0,0.004625071029174339,0.0,6.058528455107883,0.0,-0.521605683780697,0.0,0.12441865305217396,0.0,-3.6700647134801336,0.0,-0.027002669267788923,0.0,-0.006441651867880742,0.34999996936002514,0.03314580661066931,0.09704175315180555,0.0,0.0,0.0,0.3279531927673636,0.09704175315180555,0.0,0.0,0.04650104582729621,0.0,0.0,-0.0036389655930515767,0.0,1.1599976412882695,0.0,3.920219057336979,0.0,0.0778196419739113,0.0,85.38280862271489,-1.386873861596473,0.0,-3.845814982201155,0.0,0.0778196419739113,0.0
sim_raptor_glider_3dof,raptor_glider_3dof,0.037,-14.560171843575173,0.0,-0.010139859286570421,11.78143322021801,0.0,-0.7005194207819193,0.0,0.0,0.0,-34.57462303279603,-0.6034410095581582,-0.025564678854146188,0.0,0.0,0.0,0.0,0.0,-0.02426249294358866,-1.3901384461335715,0.0,0.0,11.80224115078781,0.010139859286570421,0.03468289150662026,-0.05938968588678784,-3.4027783479206133,0.0,0.0,0.03512719294319919,2.012639901787042,-5.223327712307505,0.0,-11.109970127768486,11.794960390654063,0.0,-0.4144943476706453,0.0,10.342475265329249,0.0,0.0,-0.6034410095581582,0.0,-0.13415548714804199,0.3490658503988659,1.0,0.14,0.14,0.75,0.08726646259971647,5.0,0.184,0.175,0.174,0.0,0.0,0.0,-0.0029844644509166166,0.0,0.004624113903666398,0.0,6.058426291954513,0.0,-0.5216825869068444,0.0,0.12327558723746009,0.0,-3.66923635977737,0.0,-0.026716824847484704,0.0,-0.0063686393028854265,0.34583122632927327,0.03344614696348046,0.09693496558421509,0.0,0.0,0.0,0.32414778517712667,0.09693496558421509,0.0,0.0,0.04657854584835354,0.0,0.0,-0.0035790550395804668,0.0,1.1578269050296104,0.0,3.87174044599806,0.0,0.07788918122319458,0.0,85.31691458226143,-1.385591899699064,0.0,-3.796191816897039,0.0,0.07788918122319458,0.0
sim_raptor_glider_3dof,raptor_glider_3dof,0.038,-14.548379232783601,0.0,-0.010556382482174258,11.776215575468218,0.0,-0.711478839836168,0.0,0.0,0.0,-33.98182170533757,-0.593094674583815,-0.025136054043052768,0.0,0.0,0.0,0.0,0.0,-0.024860761368498525,-1.4244167018968463,0.0,0.0,11.79768856257169,0.010556382482174258,0.03466951295239851,-0.06034324478598177,-3.457413248361566,0.0,0.0,0.035482483417483245,2.03299654646472,-5.211884918378683,0.0,-10.809700574080626,11.790262657669667,0.0,-0.4185234552507886,0.0,10.349898016952043,0.0,0.0,-0.593094674583815,0.0,-0.13415548714804199,0.3490658503988659,1.0,0.14,0.14,0.75,0.08726646259971647,5.0,0.184,0.175,0.174,0.0,0.0,0.0,-0.0029994812873147107,0.0,0.004623105446320762,0.0,6.058322403391021,0.0,-0.5217564039858267,0.0,0.12216141517802405,0.0,-3.6684257544844137,0.0,-0.026438346890703845,0.0,-0.006298133901766997,0.34176854546049457,0.03373859131379906,0.09683309410749191,0.0,0.0,0.0,0.3204490207526322,0.09683309410749191,0.0,0.0,0.04664795603626962,0.0,0.0,-0.0035190475660273877,0.0,1.15571798676897,0.0,3.8246087305152656,0.0,0.07794508196566584,0.0,85.25110710350128,-1.3842637269526208,0.0,-3.747950098482923,0.0,0.07794508196566584,0.0
sim_raptor_glider_3dof,raptor_glider_3dof,0.039,-14.536591315338423,0.0,-0.01097684931711656,11.771009602483257,0.0,-0.7221404827690016,0.0,0.0,0.0,-33.38864593306146,-0.5827418043145367,-0.02470681253181817,0.0,0.0,0.0,0.0,0.0,-0.025448680063933762,-1.4581019618421227,0.0,0.0,11.793140122062779,0.01097684931711656,0.034656146586919324,-0.06127227588485393,-3.5106428093633415,0.0,0.0,0.035823595820920165,2.052540847521219,-5.199988591216016,0.0,-10.514408617271222,11.785573685941067,0.0,-0.4223823290105393,0.0,10.355551873190585,0.0,0.0,-0.5827418043145367,0.0,-0.13415548714804199,0.3490658503988659,1.0,0.14,0.14,0.75,0.08726646259971647,5.0,0.184,0.175,0.174,0.0,0.0,0.0,-0.003014131430306696,0.0,0.004622052733417414,0.0,6.058217081734814,0.0,-0.5218272510638239,0.0,0.12107569849691294,0.0,-3.667632822242241,0.0,-0.026167112979751574,0.0,-0.006230057152663491,0.3378103644820219,0.034023275632284126,0.09673593528505588,0.0,0.0,0.0,0.31685527176185463,0.09673593528505588,0.0,0.0,0.046709447952739645,0.0,0.0,-0.0034589537544545443,0.0,1.1536683037948372,0.0,3.778801361094835,0.0,0.0779876611569983,0.0,85.18538493442216,-1.3828942887508218,0.0,-3.701066558160417,0.0,0.0779876611569983,0.0
sim_raptor_glider_3dof,raptor_glider_3dof,0.04,-14.5248080825162,0.0,-0.011401091965159586,11.765815739709518,0.0,-0.7325092955169974,0.0,0.0,0.0,-32.795195885332106,-0.572384147035542,-0.02427702836293788,0.0,0.0,0.0,0.0,0.0,-0.026026243365242466,-1.491193901408754,0.0,0.0,11.788595755594262,0.011401091965159586,0.034642792193700256,-0.06217716714094006,-3.5624892592553685,0.0,0.0,0.03615092377569759,2.0712953578466147,-5.18766893697166,0.0,-10.224030505530644,11.780893399725347,0.0,-0.4260758067795107,0.0,10.359478243723947,0.0,0.0,-0.572384147035542,0.0,-0.13415548714804199,0.3490658503988659,1.0,0.14,0.14,0.75,0.08726646259971647,5.0,0.184,0.175,0.174,0.0,0.0,0.0,-0.003028417838051108,0.0,0.004620962320704806,0.0,6.0581106039809205,0.0,-0.5218952399864597,0.0,0.1200180025798231,0.0,-3.6668574793068878,0.0,-0.0259030024467069,0.0,-0.006164333127744175,0.3339551236224973,0.034300334195373545,0.09664329287667801,0.0,0.0,0.0,0.31336491440828496,0.09664329287667801,0.0,0.0,0.04676319061929134,0.0,0.0,-0.0033987839708113036,0.0,1.1516753686608352,0.0,3.7342959100850734,0.0,0.07801723065348505,0.0,85.11974694186813,-1.3814882606561034,0.0,-3.6555180596637125,0.0,0.07801723065348505,0.0
sim_raptor_glider_3dof,raptor_glider_3dof,0.04,-14.5248080825162,0.0,-0.011401091965159586,11.765815739709518,0.0,-0.7325092955169974,0.0,0.0,0.0,-32.795195885332106,-0.572384147035542,-0.02427702836293788,0.0,0.0,0.0,0.0,0.0,-0.026026243365242466,-1.491193901408754,0.0,0.0,11.788595755594262,0.011401091965159586,0.034642792193700256,-0.06217716714094006,-3.5624892592553685,0.0,0.0,0.03615092377569759,2.0712953578466147,-5.193248267001984,0.0,-10.20948390194201,11.780893399725347,0.0,-0.4260758067795107,0.0,10.523809948044235,0.0,0.0,-0.572384147035542,0.0,-0.13541132280323698,0.3490658503988659,1.0,0.14,0.14,0.75,0.08726646259971647,5.0,0.184,0.175,0.174,0.0,0.0,0.0,-0.00273361755359713,0.0,0.004683100852588142,0.0,6.057686958759927,0.0,-0.5218571099120086,0.0,0.12000697987331134,0.0,-3.6652211825489656,0.0,-0.025982795098314738,0.0,-0.006195704045095668,0.33362664464760267,0.035047696951769125,0.09679265547869018,0.0,0.0,0.0,0.31303787531197674,0.09679265547869018,0.0,0.0,0.0475049919564946,0.0,0.0,-0.0033987839708113036,0.0,1.1534552876248547,0.0,3.7303986621685747,0.0,0.07925481271872113,0.0,85.11974694186813,-1.3830225764144426,0.0,-3.651517743676838,0.0,0.07925481271872113,0.0
sim_raptor_glider_3dof,raptor_glider_3dof,0.041,-14.513029551753132,0.0,-0.011828945462637392,11.760628970231735,0.0,-0.742573826806465,0.0,0.0,0.0,-32.19219140349761,-0.5618597334232477,-0.023839842137096605,0.0,0.0,0.0,0.0,0.0,-0.026593311817152493,-1.5236845303982158,0.0,0.0,11.784048950327387,0.011828945462637392,0.03462943063365772,-0.0630569475181406,-3.6128969617673876,0.0,0.0,0.03646363570098811,2.089212431369172,-5.180415509100619,0.0,-9.922539802663188,11.776215801829183,0.0,-0.4295940554297813,0.0,10.524990413328267,0.0,0.0,-0.5618597334232477,0.0,-0.13541132280323698,0.3490658503988659,1.0,0.14,0.14,0.75,0.08726646259971647,5.0,0.184,0.175,0.174,0.0,0.0,0.0,-0.0027467922710318546,0.0,0.004682197653118018,0.0,6.057579367919742,0.0,-0.5219220617086471,0.0,0.11897852734638457,0.0,-3.6644627821872486,0.0,-0.0257262650100935,0.0,-0.006132434195924839,0.3298788369517281,0.03531656086313237,0.09670476732447658,0.0,0.0,0.0,0.3096611939307485,0.09670476732447658,0.0,0.0,0.04754699085737774,0.0,0.0,-0.0033375778991935248,0.0,1.1515191600980523,0.0,3.6873135401241255,0.0,0.07926370280277518,0.0,85.05409904193417,-1.3815872785982464,0.0,-3.6074220865974533,0.0,0.07926370280277518,0.0
sim_raptor_glider_3dof,raptor_glider_3dof,0.042,-14.501255670499406,0.0,-0.012260221348273724,11.755455154100316,0.0,-0.7523552933966847,0.0,0.0,0.0,-31.589166985895044,-0.5513349718661616,-0.02340229574889935,0.0,0.0,0.0,0.0,0.0,-0.02714990917599556,-1.5555752099480522,0.0,0.0,11.779506117302443,0.012260221348273724,0.03461608074672321,-0.06391335496257822,-3.6619654938772475,0.0,0.0,0.03676344578658265,2.106390283929195,-5.16721638645442,0.0,-9.640393651548118,11.771546712506051,0.0,-0.43295769175944343,0.0,10.524532474082628,0.0,0.0,-0.5513349718661616,0.0,-0.13541132280323698,0.3490658503988659,1.0,0.14,0.14,0.75,0.08726646259971647,5.0,0.184,0.175,0.174,0.0,0.0,0.0,-0.002759629529110764,0.0,0.004681263442154511,0.0,6.0574711516022495,0.0,-0.5219843748079742,0.0,0.11797723277644663,0.0,-3.6637218325724934,0.0,-0.025476615969735123,0.0,-0.0060713679733658795,0.32623084094305105,0.035578070846826015,0.09662101022213697,0.0,0.0,0.0,0.30638461854982,0.09662101022213697,0.0,0.0,0.047581601108284556,0.0,0.0,-0.003276321404845909,0.0,1.1496349188382344,0.0,3.6454851307185536,0.0,0.07926025406231628,0.0,84.98853378600138,-1.3801242263634557,0.0,-3.5646149027218827,0.0,0.07926025406231628,0.0
sim_raptor_glider_3dof,raptor_glider_3dof,0.043000000000000003,-14.489486454129734,0.0,-0.012694785515601511,11.750294706585999,0.0,-0.7618569903184836,0.0,0.0,0.0,-30.986214813676106,-0.5408114712288893,-0.02296445771759067,0.0,0.0,0.0,0.0,0.0,-0.02769598240619524,-1.5868629013435698,0.0,0.0,11.774967166209853,0.012694785515601511,0.034602742267506696,-0.06474663922685645,-3.709709165355054,0.0,0.0,0.03705065682066121,2.1228462640114842,-5.153677952341829,0.0,-9.363005172169832,11.766886040739156,0.0,-0.4361704593138709,0.0,10.522466930110262,0.0,0.0,-0.5408114712288893,0.0,-0.13541132280323698,0.3490658503988659,1.0,0.14,0.14,0.75,0.08726646259971647,5.0,0.184,0.175,0.174,0.0,0.0,0.0,-0.002772130766576655,0.0,0.004680303594116967,0.0,6.057362560219432,0.0,-0.5220441401186611,0.0,0.1170028196802181,0.0,-3.6629983350674333,0.0,-0.025233768989098685,0.0,-0.0060124457605268975,0.3226816456984872,0.035832317762202526,0.09654122063411084,0.0,0.0,0.0,0.30320707920328854,0.09654122063411084,0.0,0.0,0.047608945616139084,0.0,0.0,-0.0032150240804626946,0.0,1.1478004843417735,0.0,3.604897784381473,0.0,0.07924469845066039,0.0,84.92304980509775,-1.3786374350475463,0.0,-3.523080017595283,0.0,0.07924469845066039,0.0
sim_raptor_glider_3dof,raptor_glider_3dof,0.044,-14.477721895263626,0.0,-0.013132506352387713,11.745147916981308,0.0,-0.7710830965517873,0.0,0.0,0.0,-30.38341542778362,-0.5302906372160656,-0.022526388097693237,0.0,0.0,0.0,0.0,0.0,-0.028231533204327388,-1.6175477017914044,0.0,0.0,11.770431968859864,0.013132506352387713,0.03458941481930078,-0.06555712605534128,-3.756146639978178,0.0,0.0,0.03732559285101389,2.1385989381867736,-5.139825932148453,0.0,-9.09031724704161,11.762233638539072,0.0,-0.439236344099785,0.0,10.518828447209215,0.0,0.0,-0.5302906372160656,0.0,-0.13541132280323698,0.3490658503988659,1.0,0.14,0.14,0.75,0.08726646259971647,5.0,0.184,0.175,0.174,0.0,0.0,0.0,-0.002784298813291571,0.0,0.00467932301084448,0.0,6.0572538220424805,0.0,-0.5221014509800043,0.0,0.11605492178200201,0.0,-3.6622922157214606,0.0,-0.024997623301691235,0.0,-0.0059556043228073665,0.31922990576075494,0.03607941531285146,0.09646523306581488,0.0,0.0,0.0,0.30012717870453587,0.09646523306581488,0.0,0.0,0.04762916552184181,0.0,0.0,-0.0031536943336770533,0.0,1.1460137528414756,0.0,3.5655319897713227,0.0,0.0792172970359326,0.0,84.85764518612999,-1.3771306382322546,0.0,-3.4827973092079985,0.0,0.0792172970359326,0.0
