name,vehicle,t,north,east,down,u,v,w,p_rad,p_deg,p_hat_div_b,q_deg,q_rad,q_hat_div_c,r_rad,r_deg,r_hat_div_b,phi_rad,phi_deg,theta_rad,theta_deg,psi_rad,psi_deg,speed,altitude,mach,alpha_rad,alpha_deg,beta_rad,beta_deg,gamma_rad,gamma_deg,u_dot,v_dot,w_dot,north_dot,east_dot,down_dot,p_rad_dot,q_rad_dot,r_rad_dot,phi_rad_dot,theta_rad_dot,psi_rad_dot,del_tail_alt_rad,del_tail_splay_rad,DIM_b,DIM_c_bar,DIM_S,DIM_wing_position,DIM_wing_incidence_rad,DIM_wing_incidence_deg,DIM_empennage_length,DIM_nose_length,DIM_tail_length,CDp,CDq,CDr,CYp,CYq,CYr,CLp,CLq,CLr,Clp,Clq,Clr,Cmp,Cmq,Cmr,Cnp,Cnq,Cnr,CL_0,Cm_0,CD_0,Cl_0,CY_0,Cn_0,CL,CD,CY,Cl,Cm,Cn,p_hat,q_hat,r_hat,drag_force_wind,side_force_wind,lift_force_wind,roll_moment_wind,pitch_moment_wind,yaw_moment_wind,qbar,X_total,Y_total,Z_total,L_total,M_total,N_total
sim_raptor_glider_3dof,raptor_glider_3dof,0.0,-15.0,0.0,0.0,12.0,0.0,0.0,0.0,0.0,0.0,0.0,0.0,0.0,0.0,0.0,0.0,0.0,0.0,0.0,0.0,0.0,0.0,12.0,-0.0,0.035264039495724236,0.0,0.0,0.0,0.0,0.0,0.0,-7.487178041450953,0.0,-25.024054441263395,12.0,0.0,0.0,0.0,-89.41363838472799,0.0,0.0,0.0,0.0,0.4363323129985824,0.3490658503988659,1.0,0.14,0.14,0.75,0.08726646259971647,5.0,0.184,0.175,0.174,0.0,0.0,0.0,-0.053153656886407115,0.0,0.055671173493162154,0.0,6.024209384397437,0.0,-0.5269202128147928,0.0,0.19813275846416445,0.0,-3.4552995296441478,0.0,-0.03588346466142729,0.0,-0.029845922084054996,0.7757079658211316,-0.38952171953159265,0.1667455120831285,0.0,0.0,0.0,0.7757079658211316,0.1667455120831285,0.0,0.0,-0.38952171953159265,0.0,0.0,0.0,0.0,2.0589739613990123,0.0,9.578443721347433,0.0,-0.6733741106753866,0.0,88.20001620075907,-2.0589739613990123,0.0,-9.578443721347433,0.0,-0.6733741106753866,0.0
sim_raptor_glider_3dof,raptor_glider_3dof,0.001,-14.988003746590733,0.0,-0.000012415174634177188,11.992502827180262,0.0,-0.02526770405029525,0.0,0.0,0.0,-5.103039651887635,-0.0890648437852645,-0.0037133468875430262,0.0,0.0,0.0,0.0,0.0,-0.000044590487564095195,-0.0025548467438532376,0.0,0.0,11.992529446150822,0.000012415174634177188,0.03524208600355821,-0.002106955238988487,-0.12071964281701804,0.0,0.0,0.002062364751424392,0.1181647960731648,-7.507675599275719,0.0,-25.508550485583747,11.99250394195709,0.0,-0.024732952477174667,0.0,-88.71856693472195,0.0,0.0,-0.0890648437852645,0.0,0.4363323129985824,0.3490658503988659,1.0,0.14,0.14,0.75,0.08726646259971647,5.0,0.184,0.175,0.174,0.0,0.0,0.0,-0.053430186057496054,0.0,0.0554080780660455,0.0,6.0240249874908525,0.0,-0.5274002219771142,0.0,0.1957017793236076,0.0,-3.453669819760639,0.0,-0.03525814560644711,0.0,-0.029499655008724115,0.7671435812705255,-0.38877083359862435,0.165760584735996,0.0,0.0,0.0,0.7640118800492363,0.165760584735996,0.0,0.0,-0.386975379228011,0.0,0.0,-0.0005198685642560238,0.0,2.0442643995802876,0.0,9.422277857722193,0.0,-0.6681395275853911,0.0,88.09023322213056,-2.064112165078258,0.0,-9.417949773357746,0.0,-0.6681395275853911,0.0
sim_raptor_glider_3dof,raptor_glider_3dof,0.002,-14.976014997218163,0.0,-0.000049270492086499364,11.984983638081903,0.0,-0.051011581957007696,0.0,0.0,0.0,-10.166686259086081,-0.1774421492383174,-0.0074026192836820276,0.0,0.0,0.0,0.0,0.0,-0.00017790069037163533,-0.010192958730758345,0.0,0.0,11.985092197667264,0.000049270492086499364,0.03522023038486956,-0.004256265628603735,-0.24386605700559036,0.0,0.0,0.0040783649382321,0.233673098274832,-7.5312069778045,0.0,-25.97647568606275,11.984992523423195,0.0,-0.04887944429772272,0.0,-88.03854836579413,0.0,0.0,-0.1774421492383174,0.0,0.4363323129985824,0.3490658503988659,1.0,0.14,0.14,0.75,0.08726646259971647,5.0,0.184,0.175,0.174,0.0,0.0,0.0,-0.05371000072613438,0.0,0.05518325282971427,0.0,6.023796383437123,0.0,-0.5278990096560925,0.0,0.1932332307470952,0.0,-3.4519868033346692,0.0,-0.03462545852853912,0.0,-0.029153229463314653,0.758374006898808,-0.388063512765844,0.16478068235403653,0.0,0.0,0.0,0.7521311449211472,0.16478068235403653,0.0,0.0,-0.38448598859501065,0.0,0.0,-0.001036366699715484,0.0,2.0296598650783366,0.0,9.264255835778041,0.0,-0.6630183077427956,0.0,87.98100758981425,-2.069072495287059,0.0,-9.25553317577674,0.0,-0.6630183077427956,0.0
sim_raptor_glider_3dof,raptor_glider_3dof,0.003,-14.964033765483153,0.0,-0.00010997650410396534,11.977439408842296,0.0,-0.07721526894416839,0.0,0.0,0.0,-15.191799193026208,-0.2651469152201249,-0.011068367643203196,0.0,0.0,0.0,0.0,0.0,-0.0003992506169425001,-0.022875375318799577,0.0,0.0,11.97768829909372,0.00010997650410396534,0.035198472770559576,-0.006446636600632963,-0.3693650692708328,0.0,0.0,0.006047385983690463,0.3464896939520332,-7.557751963901034,0.0,-26.428240508352538,11.977469282477013,0.0,-0.07243326284374174,0.0,-87.37346069275941,0.0,0.0,-0.2651469152201249,0.0,0.4363323129985824,0.3490658503988659,1.0,0.14,0.14,0.75,0.08726646259971647,5.0,0.184,0.175,0.174,0.0,0.0,0.0,-0.0539933342342998,0.0,0.0549956890768542,0.0,6.023523849844041,0.0,-0.5284156910211553,0.0,0.1907277346999606,0.0,-3.450251759098094,0.0,-0.033984927296559594,0.0,-0.028807107836358457,0.7494038488665931,-0.387399686775176,0.16380724554970857,0.0,0.0,0.0,0.7400699681597184,0.16380724554970857,0.0,0.0,-0.38205327508479314,0.0,0.0,-0.0015495714700484477,0.0,2.015177614704102,0.0,9.104435082498677,0.0,-0.6580095324771711,0.0,87.87233904709669,-2.0738283182350847,0.0,-9.09125486919839,0.0,-0.6580095324771711,0.0
sim_raptor_glider_3dof,raptor_glider_3dof,0.004,-14.95206006146447,0.0,-0.00019393750269191865,11.969867139046595,0.0,-0.10386280993339823,0.0,0.0,0.0,-20.179227607931264,-0.35219396226773997,-0.01471113674262299,0.0,0.0,0.0,0.0,0.0,-0.0007079751977142588,-0.040563990828967035,0.0,0.0,11.970317740549529,0.00019393750269191865,0.03517681313159225,-0.008676805031272569,-0.49714430794979647,0.0,0.0,0.00796882983355831,0.4565803171208294,-7.587282867422961,0.0,-26.864252771312174,11.96993767151242,0.0,-0.09538841555743248,0.0,-86.72306067972036,0.0,0.0,-0.35219396226773997,0.0,0.4363323129985824,0.3490658503988659,1.0,0.14,0.14,0.75,0.08726646259971647,5.0,0.184,0.175,0.174,0.0,0.0,0.0,-0.054280487125545326,0.0,0.054843901706905056,0.0,6.023207997132767,0.0,-0.5289492506950555,0.0,0.18818569052618506,0.0,-3.4484661334741316,0.0,-0.033335929119057396,0.0,-0.028461722112779208,0.7402377623774763,-0.38677875516894367,0.16284159593212236,0.0,0.0,0.0,0.727832609270965,0.16284159593212236,0.0,0.0,-0.37967643521108574,0.0,0.0,-0.0020595591439672187,0.0,2.000833340210975,0.0,8.942873240625298,0.0,-0.6531113699789741,0.0,87.76422654166264,-2.078352616244555,0.0,-8.925175978978858,0.0,-0.6531113699789741,0.0
sim_raptor_glider_3dof,raptor_glider_3dof,0.005,-14.94009389182307,0.0,-0.0003005518855746,11.962263859629724,0.0,-0.13093865674169305,0.0,0.0,0.0,-25.12980322664479,-0.4385978066832464,-0.01833146045868009,0.0,0.0,0.0,0.0,0.0,-0.0011034240774344013,-0.06322154265010774,0.0,0.0,11.962980463882431,0.0003005518855746,0.035155251297077285,-0.010945539172903748,-0.6271331991024985,0.0,0.0,0.009842115095469346,0.5639116564523908,-7.619764933048298,0.0,-27.284916404279006,11.96240105817221,0.0,-0.11773912974501546,0.0,-86.08698535636344,0.0,0.0,-0.4385978066832464,0.0,0.4363323129985824,0.3490658503988659,1.0,0.14,0.14,0.75,0.08726646259971647,5.0,0.184,0.175,0.174,0.0,0.0,0.0,-0.05457182683161292,0.0,0.05472593032343835,0.0,6.022849768199583,0.0,-0.529498543215881,0.0,0.18560727572066893,0.0,-3.446631540314975,0.0,-0.03267769521599154,0.0,-0.028117473742245224,0.7308804509402165,-0.3861995880247053,0.16188493539638366,0.0,0.0,0.0,0.7154233824078116,0.16188493539638366,0.0,0.0,-0.37735413745313595,0.0,0.0,-0.002566404464215213,0.0,1.9866411722863777,0.0,8.779628219436473,0.0,-0.6483210867187731,0.0,87.65666831823584,-2.0826180146542357,0.0,-8.757357879177162,0.0,-0.6483210867187731,0.0
sim_raptor_glider_3dof,raptor_glider_3dof,0.006,-14.92813525992473,0.0,-0.0004292124397594923,11.954626639550906,0.0,-0.15842765930436845,0.0,0.0,0.0,-30.04433358782197,-0.5243725426750143,-0.02192985685369944,0.0,0.0,0.0,0.0,0.0,-0.0015849610904613313,-0.09081158117588696,0.0,0.0,11.955676367913814,0.0004292124397594923,0.03513378696968413,-0.01325163807797221,-0.7592629335026617,0.0,0.0,0.01166667698751088,0.6684513523267749,-7.65515672930522,0.0,-27.690630360815796,11.954862725505864,0.0,-0.13947985016959272,0.0,-85.46475387002384,0.0,0.0,-0.5243725426750143,0.0,0.4363323129985824,0.3490658503988659,1.0,0.14,0.14,0.75,0.08726646259971647,5.0,0.184,0.175,0.174,0.0,0.0,0.0,-0.05486778710977721,0.0,0.05463934182373924,0.0,6.022450437086101,0.0,-0.5300622937916623,0.0,0.18299244783751023,0.0,-3.444749760445701,0.0,-0.03200931203935526,0.0,-0.02777473367758559,0.7213366671206888,-0.3856605284654083,0.16093834608201854,0.0,0.0,0.0,0.7028466604815571,0.16093834608201854,0.0,0.0,-0.37508452678533377,0.0,0.0,-0.003070179959517922,0.0,1.9726136922696764,0.0,8.61475825857789,0.0,-0.6436350613951496,0.0,87.54966199755503,-2.0865968109073574,0.0,-8.58786227075033,0.0,-0.6436350613951496,0.0
sim_raptor_glider_3dof,raptor_glider_3dof,0.007,-14.916184165882276,0.0,-0.0005793064854676666,11.946952592434664,0.0,-0.18631506489291877,0.0,0.0,0.0,-34.923595341205655,-0.6095317253381911,-0.025506823267053384,0.0,0.0,0.0,0.0,0.0,-0.00215196395569408,-0.12329845232554847,0.0,0.0,11.94840531406963,0.0005793064854676666,0.03511241974218939,-0.015593931681301612,-0.8934664713539263,0.0,0.0,0.013441967725607532,0.7701680190283778,-7.693410528399182,0.0,-28.081787400130356,11.947325872576652,0.0,-0.1606052419691676,0.0,-84.85576962259707,0.0,0.0,-0.6095317253381911,0.0,0.4363323129985824,0.3490658503988659,1.0,0.14,0.14,0.75,0.08726646259971647,5.0,0.184,0.175,0.174,0.0,0.0,0.0,-0.05516886739682447,0.0,0.05458123429015566,0.0,6.022011606567932,0.0,-0.5306390995932566,0.0,0.18034094615955698,0.0,-3.442822740123928,0.0,-0.031329722669104235,0.0,-0.027433842397851762,0.7116112100401488,-0.3851593965008954,0.16000279048359145,0.0,0.0,0.0,0.6901068760336266,0.16000279048359145,0.0,0.0,-0.3728652305367967,0.0,0.0,-0.0035709552573874744,0.0,1.9587619456352325,0.0,8.448321951825605,0.0,-0.6390488010277785,0.0,87.4432046606849,-2.090261009781001,0.0,-8.416751218395161,0.0,-0.6390488010277785,0.0
sim_raptor_glider_3dof,raptor_glider_3dof,0.008,-14.904240606651282,0.0,-0.0007502161182813057,11.939238882633015,0.0,-0.21458650998107728,0.0,0.0,0.0,-39.768327695755914,-0.6940882563029905,-0.02906283149078703,0.0,0.0,0.0,0.0,0.0,-0.0028038236298313884,-0.16064726048838937,0.0,0.0,11.941167131685324,0.0007502161182813057,0.035091149113066274,-0.017971280258754233,-1.0296785112733915,0.0,0.0,0.015167456628922844,0.8690312507850021,-7.734472659743328,0.0,-28.458772998507442,11.939793614875626,0.0,-0.18111019026309105,0.0,-84.25932271685393,0.0,0.0,-0.6940882563029905,0.0,0.4363323129985824,0.3490658503988659,1.0,0.14,0.14,0.75,0.08726646259971647,5.0,0.184,0.175,0.174,0.0,0.0,0.0,-0.05547563193059443,0.0,0.054548242134604644,0.0,6.021535204946049,0.0,-0.5312274312413525,0.0,0.17765229454057654,0.0,-3.440852589499303,0.0,-0.030637728722487007,0.0,-0.027095110104628704,0.7017089249620452,-0.38469349440195466,0.1590791122370665,0.0,0.0,0.0,0.6772085241452388,0.1590791122370665,0.0,0.0,-0.37069336574289874,0.0,0.0,-0.004068796408710184,0.0,1.9450954633896698,0.0,8.280378294547667,0.0,-0.634556959380627,0.0,87.33729292823296,-2.0935823601488033,0.0,-8.244087212286694,0.0,-0.634556959380627,0.0
sim_raptor_glider_3dof,raptor_glider_3dof,0.009000000000000001,-14.892304576113405,0.0,-0.0009413184291606596,11.931482731000013,0.0,-0.24322801242629782,0.0,0.0,0.0,-44.57922600410458,-0.7780542717623,-0.03259832301805841,0.0,0.0,0.0,0.0,0.0,-0.0035399435977275817,-0.2028238278641469,0.0,0.0,11.933961623290918,0.0009413184291606596,0.03506997450201568,-0.020382573901800104,-1.1678354601866447,0.0,0.0,0.01684263030407252,0.9650116323224979,-7.778283843616755,0.0,-28.821964269395146,11.932268984822977,0.0,-0.20098980076623565,0.0,-83.67459264387269,0.0,0.0,-0.7780542717623,0.0,0.4363323129985824,0.3490658503988659,1.0,0.14,0.14,0.75,0.08726646259971647,5.0,0.184,0.175,0.174,0.0,0.0,0.0,-0.055788708736007504,0.0,0.0545365423304085,0.0,6.021023482042527,0.0,-0.531825634606743,0.0,0.17492580464570248,0.0,-3.4388415806117196,0.0,-0.029931992558805562,0.0,-0.02675881698380161,0.6916347024036031,-0.3842596132891834,0.15816803727685969,0.0,0.0,0.0,0.6641561648322319,0.15816803727685969,0.0,0.0,-0.3685655476778038,0.0,0.0,-0.004563765222528177,0.0,1.9316222876944662,0.0,8.110986723910683,0.0,-0.6301533572010052,0.0,87.23192303897322,-2.096532395351765,0.0,-8.0699332223392,0.0,-0.6301533572010052,0.0
sim_raptor_glider_3dof,raptor_glider_3dof,0.01,-14.88037606515921,0.0,-0.0011519857253842968,11.923681420343334,0.0,-0.27222596258209436,0.0,0.0,0.0,-49.356935507178044,-0.8614410332947542,-0.03611370438294382,0.0,0.0,0.0,0.0,0.0,-0.004359739052099519,-0.24979464746366856,0.0,0.0,11.926788569792983,0.0011519857253842968,0.03504889526519434,-0.022826731891997996,-1.3078753974881616,0.0,0.0,0.01846699283989848,1.058080750024493,-7.824779502619,0.0,-29.171728920063018,11.924754932281528,0.0,-0.22023940058925584,0.0,-83.10065118556057,0.0,0.0,-0.8614410332947542,0.0,0.4363323129985824,0.3490658503988659,1.0,0.14,0.14,0.75,0.08726646259971647,5.0,0.184,0.175,0.174,0.0,0.0,0.0,-0.05610878847395166,0.0,0.05454186162840115,0.0,6.020479004498773,0.0,-0.5324319328652451,0.0,0.17216057968112747,0.0,-3.4367921450673697,0.0,-0.02921103978427371,0.0,-0.02642521354291394,0.6813934773072167,-0.3838540408424605,0.15727017538811427,0.0,0.0,0.0,0.6509544254455103,0.15727017538811427,0.0,0.0,-0.3664778994650984,0.0,0.0,-0.0050559186136121355,0.0,1.9183490019530007,0.0,7.940207158086878,0.0,-0.6258310040784566,0.0,87.12709092666549,-2.099082476605616,0.0,-7.894352751368246,0.0,-0.6258310040784566,0.0
sim_raptor_glider_3dof,raptor_glider_3dof,0.01,-14.88037606515921,0.0,-0.0011519857253842968,11.923681420343334,0.0,-0.27222596258209436,0.0,0.0,0.0,-49.356935507178044,-0.8614410332947542,-0.03611370438294382,0.0,0.0,0.0,0.0,0.0,-0.004359739052099519,-0.24979464746366856,0.0,0.0,11.926788569792983,0.0011519857253842968,0.03504889526519434,-0.022826731891997996,-1.3078753974881616,0.0,0.0,0.01846699283989848,1.058080750024493,-5.279214233133393,0.0,-21.01553386304691,11.924754932281528,0.0,-0.22023940058925584,0.0,11.313528830672798,0.0,0.0,-0.8614410332947542,0.0,-0.14934412090503796,0.3490658503988659,1.0,0.14,0.14,0.75,0.08726646259971647,5.0,0.184,0.175,0.174,0.0,0.0,0.0,0.0004944567805835799,0.0,0.005336095249965451,0.0,6.054121826976774,0.0,-0.5176684777865862,0.0,0.16565001448172864,0.0,-3.678386821082662,0.0,-0.03826332583548302,0.0,-0.009912278945454244,0.4964196389009296,0.03129558609256746,0.10409225727019338,0.0,0.0,0.0,0.46581049166684224,0.10409225727019338,0.0,0.0,0.049893210489344864,0.0,0.0,-0.0050559186136121355,0.0,1.2696957789518795,0.0,5.681859828687241,0.0,0.08520218562379685,0.0,87.12709092666549,-1.399052027497074,0.0,-5.651399110688817,0.0,0.08520218562379685,0.0
sim_raptor_glider_3dof,raptor_glider_3dof,0.011,-14.868453809125311,0.0,-0.0013775470822924136,11.918393932630005,0.0,-0.2930050804369597,0.0,0.0,0.0,-48.706981174552446,-0.8500971902028351,-0.0356524720410524,0.0,0.0,0.0,0.0,0.0,-0.005215509145730241,-0.29882666206222425,0.0,0.0,11.921995047411889,0.0013775470822924136,0.03503480868498013,-0.02457932453324716,-1.4082915590374245,0.0,0.0,0.01936381538751692,1.1094648969752003,-5.295532195478322,0.0,-20.54368088938631,11.919759997437406,0.0,-0.2308408846036341,0.0,11.373745765754895,0.0,0.0,-0.8500971902028351,0.0,-0.14934412090503796,0.3490658503988659,1.0,0.14,0.14,0.75,0.08726646259971647,5.0,0.184,0.175,0.174,0.0,0.0,0.0,0.0004846503710180695,0.0,0.005342398160533822,0.0,6.054218926830907,0.0,-0.5178784656810249,0.0,0.16362182187799823,0.0,-3.6770869477166177,0.0,-0.037748075083492746,0.0,-0.009740382440151333,0.48909950205196273,0.03184549971609766,0.10377155321168373,0.0,0.0,0.0,0.45888080010926785,0.10377155321168373,0.0,0.0,0.05019911325953562,0.0,0.0,-0.004991346085747337,0.0,1.2647666336869134,0.0,5.592834518279244,0.0,0.08565567936190012,0.0,87.05707011100998,-1.4018388562117476,0.0,-5.560061187411384,0.0,0.08565567936190012,0.0
sim_raptor_glider_3dof,raptor_glider_3dof,0.012,-14.856536544081033,0.0,-0.0016135501558052258,11.913091046207457,0.0,-0.31331569187995106,0.0,0.0,0.0,-48.053669297648405,-0.8386947469084757,-0.03518838364759275,0.0,0.0,0.0,0.0,0.0,-0.006059909324277442,-0.347207228513072,0.0,0.0,11.917210453709647,0.0016135501558052258,0.035020748343206225,-0.026294055915149987,-1.5065384302190916,0.0,0.0,0.020234146590872547,1.1593312017060198,-5.309969865193927,0.0,-20.078522196071454,11.914770960689872,0.0,-0.24111812936363058,0.0,11.430661482851184,0.0,0.0,-0.8386947469084757,0.0,-0.14934412090503796,0.3490658503988659,1.0,0.14,0.14,0.75,0.08726646259971647,5.0,0.184,0.175,0.174,0.0,0.0,0.0,0.0004750238524066705,0.0,0.00534854790978841,0.0,6.05430013493686,0.0,-0.5180801758232543,0.0,0.16163642304098222,0.0,-3.6758041135432156,0.0,-0.037244345623588936,0.0,-0.009574310442995181,0.481924643737727,0.03238244979060624,0.10346384077428504,0.0,0.0,0.0,0.45209889871651066,0.10346384077428504,0.0,0.0,0.05049083454111239,0.0,0.0,-0.004926373710662985,0.0,1.26000428625517,0.0,5.505754918153258,0.0,0.08608431162735226,0.0,86.98720778926689,-1.4043206887449553,0.0,-5.470724944951361,0.0,0.08608431162735226,0.0
sim_raptor_glider_3dof,raptor_glider_3dof,0.013000000000000001,-14.844624265157403,0.0,-0.001859680310572024,11.907774575257461,0.0,-0.3331643028793626,0.0,0.0,0.0,-47.39718381663781,-0.8272369137733021,-0.03472157263049869,0.0,0.0,0.0,0.0,0.0,-0.006892880768854803,-0.3949329767422702,0.0,0.0,11.912434419037156,0.001859680310572024,0.03500671315359592,-0.02797142378961552,-1.6026445301167964,0.0,0.0,0.021078543020760718,1.2077115533745264,-5.322607333693007,0.0,-19.620044253145817,11.909788140075309,0.0,-0.2510781678733114,0.0,11.484354059817136,0.0,0.0,-0.8272369137733021,0.0,-0.14934412090503796,0.3490658503988659,1.0,0.14,0.14,0.75,0.08726646259971647,5.0,0.184,0.175,0.174,0.0,0.0,0.0,0.0004655709007259605,0.0,0.0053545329271337,0.0,6.054366356175168,0.0,-0.5182739163615534,0.0,0.1596933251774019,0.0,-3.6745386823090507,0.0,-0.03675196168087151,0.0,-0.009413872938675827,0.47489442464395476,0.03290668029801893,0.10316868466005014,0.0,0.0,0.0,0.44546402768049304,0.10316868466005014,0.0,0.0,0.050768686941810824,0.0,0.0,-0.004861020168269817,0.0,1.2554029578898274,0.0,5.420606648483902,0.0,0.08648867042448286,0.0,86.91749841024851,-1.406514190929173,0.0,-5.383375414642868,0.0,0.08648867042448286,0.0
sim_raptor_glider_3dof,raptor_glider_3dof,0.014,-14.832716965671148,0.0,-0.0021156094354262316,11.902446366469505,0.0,-0.35255788172701163,0.0,0.0,0.0,-46.737715653281334,-0.8157270230106518,-0.03425217729961003,0.0,0.0,0.0,0.0,0.0,-0.007714367074192226,-0.44200067496589973,0.0,0.0,11.907666713787842,0.0021156094354262316,0.03499270244141127,-0.029611965127682983,-1.6966406249048067,0.0,0.0,0.021897598053490758,1.2546399499389072,-5.333523310968934,0.0,-19.168222803087342,11.904811936187794,0.0,-0.2607284615295882,0.0,11.534903645204205,0.0,0.0,-0.8157270230106518,0.0,-0.14934412090503796,0.3490658503988659,1.0,0.14,0.14,0.75,0.08726646259971647,5.0,0.184,0.175,0.174,0.0,0.0,0.0,0.00045628561506429514,0.0,0.005360343611056447,0.0,6.054418463567381,0.0,-0.5184599895456583,0.0,0.1577919852211757,0.0,-3.673290957461253,0.0,-0.03627073751072468,0.0,-0.009258882171245215,0.4680079281493062,0.03341844240841922,0.1028856522260364,0.0,0.0,0.0,0.43897514609688626,0.1028856522260364,0.0,0.0,0.05103299224914162,0.0,0.0,-0.004795304821945405,0.0,1.250956951220703,0.0,5.337372107206777,0.0,0.08686935935203287,0.0,86.84793847448036,-1.4084355084739646,0.0,-5.297994311347077,0.0,0.08686935935203287,0.0
sim_raptor_glider_3dof,raptor_glider_3dof,0.015,-14.820814638973975,0.0,-0.0023810369329587454,11.897108070263196,0.0,-0.3715029564461147,0.0,0.0,0.0,-46.07543943262506,-0.8041681224025353,-0.03378032454091582,0.0,0.0,0.0,0.0,0.0,-0.008524318756839518,-0.488407487991109,0.0,0.0,11.902906992922773,0.0023810369329587454,0.034978715192696734,-0.03121618094639106,-1.7885554207449035,0.0,0.0,0.02269186218955154,1.3001479327537946,-5.342793475997298,0.0,-18.723032255453667,11.899842598356905,0.0,-0.27007594580087413,0.0,11.582384882476708,0.0,0.0,-0.8041681224025353,0.0,-0.14934412090503796,0.3490658503988659,1.0,0.14,0.14,0.75,0.08726646259971647,5.0,0.184,0.175,0.174,0.0,0.0,0.0,0.00044716288723921225,0.0,0.005365971917719694,0.0,6.054457295964838,0.0,-0.5186386833274172,0.0,0.15593189714639102,0.0,-3.672061239690446,0.0,-0.035800499400974455,0.0,-0.009109159664690118,0.4612642825035321,0.03391797122583426,0.10261432678615015,0.0,0.0,0.0,0.432631267970779,0.10261432678615015,0.0,0.0,0.05128405008335479,0.0,0.0,-0.004729245435728215,0.0,1.2466607575982205,0.0,5.256034329525274,0.0,0.08722694054993209,0.0,86.7785228049853,-1.4101000757783564,0.0,-5.214563998454084,0.0,0.08722694054993209,0.0
sim_raptor_glider_3dof,raptor_glider_3dof,0.016,-14.808917278081768,0.0,-0.0026556632239919456,11.89176129824709,0.0,-0.39000614386079346,0.0,0.0,0.0,-45.41052899833018,-0.7925632460932241,-0.03330614067630739,0.0,0.0,0.0,0.0,0.0,-0.00932268821092342,-0.5341506882022802,0.0,0.0,11.898154964814355,0.0026556632239919456,0.034964750550455066,-0.03278458036081065,-1.878418087781936,0.0,0.0,0.023461892149887233,1.344267399579656,-5.350491516592503,0.0,-18.284441144278418,11.894880383558126,0.0,-0.2791276188064572,0.0,11.626871649152164,0.0,0.0,-0.7925632460932241,0.0,-0.14934412090503796,0.3490658503988659,1.0,0.14,0.14,0.75,0.08726646259971647,5.0,0.184,0.175,0.174,0.0,0.0,0.0,0.000438198103370852,0.0,0.005371411383767511,0.0,6.054483660696192,0.0,-0.5188102767943522,0.0,0.15411254117525341,0.0,-3.6708497947119363,0.0,-0.03534107267161406,0.0,-0.00896453180535723,0.4546624831325239,0.03440549980433788,0.10235429980461896,0.0,0.0,0.0,0.42643127529894664,0.10235429980461896,0.0,0.0,0.05152215735733566,0.0,0.0,-0.004662859694683035,0.0,1.2425089970235224,0.0,5.176574869668985,0.0,0.08756197038976496,0.0,86.70924701155762,-1.411522749243035,0.0,-5.133065313956394,0.0,0.08756197038976496,0.0
sim_raptor_glider_3dof,raptor_glider_3dof,0.017,-14.79702487575706,0.0,-0.002939195889655918,11.886407587353617,0.0,-0.40807402631596684,0.0,0.0,0.0,-44.743153890487676,-0.7809153531155203,-0.032829749002256124,0.0,0.0,0.0,0.0,0.0,-0.010109430914844163,-0.5792277246996493,0.0,0.0,11.893410349586503,0.002939195889655918,0.034950807692222814,-0.034317670342294056,-1.9662576733347246,0.0,0.0,0.024208239427449894,1.3870299486350754,-5.356688908823294,0.0,-17.852413579613604,11.889925519479988,0.0,-0.2878904042685041,0.0,11.66843603866502,0.0,0.0,-0.7809153531155203,0.0,-0.14934412090503796,0.3490658503988659,1.0,0.14,0.14,0.75,0.08726646259971647,5.0,0.184,0.175,0.174,0.0,0.0,0.0,0.00042938715390459603,0.0,0.005376656962591232,0.0,6.054498333908036,0.0,-0.5189750392824289,0.0,0.1523333958596422,0.0,-3.669656861860532,0.0,-0.03489228461921341,0.0,-0.008824830646038749,0.4482014419918373,0.03488125617313759,0.10210517269934177,0.0,0.0,0.0,0.4203739695026883,0.10210517269934177,0.0,0.0,0.05174760409103793,0.0,0.0,-0.004596164860315857,0.0,1.2384964306257646,0.0,5.098974390750135,0.0,0.08787499180718626,0.0,86.64010688221818,-1.4127177895783296,0.0,-5.053478177770969,0.0,0.08787499180718626,0.0
sim_raptor_glider_3dof,raptor_glider_3dof,0.018000000000000002,-14.785137424534161,0.0,-0.0032313498443273677,11.88104839945391,0.0,-0.42571314610941385,0.0,0.0,0.0,-44.07347929909265,-0.7692273265787294,-0.032351269759070655,0.0,0.0,0.0,0.0,0.0,-0.010884505462178245,-0.6236362250699049,0.0,0.0,11.888672876016763,0.0032313498443273677,0.03493688582096671,-0.03581595527212367,-2.052103076322016,0.0,0.0,0.024931449809945425,1.4284668512521113,-5.36145493128164,0.0,-17.42690960841704,11.884978203462397,0.0,-0.296371145964632,0.0,11.707148382365654,0.0,0.0,-0.7692273265787294,0.0,-0.14934412090503796,0.3490658503988659,1.0,0.14,0.14,0.75,0.08726646259971647,5.0,0.184,0.175,0.174,0.0,0.0,0.0,0.00042072639142735956,0.0,0.005381704903079758,0.0,6.054502061341392,0.0,-0.5191332306280818,0.0,0.1505939388096468,0.0,-3.668482655318995,0.0,-0.03445396458693019,0.0,-0.00868989376921731,0.44187999555560425,0.035345463417125564,0.101866556883651,0.0,0.0,0.0,0.41445807943354157,0.101866556883651,0.0,0.0,0.05196067349554309,0.0,0.0,-0.004529177766269893,0.0,1.2346179598620701,0.0,5.023212761211088,0.0,0.08816653446759574,0.0,86.57109833772984,-1.4136988728164526,0.0,-4.97578169217716,0.0,0.08816653446759574,0.0
sim_raptor_glider_3dof,raptor_glider_3dof,0.019000000000000003,-14.773254916777079,0.0,-0.0035318463814749393,11.875685132743515,0.0,-0.4429300055513651,0.0,0.0,0.0,-43.40166669129788,-0.7575019846163015,-0.03187082056210204,0.0,0.0,0.0,0.0,0.0,-0.011647873110014022,-0.6673739695077239,0.0,0.0,11.883942290413694,0.0035318463814749393,0.03492298419117133,-0.037279936930934926,-2.135983046656462,0.0,0.0,0.025632063820920904,1.4686090771487386,-5.364856709458697,0.0,-17.007885643631496,11.880038613087637,0.0,-0.30457661339945247,0.0,11.743077376120114,0.0,0.0,-0.7575019846163015,0.0,-0.14934412090503796,0.3490658503988659,1.0,0.14,0.14,0.75,0.08726646259971647,5.0,0.184,0.175,0.174,0.0,0.0,0.0,0.00041221258872349066,0.0,0.005386552636965855,0.0,6.054495559114006,0.0,-0.5192851014623262,0.0,0.14889364690752294,0.0,-3.667327364993651,0.0,-0.034025943909177216,0.0,-0.008559564113757316,0.43569691063465776,0.03579833988350917,0.10163807372078842,0.0,0.0,0.0,0.40868226681645853,0.10163807372078842,0.0,0.0,0.052161642418417045,0.0,0.0,-0.004461914878694285,0.0,1.2308686271604248,0.0,4.9492691300218645,0.0,0.08843711571956059,0.0,86.50221756055733,-1.4144791053659769,0.0,-4.899954220112494,0.0,0.08843711571956059,0.0
sim_raptor_glider_3dof,raptor_glider_3dof,0.02,-14.761377344682167,0.0,-0.0038404135393366313,11.87031911920598,0.0,-0.4597310616195159,0.0,0.0,0.0,-42.72787363585095,-0.7457420773216796,-0.03138851628366168,0.0,0.0,0.0,0.0,0.0,-0.012399497906914185,-0.710438898147481,0.0,0.0,11.879218351423837,0.0038404135393366313,0.034909102093578524,-0.0387101140706336,-2.217926160717288,0.0,0.0,0.026310616163719415,1.5074872625698075,-5.366959234633457,0.0,-16.595294755668366,11.87510690293215,0.0,-0.3125134952895475,0.0,11.776290084298124,0.0,0.0,-0.7457420773216796,0.0,-0.14934412090503796,0.3490658503988659,1.0,0.14,0.14,0.75,0.08726646259971647,5.0,0.184,0.175,0.174,0.0,0.0,0.0,0.00040384290186069654,0.0,0.005391198671561823,0.0,6.054479514498883,0.0,-0.5194308934550795,0.0,0.14723199699755016,0.0,-3.6661911577005943,0.0,-0.03360805598068,0.0,-0.00843368984287979,0.42965089163446835,0.03624009924998671,0.10141935453079283,0.0,0.0,0.0,0.40304513359827615,0.10141935453079283,0.0,0.0,0.052350781369336935,0.0,0.0,-0.004394392279712636,0.0,1.227243614274148,0.0,4.877122012471248,0.0,0.08868724062484917,0.0,86.43346091876757,-1.4150710359548493,0.0,-4.825973474492989,0.0,0.08868724062484917,0.0
sim_raptor_glider_3dof,raptor_glider_3dof,0.02,-14.761377344682167,0.0,-0.0038404135393366313,11.87031911920598,0.0,-0.4597310616195159,0.0,0.0,0.0,-42.72787363585095,-0.7457420773216796,-0.03138851628366168,0.0,0.0,0.0,0.0,0.0,-0.012399497906914185,-0.710438898147481,0.0,0.0,11.879218351423837,0.0038404135393366313,0.034909102093578524,-0.0387101140706336,-2.217926160717288,0.0,0.0,0.026310616163719415,1.5074872625698075,-5.382253227536315,0.0,-16.5566406042805,11.87510690293215,0.0,-0.3125134952895475,0.0,12.211911830915723,0.0,0.0,-0.7457420773216796,0.0,-0.15254147915746397,0.3490658503988659,1.0,0.14,0.14,0.75,0.08726646259971647,5.0,0.184,0.175,0.174,0.0,0.0,0.0,0.0009512282146054267,0.0,0.00557761784186278,0.0,6.053357317879288,0.0,-0.5193621258556198,0.0,0.14720217134468497,0.0,-3.6618665366211305,0.0,-0.03375306253962795,0.0,-0.008522255298172396,0.4287816157618799,0.03819563331278605,0.10180066178783989,0.0,0.0,0.0,0.40218078909784916,0.10180066178783989,0.0,0.0,0.05428731135065199,0.0,0.0,-0.004394392279712636,0.0,1.2318576931001508,0.0,4.866662852347527,0.0,0.09196790799862631,0.0,86.43346091876757,-1.4192768840031351,0.0,-4.815343582861325,0.0,0.09196790799862631,0.0
sim_raptor_glider_3dof,raptor_glider_3dof,0.021,-14.749504713486079,0.0,-0.0041567615460208224,11.86493652229263,0.0,-0.4760820216687599,0.0,0.0,0.0,-42.02738417856975,-0.7335162299166146,-0.030886235705307935,0.0,0.0,0.0,0.0,0.0,-0.01313911352867414,-0.7528157517362706,0.0,0.0,11.874484105399684,0.0041567615460208224,0.03489518970701368,-0.0401036083023834,-2.297767498972377,0.0,0.0,0.026964494773709262,1.5449517472361065,-5.382872073987744,0.0,-16.14658931363191,11.870167493381738,0.0,-0.3201506652394627,0.0,12.239575667552524,0.0,0.0,-0.7335162299166146,0.0,-0.15254147915746397,0.3490658503988659,1.0,0.14,0.14,0.75,0.08726646259971647,5.0,0.184,0.175,0.174,0.0,0.0,0.0,0.0009452440979361209,0.0,0.005582682224112636,0.0,6.0533307245043675,0.0,-0.5195011694085947,0.0,0.14558275979045907,0.0,-3.6607447539591043,0.0,-0.03334664694094256,0.0,-0.00840130488616988,0.4228864824467244,0.038624356106204405,0.10159298449650012,0.0,0.0,0.0,0.396711438508433,0.10159298449650012,0.0,0.0,0.05445368365208947,0.0,0.0,-0.004324072998743112,0.0,1.2283649851421363,0.0,4.796654441093956,0.0,0.09217624435233807,0.0,86.36458168487393,-1.4196889202803304,0.0,-4.743549065164487,0.0,0.09217624435233807,0.0
sim_raptor_glider_3dof,raptor_glider_3dof,0.022,-14.737637012246322,0.0,-0.004480622906262849,11.859553845179335,0.0,-0.49202630917727913,0.0,0.0,0.0,-41.325378564223996,-0.7212639205787956,-0.030382424082715864,0.0,0.0,0.0,0.0,0.0,-0.013866505547954999,-0.7944922444925624,0.0,0.0,11.869755991410715,0.004480622906262849,0.0348812953404764,-0.04146397995126965,-2.375711053022812,0.0,0.0,0.027597474403314653,1.5812188085302494,-5.382308642793886,0.0,-15.742961436637676,11.86523615298738,0.0,-0.3275337073825475,0.0,12.264653472547243,0.0,0.0,-0.7212639205787956,0.0,-0.15254147915746397,0.3490658503988659,1.0,0.14,0.14,0.75,0.08726646259971647,5.0,0.184,0.175,0.174,0.0,0.0,0.0,0.0009393464356514584,0.0,0.005587534224504852,0.0,6.053295973876275,0.0,-0.5196345847950273,0.0,0.14400130366620847,0.0,-3.6596427901998805,0.0,-0.03295011280629005,0.0,-0.008284530645004482,0.41712697442562807,0.03904229865305256,0.10139435947655251,0.0,0.0,0.0,0.3913790416729173,0.10139435947655251,0.0,0.0,0.05460873334708745,0.0,0.0,-0.004253539371580221,0.0,1.224987302008835,0.0,4.728412495495667,0.0,0.09236510530175329,0.0,86.29581906956597,-1.4199370423838067,0.0,-4.6735700929063615,0.0,0.09236510530175329,0.0
sim_raptor_glider_3dof,raptor_glider_3dof,0.023,-14.725774237471333,0.0,-0.004811722002503931,11.85417239269922,0.0,-0.5075707071278895,0.0,0.0,0.0,-40.622020981139734,-0.7089880149351057,-0.02987720122226054,0.0,0.0,0.0,0.0,0.0,-0.014581631292418648,-0.8354659314714805,0.0,0.0,11.865033971235256,0.004811722002503931,0.034867418881645816,-0.04279175655887397,-2.451787048774737,0.0,0.0,0.02821012526645532,1.6163211173032566,-5.380623525286003,0.0,-15.34569778104087,11.860313121054325,0.0,-0.33466970151668524,0.0,12.287212234316042,0.0,0.0,-0.7089880149351057,0.0,-0.15254147915746397,0.3490658503988659,1.0,0.14,0.14,0.75,0.08726646259971647,5.0,0.184,0.175,0.174,0.0,0.0,0.0,0.0009335344087895379,0.0,0.005592175005455507,0.0,6.053253673187868,0.0,-0.519762592979817,0.0,0.14245723669747945,0.0,-3.6585607170665666,0.0,-0.03256328866422431,0.0,-0.008171791690273704,0.4115014766160413,0.03944967398252165,0.10120444045795017,0.0,0.0,0.0,0.3861818776899903,0.10120444045795017,0.0,0.0,0.05475273164439344,0.0,0.0,-0.004182808171116476,0.0,1.2217201830542346,0.0,4.661911988927756,0.0,0.09253499533663412,0.0,86.22717241075517,-1.4200323126928973,0.0,-4.605380747462524,0.0,0.09253499533663412,0.0
sim_raptor_glider_3dof,raptor_glider_3dof,0.024,-14.713916382720155,0.0,-0.005149865740801229,11.848793024185696,0.0,-0.5227202291047215,0.0,0.0,0.0,-39.917424212464844,-0.6966904814228161,-0.029370650407856098,0.0,0.0,0.0,0.0,0.0,-0.015284473002065316,-0.8757357950999938,0.0,0.0,11.860317557633392,0.005149865740801229,0.034853558898684626,-0.044087318865152984,-2.5260173010207603,0.0,0.0,0.028802845863087668,1.6502815059207663,-5.377872716200136,0.0,-14.954753971196697,11.855398214712363,0.0,-0.3415636668350312,0.0,12.307302881017527,0.0,0.0,-0.6966904814228161,0.0,-0.15254147915746397,0.3490658503988659,1.0,0.14,0.14,0.75,0.08726646259971647,5.0,0.184,0.175,0.174,0.0,0.0,0.0,0.000927808030296167,0.0,0.0055966059762612725,0.0,6.053204408626939,0.0,-0.5198853932491824,0.0,0.14095016046172937,0.0,-3.657498703682608,0.0,-0.0321860467540502,0.0,-0.008062963933527817,0.40600893949441486,0.039846647033196826,0.10102291123378856,0.0,0.0,0.0,0.38111882241978434,0.10102291123378856,0.0,0.0,0.05488588324422365,0.0,0.0,-0.004111891057099855,0.0,1.218559452250812,0.0,4.597134826332311,0.0,0.092686297996943,0.0,86.15863452363689,-1.4199850910561314,0.0,-4.538962226250128,0.0,0.092686297996943,0.0
sim_raptor_glider_3dof,raptor_glider_3dof,0.025,-14.702063438475323,0.0,-0.00549477858695708,11.843416947132228,0.0,-0.537482114594334,0.0,0.0,0.0,-39.211749450867366,-0.684374133384714,-0.028862889363826,0.0,0.0,0.0,0.0,0.0,-0.015975006875388734,-0.915300471652247,0.0,0.0,11.855606775156119,0.00549477858695708,0.034839715463740095,-0.04535123439975199,-2.5984343268143046,0.0,0.0,0.02937622752436326,1.6831338551620574,-5.374113275563547,0.0,-14.570058307056145,11.850491669542809,0.0,-0.34822291312343345,0.0,12.324993179284943,0.0,0.0,-0.684374133384714,0.0,-0.15254147915746397,0.3490658503988659,1.0,0.14,0.14,0.75,0.08726646259971647,5.0,0.184,0.175,0.174,0.0,0.0,0.0,0.0009221666549138635,0.0,0.005600829871731061,0.0,6.053148734751803,0.0,-0.5200031954350067,0.0,0.13947945656616892,0.0,-3.656456744903429,0.0,-0.03181820581466772,0.0,-0.007957911712259595,0.4006474694844201,0.040233437115165305,0.10084943818057274,0.0,0.0,0.0,0.37618787877167065,0.10084943818057274,0.0,0.0,0.05500846402401213,0.0,0.0,-0.00404080451093564,0.0,1.215500842419704,0.0,4.5340528594350795,0.0,0.09281952363319491,0.0,86.09020566759045,-1.4198054906993165,0.0,-4.4742854176566,0.0,0.09281952363319491,0.0
sim_raptor_glider_3dof,raptor_glider_3dof,0.026000000000000002,-14.69021539659367,0.0,-0.005846235889890998,11.83804511102515,0.0,-0.5518624025530362,0.0,0.0,0.0,-38.505128477552944,-0.6720412708367304,-0.028354014928822228,0.0,0.0,0.0,0.0,0.0,-0.016653215973628614,-0.9541589906087656,0.0,0.0,11.85090140715119,0.005846235889890998,0.03482588794014279,-0.04658397116562152,-2.669064940749235,0.0,0.0,0.029930755191992904,1.7149059501404693,-5.369398780981336,0.0,-14.191549956698806,11.845593487784237,0.0,-0.35465347056207736,0.0,12.34034036510338,0.0,0.0,-0.6720412708367304,0.0,-0.15254147915746397,0.3490658503988659,1.0,0.14,0.14,0.75,0.08726646259971647,5.0,0.184,0.175,0.174,0.0,0.0,0.0,0.0009166102114394614,0.0,0.005604849681524448,0.0,6.053087184672787,0.0,-0.5201161926499235,0.0,0.13804461977080917,0.0,-3.6554348956517693,0.0,-0.03145961444774706,0.0,-0.007856511901880301,0.39541554602009016,0.040610230240902705,0.10068371093672515,0.0,0.0,0.0,0.3713874406041357,0.10068371093672515,0.0,0.0,0.05512070602527343,0.0,0.0,-0.0039695620900351124,0.0,1.2125403306691298,0.0,4.472642554062258,0.0,0.09293510328959356,0.0,86.02188259991108,-1.4195030252207752,0.0,-4.411325949337322,0.0,0.09293510328959356,0.0
sim_raptor_glider_3dof,raptor_glider_3dof,0.027,-14.678372248702173,0.0,-0.006204011783204448,11.832678446838289,0.0,-0.5658672508812396,0.0,0.0,0.0,-37.797694027111106,-0.6596942104344836,-0.027844124642088887,0.0,0.0,0.0,0.0,0.0,-0.017319084850985485,-0.9923104669904286,0.0,0.0,11.846201288678632,0.006204011783204448,0.03481207584318855,-0.047786007882103534,-2.7379365714234183,0.0,0.0,0.03046692303111805,1.7456261044329895,-5.363781151749734,0.0,-13.819164574527512,11.84070369410899,0.0,-0.3608614695488844,0.0,12.353401780473293,0.0,0.0,-0.6596942104344836,0.0,-0.15254147915746397,0.3490658503988659,1.0,0.14,0.14,0.75,0.08726646259971647,5.0,0.184,0.175,0.174,0.0,0.0,0.0,0.0009111386979727739,0.0,0.005608668965644359,0.0,6.0530202671638085,0.0,-0.5202245721352439,0.0,0.13664512992128708,0.0,-3.654433181726574,0.0,-0.031110118962668062,0.0,-0.007758644423573975,0.39031155804168904,0.040977213089320084,0.10052542655215758,0.0,0.0,0.0,0.3667158109324892,0.10052542655215758,0.0,0.0,0.05522284211046531,0.0,0.0,-0.0038981774498924445,0.0,1.2096740068070917,0.0,4.4128794036009475,0.0,0.09303346880874437,0.0,85.9536628334277,-1.4190867667172684,0.0,-4.350058457308144,0.0,0.09303346880874437,0.0
sim_raptor_glider_3dof,raptor_glider_3dof,0.028,-14.666533986406568,0.0,-0.006567886666971837,11.827317833026827,0.0,-0.5795027505799941,0.0,0.0,0.0,-37.08957548850524,-0.6473352104414007,-0.02733331368912888,0.0,0.0,0.0,0.0,0.0,-0.01797260041845393,-1.0297541508524675,0.0,0.0,11.841506262353796,0.006567886666971837,0.03479827871037584,-0.0489578184637845,-2.805076372142507,0.0,0.0,0.030985218045330568,1.77532222129004,-5.3573104446343365,0.0,-13.452836496436783,11.835822298338503,0.0,-0.36685294535722496,0.0,12.36423341577657,0.0,0.0,-0.6473352104414007,0.0,-0.15254147915746397,0.3490658503988659,1.0,0.14,0.14,0.75,0.08726646259971647,5.0,0.184,0.175,0.174,0.0,0.0,0.0,0.0009057522305672929,0.0,0.005612291737432022,0.0,6.052948467953945,0.0,-0.5203285140262536,0.0,0.13528047013648203,0.0,-3.653451613227181,0.0,-0.030769567857787714,0.0,-0.0076641934075915765,0.3853338731850246,0.0413345683889221,0.10037429153229083,0.0,0.0,0.0,0.36217127369440416,0.10037429153229083,0.0,0.0,0.05531509984785705,0.0,0.0,-0.0038266639164780433,0.0,1.206898088383412,0.0,4.354738760457838,0.0,0.09311504185421335,0.0,85.88554399446764,-1.4185653413476078,0.0,-4.290457439470149,0.0,0.09311504185421335,0.0
sim_raptor_glider_3dof,raptor_glider_3dof,0.029,-14.65470060130925,0.0,-0.006937647324044299,11.821964095592113,0.0,-0.5927749222266204,0.0,0.0,0.0,-36.380898869782534,-0.634966470112789,-0.026821674877273504,0.0,0.0,0.0,0.0,0.0,-0.018613751965819967,-1.0664894285448234,0.0,0.0,11.836816176062287,0.006937647324044299,0.03478449609469066,-0.05009987172803436,-2.8705112041631633,0.0,0.0,0.031486119762214396,1.80402177561834,-5.350034896613101,0.0,-13.092498931627608,11.830949294592475,0.0,-0.3726338345770763,0.0,12.372889921525335,0.0,0.0,-0.634966470112789,0.0,-0.15254147915746397,0.3490658503988659,1.0,0.14,0.14,0.75,0.08726646259971647,5.0,0.184,0.175,0.174,0.0,0.0,0.0,0.0009004510264849422,0.0,0.005615722403905659,0.0,6.052872250481006,0.0,-0.5204281915683712,0.0,0.13395012727764094,0.0,-3.6524901855155605,0.0,-0.03043781186777544,0.0,-0.00757304707373134,0.3804808422182115,0.041682474963710116,0.10023002171692427,0.0,0.0,0.0,0.3577520981975614,0.10023002171692427,0.0,0.0,0.05539770155847642,0.0,0.0,-0.0037550344828182905,0.0,1.2042089182359321,0.0,4.298195887693562,0.0,0.09318023399900731,0.0,85.81752378949551,-1.4179469443786537,0.0,-4.232497308997614,0.0,0.09318023399900731,0.0
sim_raptor_glider_3dof,raptor_glider_3dof,0.03,-14.642872085025143,0.0,-0.007313086052296878,11.81661801638867,0.0,-0.6056897230070323,0.0,0.0,0.0,-35.671787285489515,-0.6225901382028425,-0.02630929897658443,0.0,0.0,0.0,0.0,0.0,-0.019242530813128194,-1.1025158027426858,0.0,0.0,11.832130889480458,0.007313086052296878,0.03477072758376813,-0.051212631957355356,-2.9342676689132663,0.0,0.0,0.03197010114422716,1.8317518661705803,-5.342000991207187,0.0,-12.738084104295922,11.82608466873283,0.0,-0.37820998633020025,0.0,12.379424735972052,0.0,0.0,-0.6225901382028425,0.0,-0.15254147915746397,0.3490658503988659,1.0,0.14,0.14,0.75,0.08726646259971647,5.0,0.184,0.175,0.174,0.0,0.0,0.0,0.0008952353849313525,0.0,0.00561896571300039,0.0,6.052792056575161,0.0,-0.5205237714012948,0.0,0.1326535914153569,0.0,-3.65154887943921,0.0,-0.030114703764245673,0.0,-0.007485097547803648,0.3757507996442488,0.042021108032859744,0.10009234204586122,0.0,0.0,0.0,0.3534565394239144,0.10009234204586122,0.0,0.0,0.05547086480040867,0.0,0.0,-0.0036833018567218206,0.0,1.201602962483173,0.0,4.243225967139688,0.0,0.09322944768660553,0.0,85.74960009946268,-1.4172393571665483,0.0,-4.176152402888936,0.0,0.09322944768660553,0.0
sim_raptor_glider_3dof,raptor_glider_3dof,0.03,-14.642872085025143,0.0,-0.007313086052296878,11.81661801638867,0.0,-0.6056897230070323,0.0,0.0,0.0,-35.671787285489515,-0.6225901382028425,-0.02630929897658443,0.0,0.0,0.0,0.0,0.0,-0.019242530813128194,-1.1025158027426858,0.0,0.0,11.832130889480458,0.007313086052296878,0.03477072758376813,-0.051212631957355356,-2.9342676689132663,0.0,0.0,0.03197010114422716,1.8317518661705803,-5.349471564477171,0.0,-12.71934495345386,11.82608466873283,0.0,-0.37820998633020025,0.0,12.590491800669968,0.0,0.0,-0.6225901382028425,0.0,-0.15410460008247379,0.3490658503988659,1.0,0.14,0.14,0.75,0.08726646259971647,5.0,0.184,0.175,0.174,0.0,0.0,0.0,0.0011553822192791122,0.0,0.005716463478886989,0.0,6.052230642766506,0.0,-0.5204896913615578,0.0,0.13264021757117286,0.0,-3.6493824442945995,0.0,-0.030182819350806647,0.0,-0.0075309121331434215,0.3753287927616613,0.04297485638121423,0.1002852218415632,0.0,0.0,0.0,0.35303660039785073,0.1002852218415632,0.0,0.0,0.056416633514172546,0.0,0.0,-0.0036833018567218206,0.0,1.2039184736319926,0.0,4.238184622642532,0.0,0.09481899375084553,0.0,85.74960009946268,-1.419293764815794,0.0,-4.170999136407368,0.0,0.09481899375084553,0.0
sim_raptor_glider_3dof,raptor_glider_3dof,0.031,-14.631048445771004,0.0,-0.007693990636858387,11.811273009164015,0.0,-0.6182328900035693,0.0,0.0,0.0,-34.95031599567069,-0.6099980887368938,-0.02578740583401478,0.0,0.0,0.0,0.0,0.0,-0.019858790377287702,-1.137824874853597,0.0,0.0,11.827441904456284,0.007693990636858387,0.03475694820434419,-0.05229488936765937,-2.9962764508704445,0.0,0.0,0.03243609899037167,1.8584515760168474,-5.34058610941095,0.0,-12.368942227491377,11.82122062106082,0.0,-0.3835688093353964,0.0,12.593579840318808,0.0,0.0,-0.6099980887368938,0.0,-0.15410460008247379,0.3490658503988659,1.0,0.14,0.14,0.75,0.08726646259971647,5.0,0.184,0.175,0.174,0.0,0.0,0.0,0.0011510405746241036,0.0,0.005719760751059968,0.0,6.052146327058089,0.0,-0.5205809830301277,0.0,0.13137902096366463,0.0,-3.6484597534210605,0.0,-0.02986888271006179,0.0,-0.007446289435499971,0.37072756866988943,0.04330341950824268,0.10015449194989903,0.0,0.0,0.0,0.34887788717951296,0.10015449194989903,0.0,0.0,0.056475223234518056,0.0,0.0,-0.0036102368167620696,0.0,1.2013962935316336,0.0,4.184940609176909,0.0,0.09484224977744095,0.0,85.68164971519458,-1.4185051744860693,0.0,-4.116421264448743,0.0,0.09484224977744095,0.0
sim_raptor_glider_3dof,raptor_glider_3dof,0.032,-14.619229653017719,0.0,-0.008080142820654224,11.80593720129363,0.0,-0.6304295383456321,0.0,0.0,0.0,-34.22872621357684,-0.5974039711906077,-0.02526500149529045,0.0,0.0,0.0,0.0,0.0,-0.020462491415056752,-1.1724143964054317,0.0,0.0,11.822757487308431,0.008080142820654224,0.03474318224840116,-0.05334869473868455,-3.056655051058405,0.0,0.0,0.0328862033236278,1.8842406546529735,-5.33102915331945,0.0,-12.024354695639675,11.816364893357807,0.0,-0.3887355279990815,0.0,12.594654983375912,0.0,0.0,-0.5974039711906077,0.0,-0.15410460008247379,0.3490658503988659,1.0,0.14,0.14,0.75,0.08726646259971647,5.0,0.184,0.175,0.174,0.0,0.0,0.0,0.0011467660172681754,0.0,0.0057228767994623765,0.0,6.052058898691571,0.0,-0.5206684938853867,0.0,0.13015070757593777,0.0,-3.6475572600259856,0.0,-0.02956332210459567,0.0,-0.00736465855369719,0.3662462766742245,0.043623035060332285,0.10002981726737856,0.0,0.0,0.0,0.3448395378767205,0.10002981726737856,0.0,0.0,0.05652481060835225,0.0,0.0,-0.0035371002093406633,0.0,1.1989504815944045,0.0,4.133222885981595,0.0,0.094850346679804,0.0,85.61379242048709,-1.41764219616662,0.0,-4.063410425512707,0.0,0.094850346679804,0.0
sim_raptor_glider_3dof,raptor_glider_3dof,0.033,-14.607415711861751,0.0,-0.008471368223072664,11.800611265301882,0.0,-0.6422844780998312,0.0,0.0,0.0,-33.5071312385592,-0.5848097630107035,-0.02474216992786069,0.0,0.0,0.0,0.0,0.0,-0.021053598293352717,-1.2062823257729436,0.0,0.0,11.818077491097172,0.008471368223072664,0.03472942928413169,-0.05437441764434314,-3.115424644502538,0.0,0.0,0.033320819350990426,1.9091423187295942,-5.320842113728299,0.0,-11.6855273765485,11.811517428263693,0.0,-0.3937151602373046,0.0,12.593760252821124,0.0,0.0,-0.5848097630107035,0.0,-0.15410460008247379,0.3490658503988659,1.0,0.14,0.14,0.75,0.08726646259971647,5.0,0.184,0.175,0.174,0.0,0.0,0.0,0.0011425625382337772,0.0,0.005725821529673956,0.0,6.051968753480539,0.0,-0.52075236395252,0.0,0.1289548718786921,0.0,-3.6466749716455453,0.0,-0.029266018831578047,0.0,-0.007285930556542785,0.36188356370290964,0.04393383749499478,0.09991095557242997,0.0,0.0,0.0,0.340920126201369,0.09991095557242997,0.0,0.0,0.05656556874981307,0.0,0.0,-0.0034639037899004965,0.0,1.1965779285637244,0.0,4.083010677642706,0.0,0.0948436084639959,0.0,85.54602600943502,-1.416711421836521,0.0,-4.011945124264307,0.0,0.0948436084639959,0.0
sim_raptor_glider_3dof,raptor_glider_3dof,0.034,-14.595606615088723,0.0,-0.00886750432081766,11.795295739156414,0.0,-0.6538027487673997,0.0,0.0,0.0,-32.785629320040954,-0.5722171789731043,-0.024218984241143084,0.0,0.0,0.0,0.0,0.0,-0.02163211164221036,-1.239428699054466,0.0,0.0,11.813401695043526,0.00886750432081766,0.034715688662739205,-0.055372448189004005,-3.172607582536748,0.0,0.0,0.03374033654679365,1.9331788834822823,-5.310064570228379,0.0,-11.352397546930323,11.806678083787576,0.0,-0.3985125271147387,0.0,12.590937997637345,0.0,0.0,-0.5722171789731043,0.0,-0.15410460008247379,0.3490658503988659,1.0,0.14,0.14,0.75,0.08726646259971647,5.0,0.184,0.175,0.174,0.0,0.0,0.0,0.0011384342879754972,0.0,0.005728605496927961,0.0,6.0518762680531575,0.0,-0.5208327297708619,0.0,0.127791082791459,0.0,-3.6458128630961526,0.0,-0.028976848716945676,0.0,-0.00721001794956743,0.35763796424580063,0.04423596526008171,0.09979766929664692,0.0,0.0,0.0,0.33711812281065484,0.09979766929664692,0.0,0.0,0.056597669058929254,0.0,0.0,-0.003390657793760032,0.0,1.1942755757784707,0.0,4.0342819933829785,0.0,0.09482235406020685,0.0,85.4783472110174,-1.4157190874117112,0.0,-3.9620026272799573,0.0,0.09482235406020685,0.0
sim_raptor_glider_3dof,raptor_glider_3dof,0.034999999999999996,-14.583802353281303,0.0,-0.009268342457086345,11.789991292172402,0.0,-0.6649909138098119,0.0,0.0,0.0,-32.06434715880726,-0.5596284304236757,-0.023695538117023535,0.0,0.0,0.0,0.0,0.0,-0.022198034127028286,-1.2718536689660895,0.0,0.0,11.808730142777872,0.009268342457086345,0.03470196051243901,-0.05634330527254141,-3.2282335959338213,0.0,0.0,0.03414527114551312,1.9563799269677316,-5.298735964730627,0.0,-11.024883088917296,11.801846915049353,0.0,-0.40313394633882427,0.0,12.586241772930174,0.0,0.0,-0.5596284304236757,0.0,-0.15410460008247379,0.3490658503988659,1.0,0.14,0.14,0.75,0.08726646259971647,5.0,0.184,0.175,0.174,0.0,0.0,0.0,0.001134384352398193,0.0,0.005731238905988493,0.0,6.051781787081502,0.0,-0.5209097333659793,0.0,0.1266587575635095,0.0,-3.644970783119143,0.0,-0.028695651007950403,0.0,-0.0071368260584695085,0.3535074414130183,0.044529595234087935,0.09968971449696354,0.0,0.0,0.0,0.3334314097713805,0.09968971449696354,0.0,0.0,0.05662133141184508,0.0,0.0,-0.0033173753363832954,0.0,1.192040351438859,0.0,3.9870080568516126,0.0,0.09478698679193714,0.0,85.41075658420446,-1.4146711197979276,0.0,-3.9135532534600608,0.0,0.09478698679193714,0.0
sim_raptor_glider_3dof,raptor_glider_3dof,0.036,-14.572002918584385,0.0,-0.009673715923998967,11.784698434724083,0.0,-0.6758543507107682,0.0,0.0,0.0,-31.3433868454086,-0.547045299178659,-0.023171907542941798,0.0,0.0,0.0,0.0,0.0,-0.022751370520438813,-1.3035575089595033,0.0,0.0,11.804062703186684,0.009673715923998967,0.03468824444793171,-0.05728740895624952,-3.28232675243305,0.0,0.0,0.03453603843581071,1.978769243473547,-5.286893270318278,0.0,-10.702915023349599,11.797023826076305,0.0,-0.40758452835071085,0.0,12.579715860989994,0.0,0.0,-0.547045299178659,0.0,-0.15410460008247379,0.3490658503988659,1.0,0.14,0.14,0.75,0.08726646259971647,5.0,0.184,0.175,0.174,0.0,0.0,0.0,0.0011304157310695734,0.0,0.005733731015226595,0.0,6.051685644679098,0.0,-0.5209835039693469,0.0,0.12555742727458336,0.0,-3.644148651203665,0.0,-0.028422294294343564,0.0,-0.00706627032514131,0.34949035725822714,0.04481487377587548,0.09958686669352303,0.0,0.0,0.0,0.32985828322498384,0.09958686669352303,0.0,0.0,0.056636736362455316,0.0,0.0,-0.003244067056011852,0.0,1.1898693906502973,0.0,3.9411650099379174,0.0,0.09473784014911565,0.0,85.3432521602401,-1.4135730963080733,0.0,-3.8665723714627998,0.0,0.09473784014911565,0.0
sim_raptor_glider_3dof,raptor_glider_3dof,0.037,-14.560208302968125,0.0,-0.010083456734983877,11.779417662125951,0.0,-0.6863985629367965,0.0,0.0,0.0,-30.622851780033553,-0.5344695899117918,-0.022648169499173136,0.0,0.0,0.0,0.0,0.0,-0.02329212734663642,-1.3345405928435154,0.0,0.0,11.799399283268894,0.010083456734983877,0.034674540195917876,-0.058205190642064614,-3.334911769544657,0.0,0.0,0.03491306329542819,2.0003711767011407,-5.274572203065159,0.0,-10.386421935641938,11.79220874008627,0.0,-0.4118694893281954,0.0,12.57140521183115,0.0,0.0,-0.5344695899117918,0.0,-0.15410460008247379,0.3490658503988659,1.0,0.14,0.14,0.75,0.08726646259971647,5.0,0.184,0.175,0.174,0.0,0.0,0.0,0.0011265309222728422,0.0,0.005736090494796005,0.0,6.051588155327087,0.0,-0.5210541671586925,0.0,0.12448660845449266,0.0,-3.6433463632411405,0.0,-0.02815664453471734,0.0,-0.006998267786578718,0.34558500601731834,0.045091950092241116,0.09948890793860939,0.0,0.0,0.0,0.32639697081797325,0.09948890793860939,0.0,0.0,0.05664406772928451,0.0,0.0,-0.003170743729884239,0.0,1.1877599231960203,0.0,3.8967282787885478,0.0,0.0946752526503004,0.0,85.27583252431799,-1.4124302863458245,0.0,-3.8210346242966744,0.0,0.0946752526503004,0.0
sim_raptor_glider_3dof,raptor_glider_3dof,0.038,-14.548418498464926,0.0,-0.010497401527386456,11.774149437550482,0.0,-0.6966289940513506,0.0,0.0,0.0,-29.902843105686802,-0.5219030679015214,-0.022124399384063704,0.0,0.0,0.0,0.0,0.0,-0.02382031280343815,-1.364803390318444,0.0,0.0,11.794739799297114,0.010497401527386456,0.034660847510350326,-0.05909707744342513,-3.3860131190660367,0.0,0.0,0.03527676463998698,2.021209728747593,-5.261807102691218,0.0,-10.075332299629693,11.787401577648968,0.0,-0.41599396673744427,0.0,12.561354048638128,0.0,0.0,-0.5219030679015214,0.0,-0.15410460008247379,0.3490658503988659,1.0,0.14,0.14,0.75,0.08726646259971647,5.0,0.184,0.175,0.174,0.0,0.0,0.0,0.0011227320224685474,0.0,0.005738325423633187,0.0,6.051489615985033,0.0,-0.5211218437465012,0.0,0.12344582137953884,0.0,-3.642563805495594,0.0,-0.027898569546950205,0.0,-0.0069327381899118405,0.34178968234125273,0.04536097149584432,0.09939562839199925,0.0,0.0,0.0,0.32304570210269334,0.09939562839199925,0.0,0.0,0.056643506593905046,0.0,0.0,-0.0030974159137689187,0.0,1.185709286131663,0.0,3.8536733961522867,0.0,0.09459955734029375,0.0,85.20849639780862,-1.4112476603139195,0.0,-3.776914772230007,0.0,0.09459955734029375,0.0
sim_raptor_glider_3dof,raptor_glider_3dof,0.039,-14.536633497199947,0.0,-0.010915392713065011,11.768894185915178,0.0,-0.7065510067523492,0.0,0.0,0.0,-29.183459118871035,-0.5093474487454628,-0.021600670592981937,0.0,0.0,0.0,0.0,0.0,-0.024335937068054342,-1.3943464844954887,0.0,0.0,11.790084167825556,0.010915392713065011,0.03464716614600945,-0.059963490439752,-3.4356549270708503,0.0,0.0,0.03562755337169766,2.0413084425753616,-5.248630948589702,0.0,-9.76957475006546,11.782602249384917,0.0,-0.41996299503683404,0.0,12.549605688984743,0.0,0.0,-0.5093474487454628,0.0,-0.15410460008247379,0.3490658503988659,1.0,0.14,0.14,0.75,0.08726646259971647,5.0,0.184,0.175,0.174,0.0,0.0,0.0,0.0011190207666476198,0.0,0.005740443324037067,0.0,6.0513903069728165,0.0,-0.5211866498032786,0.0,0.12243459217952908,0.0,-3.6418008566277025,0.0,-0.027647939476397106,0.0,-0.006869604041491039,0.3381026903541954,0.04562208287310294,0.09930682628299835,0.0,0.0,0.0,0.31980271794312765,0.09930682628299835,0.0,0.0,0.05663523056679856,0.0,0.0,-0.003024093883017471,0.0,1.1837149210981361,0.0,3.8119761068411937,0.0,0.09451108044374411,0.0,85.1412425081189,-1.4100299007249135,0.0,-3.7341878009307727,0.0,0.09451108044374411,0.0
sim_raptor_glider_3dof,raptor_glider_3dof,0.04,-14.524853291384707,0.0,-0.01133727730717463,11.763652302444177,0.0,-0.7161698977345548,0.0,0.0,0.0,-28.464795847856724,-0.49680440845311075,-0.021077054928463835,0.0,0.0,0.0,0.0,0.0,-0.024839011878166825,-1.4231705478942793,0.0,0.0,11.785432313463147,0.01133727730717463,0.034633495881345754,-0.06080484588855661,-3.48386104335769,0.0,0.0,0.03596583401038979,2.060690495463411,-5.235075424468608,0.0,-9.469078046290445,11.777810663869484,0.0,-0.42378152539196956,0.0,12.536202692618254,0.0,0.0,-0.49680440845311075,0.0,-0.15410460008247379,0.3490658503988659,1.0,0.14,0.14,0.75,0.08726646259971647,5.0,0.184,0.175,0.174,0.0,0.0,0.0,0.001115398554010352,0.0,0.005742451201514175,0.0,6.051290492516619,0.0,-0.5212486969045728,0.0,0.12145245149032591,0.0,-3.641057387119218,0.0,-0.027404626410041,0.0,-0.006808790438491056,0.3345223400104917,0.04587542704706532,0.09922230755935904,0.0,0.0,0.0,0.31666626651665075,0.09922230755935904,0.0,0.0,0.05661941436350543,0.0,0.0,-0.0029507876899849375,0.0,1.1817743712864928,0.0,3.7716123241386685,0.0,0.09441014247810807,0.0,85.07406970090187,-1.4087814154479523,0.0,-3.6928288765813044,0.0,0.09441014247810807,0.0
sim_raptor_glider_3dof,raptor_glider_3dof,0.04,-14.524853291384707,0.0,-0.01133727730717463,11.763652302444177,0.0,-0.7161698977345548,0.0,0.0,0.0,-28.464795847856724,-0.49680440845311075,-0.021077054928463835,0.0,0.0,0.0,0.0,0.0,-0.024839011878166825,-1.4231705478942793,0.0,0.0,11.785432313463147,0.01133727730717463,0.034633495881345754,-0.06080484588855661,-3.48386104335769,0.0,0.0,0.03596583401038979,2.060690495463411,-5.23549850976463,0.0,-9.468021525389442,11.777810663869484,0.0,-0.42378152539196956,0.0,12.548111392431338,0.0,0.0,-0.49680440845311075,0.0,-0.15419366189810046,0.3490658503988659,1.0,0.14,0.14,0.75,0.08726646259971647,5.0,0.184,0.175,0.174,0.0,0.0,0.0,0.001130244479700255,0.0,0.0057481992453314226,0.0,6.051258041130846,0.0,-0.5212466932777949,0.0,0.12145174442835491,0.0,-3.6409320973433057,0.0,-0.027408492909445928,0.0,-0.006811473297781216,0.33449848880954913,0.045929582065475795,0.09923354054332131,0.0,0.0,0.0,0.31664251107285785,0.09923354054332131,0.0,0.0,0.056673199678387465,0.0,0.0,-0.0029507876899849375,0.0,1.1819081602789707,0.0,3.7713293880193266,0.0,0.09449982689640041,0.0,85.07406970090187,-1.4088977639043585,0.0,-3.692538333333528,0.0,0.09449982689640041,0.0
sim_raptor_glider_3dof,raptor_glider_3dof,0.041,-14.513077897261057,0.0,-0.011762913868394679,11.75842382830549,0.0,-0.7254886991514569,0.0,0.0,0.0,-27.746278509332644,-0.48426391516319883,-0.020553128177177384,0.0,0.0,0.0,0.0,0.0,-0.025329482247186206,-1.451272430015314,0.0,0.0,11.780783708168945,0.011762913868394679,0.034619835164621186,-0.061621370651002566,-3.530644466113765,0.0,0.0,0.036291888403816364,2.0793720360984516,-5.221585948892312,0.0,-9.172630309395103,11.77302631769709,0.0,-0.4274530400763576,0.0,12.533014517311297,0.0,0.0,-0.48426391516319883,0.0,-0.15419366189810046,0.3490658503988659,1.0,0.14,0.14,0.75,0.08726646259971647,5.0,0.184,0.175,0.174,0.0,0.0,0.0,0.0011267458641880108,0.0,0.005750113809075455,0.0,6.051157962256006,0.0,-0.5213060661764003,0.0,0.12049844741936215,0.0,-3.640208009357892,0.0,-0.02717243204889305,0.0,-0.0067529249907159195,0.331023902573764,0.04617522301215968,0.09915315471459475,0.0,0.0,0.0,0.3136120710431607,0.09915315471459475,0.0,0.0,0.05664969566526855,0.0,0.0,-0.002877437944804834,0.0,1.1800192987940799,0.0,3.7322896808571016,0.0,0.09438613232987139,0.0,85.00697029118241,-1.407622908374362,0.0,-3.6525374132483,0.0,0.09438613232987139,0.0
sim_raptor_glider_3dof,raptor_glider_3dof,0.042,-14.501307259348899,0.0,-0.01219213265127195,11.753209358405083,0.0,-0.7345161819416491,0.0,0.0,0.0,-27.028666955216696,-0.4717392307935221,-0.020029452783878885,0.0,0.0,0.0,0.0,0.0,-0.025807483826547278,-1.478659903113291,0.0,0.0,11.776138766337418,0.01219213265127195,0.034606185213604326,-0.06241377547001932,-3.576045917909253,0.0,0.0,0.03660629164347204,2.097386014795962,-5.207353466769059,0.0,-8.88233558287866,11.768249513180232,0.0,-0.43098450038044295,0.0,12.516353988096526,0.0,0.0,-0.4717392307935221,0.0,-0.15419366189810046,0.3490658503988659,1.0,0.14,0.14,0.75,0.08726646259971647,5.0,0.184,0.175,0.174,0.0,0.0,0.0,0.0011233367205884235,0.0,0.005751930961237803,0.0,6.051057847643081,0.0,-0.5213628995027405,0.0,0.11957317430658522,0.0,-3.6395030173137717,0.0,-0.02694340325911514,0.0,-0.006696546073638215,0.3276520917033175,0.046413412748274784,0.09907667377820734,0.0,0.0,0.0,0.31068417886005334,0.09907667377820734,0.0,0.0,0.05661902828616471,0.0,0.0,-0.002804123389743044,0.0,1.1781794831579866,0.0,3.6945298153036576,0.0,0.09426066188435495,0.0,84.9399502014149,-1.4063253151092514,0.0,-3.613849271730209,0.0,0.09426066188435495,0.0
sim_raptor_glider_3dof,raptor_glider_3dof,0.043000000000000003,-14.489541394523648,0.0,-0.012624814889300178,11.748009266717503,0.0,-0.7432558931983878,0.0,0.0,0.0,-26.312053817741095,-0.45923197208152605,-0.019506098351426738,0.0,0.0,0.0,0.0,0.0,-0.026272969429078388,-1.5053302635624277,0.0,0.0,11.771497400656148,0.012624814889300178,0.0345925457717128,-0.06318233034121035,-3.6200808683527192,0.0,0.0,0.036909360912131955,2.1147506047902915,-5.192829248392699,0.0,-8.59709224442655,11.763480149990485,0.0,-0.43437980435825746,0.0,12.49816162689977,0.0,0.0,-0.45923197208152605,0.0,-0.15419366189810046,0.3490658503988659,1.0,0.14,0.14,0.75,0.08726646259971647,5.0,0.184,0.175,0.174,0.0,0.0,0.0,0.0011200181846224735,0.0,0.005753656045622841,0.0,6.050957933032459,0.0,-0.5214172825973659,0.0,0.11867562347293152,0.0,-3.638817086586634,0.0,-0.026721322369817873,0.0,-0.0066422784440417935,0.32438195249430657,0.0466442482462589,0.09900393861220237,0.0,0.0,0.0,0.3078576712156158,0.09900393861220237,0.0,0.0,0.056581325602592436,0.0,0.0,-0.0027308537691997435,0.0,1.1763866918659045,0.0,3.6580329276136787,0.0,0.09412365521218218,0.0,84.87300811001077,-1.405008702403869,0.0,-3.5764564997318926,0.0,0.09412365521218218,0.0
sim_raptor_glider_3dof,raptor_glider_3dof,0.044,-14.477780296270133,0.0,-0.013060841992081195,11.742823800151294,0.0,-0.7517122690270176,0.0,0.0,0.0,-25.59651578891079,-0.44674347755520716,-0.018983122817495448,0.0,0.0,0.0,0.0,0.0,-0.026725955002242292,-1.531284425085034,0.0,0.0,11.766859484875539,0.013060841992081195,0.034578916467940694,-0.06392738174866076,-3.66276916951991,0.0,0.0,0.03720142674641847,2.1314847444348763,-5.17803991257851,0.0,-8.316837581203961,11.758718073927618,0.0,-0.43764299913678406,0.0,12.478472673530895,0.0,0.0,-0.44674347755520716,0.0,-0.15419366189810046,0.3490658503988659,1.0,0.14,0.14,0.75,0.08726646259971647,5.0,0.184,0.175,0.174,0.0,0.0,0.0,0.0011167908154237985,0.0,0.00575529421735896,0.0,6.050858431455386,0.0,-0.5214693070197636,0.0,0.11780540314998364,0.0,-3.638150104726928,0.0,-0.026506083507018257,0.0,-0.0065900603356158095,0.32121204604877224,0.046867848937543685,0.09893478850956926,0.0,0.0,0.0,0.30513105962298886,0.09893478850956926,0.0,0.0,0.056536731974855814,0.0,0.0,-0.0026576371944493633,0.0,1.1746388831174663,0.0,3.622778321756147,0.0,0.09397537770436118,0.0,84.80614213615868,-1.4036765176735535,0.0,-3.5403377675088543,0.0,0.09397537770436118,0.0
