name,vehicle,t,north,east,down,u,v,w,p_rad,p_deg,p_hat_div_b,q_deg,q_rad,q_hat_div_c,r_rad,r_deg,r_hat_div_b,phi_rad,phi_deg,theta_rad,theta_deg,psi_rad,psi_deg,speed,altitude,mach,alpha_rad,alpha_deg,beta_rad,beta_deg,gamma_rad,gamma_deg,u_dot,v_dot,w_dot,north_dot,east_dot,down_dot,p_rad_dot,q_rad_dot,r_rad_dot,phi_rad_dot,theta_rad_dot,psi_rad_dot,del_tail_alt_rad,del_tail_splay_rad,DIM_b,DIM_c_bar,DIM_S,DIM_wing_position,DIM_wing_incidence_rad,DIM_wing_incidence_deg,DIM_empennage_length,DIM_nose_length,DIM_tail_length,CDp,CDq,CDr,CYp,CYq,CYr,CLp,CLq,CLr,Clp,Clq,Clr,Cmp,Cmq,Cmr,Cnp,Cnq,Cnr,CL_0,Cm_0,CD_0,Cl_0,CY_0,Cn_0,CL,CD,CY,Cl,Cm,Cn,p_hat,q_hat,r_hat,drag_force_wind,side_force_wind,lift_force_wind,roll_moment_wind,pitch_moment_wind,yaw_moment_wind,qbar,X_total,Y_total,Z_total,L_total,M_total,N_total
sim_raptor_glider_3dof,raptor_glider_3dof,0.0,-15.0,0.0,0.0,12.0,0.0,0.0,0.0,0.0,0.0,0.0,0.0,0.0,0.0,0.0,0.0,0.0,0.0,0.0,0.0,0.0,0.0,12.0,-0.0,0.035264039495724236,0.0,0.0,0.0,0.0,0.0,0.0,-5.726597687033925,0.0,-20.52935526890714,12.0,0.0,0.0,0.0,-38.927126385264344,0.0,0.0,0.0,0.0,0.17009947393902447,0.3490658503988659,1.0,0.14,0.14,0.75,0.08726646259971647,5.0,0.184,0.175,0.174,0.0,0.0,0.0,0.0004632516031389403,0.0,0.008340771521596789,0.0,6.083702171076909,0.0,-0.5142268854479223,0.0,0.1939780599042076,0.0,-3.7658846764486116,0.0,-0.046230870997492596,0.0,-0.013194467825776898,0.6756073790573477,-0.16958219663054958,0.12753596328710815,0.0,0.0,0.0,0.6756073790573477,0.12753596328710815,0.0,0.0,-0.16958219663054958,0.0,0.0,0.0,0.0,1.5748143639343295,0.0,8.342401448949463,0.0,-0.2931601888074258,0.0,88.20001620075907,-1.5748143639343295,0.0,-8.342401448949463,0.0,-0.2931601888074258,0.0
sim_raptor_glider_3dof,raptor_glider_3dof,0.001,-14.988002867008529,0.0,-0.000010196960774705683,11.994261737131977,0.0,-0.020556382903089386,0.0,0.0,0.0,-2.2199133124740875,-0.03874479641152653,-0.001615136486033813,0.0,0.0,0.0,0.0,0.0,-0.000019403541355390986,-0.0011117410272714564,0.0,0.0,11.994279352412391,0.000010196960774705683,0.03524722840051835,-0.0017138497747487167,-0.09819635881254828,0.0,0.0,0.0016944462333933258,0.09708461778527683,-5.749964377422367,0.0,-20.582420725407253,11.994262133740698,0.0,-0.020323651745590452,0.0,-38.56272613829761,0.0,0.0,-0.03874479641152653,0.0,0.17009947393902447,0.3490658503988659,1.0,0.14,0.14,0.75,0.08726646259971647,5.0,0.184,0.175,0.174,0.0,0.0,0.0,0.0004340117982222671,0.0,0.008325634282987257,0.0,6.084772051231034,0.0,-0.5144742201191821,0.0,0.19201193535968797,0.0,-3.766938332168894,0.0,-0.04571538314114416,0.0,-0.012982954137157613,0.6686700302671205,-0.1690067872488783,0.12702157239243744,0.0,0.0,0.0,0.6672941470382405,0.12702157239243744,0.0,0.0,-0.16815501051314874,0.0,0.0,-0.00022611910804473383,0.0,1.5669675834272399,0.0,8.231895396391007,0.0,-0.2904158905475193,0.0,88.11594271033631,-1.581073507279929,0.0,-8.229197760973593,0.0,-0.2904158905475193,0.0
sim_raptor_glider_3dof,raptor_glider_3dof,0.002,-14.976011482650781,0.0,-0.00004051084579639964,11.988500008023559,0.0,-0.04116295597821651,0.0,0.0,0.0,-4.418992234199469,-0.0771259641068411,-0.003216645511677862,0.0,0.0,0.0,0.0,0.0,-0.00007736920070618804,-0.004432928664765163,0.0,0.0,11.988570675077398,0.00004051084579639964,0.035230452481934224,-0.003433523309230917,-0.1967263944787234,0.0,0.0,0.0033561541085247288,0.19229346581395823,-5.773524907016647,0.0,-20.62977989401505,11.988503156887019,0.0,-0.04023541519265438,0.0,-38.19986772029459,0.0,0.0,-0.0771259641068411,0.0,0.17009947393902447,0.3490658503988659,1.0,0.14,0.14,0.75,0.08726646259971647,5.0,0.184,0.175,0.174,0.0,0.0,0.0,0.0004046827133819989,0.0,0.008310142817154507,0.0,6.085831997391619,0.0,-0.5147184529770323,0.0,0.19003786420689991,0.0,-3.7679844543905925,0.0,-0.04519857667042099,0.0,-0.01277266630990911,0.661684455072189,-0.16842825698432287,0.1265106955693172,0.0,0.0,0.0,0.6589438200870961,0.1265106955693172,0.0,0.0,-0.16673141914466263,0.0,0.0,-0.0004503303716349007,0.0,1.5591800446511854,0.0,8.121147782821932,0.0,-0.28768320380153856,0.0,88.03208510410013,-1.5870549494312394,0.0,-8.115746441921276,0.0,-0.28768320380153856,0.0
sim_raptor_glider_3dof,raptor_glider_3dof,0.003,-14.96402586693414,0.0,-0.00009053027421350142,11.982714633211922,0.0,-0.06181409028495101,0.0,0.0,0.0,-6.597325825284634,-0.11514505747806902,-0.004804567619226214,0.0,0.0,0.0,0.0,0.0,-0.0001735348579935771,-0.009942814961434045,0.0,0.0,11.982874069385394,0.00009053027421350142,0.03521371203792469,-0.005158559130381269,-0.2955636665395229,0.0,0.0,0.0049850242723876925,0.28562085157808886,-5.797251459713112,0.0,-20.67156396008071,11.982725179685437,0.0,-0.059734670682390266,0.0,-37.83858221402032,0.0,0.0,-0.11514505747806902,0.0,0.17009947393902447,0.3490658503988659,1.0,0.14,0.14,0.75,0.08726646259971647,5.0,0.184,0.175,0.174,0.0,0.0,0.0,0.00037527938779976074,0.0,0.008294313436743464,0.0,6.086881560759496,0.0,-0.5149594970631985,0.0,0.18805638050464696,0.0,-3.7690226466187142,0.0,-0.04468059359672764,0.0,-0.012563689770431171,0.6546529482830372,-0.16784677014489888,0.12600357733673143,0.0,0.0,0.0,0.6505586715161926,0.12600357733673143,0.0,0.0,-0.16531157676192842,0.0,0.0,-0.00067263946669167,0.0,1.5514546100514774,0.0,8.010187261076565,0.0,-0.28496236265378705,0.0,87.94844461923357,-1.5927548087937473,0.0,-8.002077447989844,0.0,-0.28496236265378705,0.0
sim_raptor_glider_3dof,raptor_glider_3dof,0.004,-14.952046037871263,0.0,-0.00015984249649655767,11.976905459718049,0.0,-0.08250427333632779,0.0,0.0,0.0,-8.755005037796323,-0.15280366393823644,-0.006378944840355046,0.0,0.0,0.0,0.0,0.0,-0.0003075392036885358,-0.01762069840616726,0.0,0.0,11.97718962637491,0.00015984249649655767,0.03519700733602195,-0.006888504599619689,-0.3946822407146631,0.0,0.0,0.006580965395931154,0.37706154230849587,-5.821116755515628,0.0,-20.70790394958709,11.97693026662615,0.0,-0.07882090152501361,0.0,-37.47890004681337,0.0,0.0,-0.15280366393823644,0.0,0.17009947393902447,0.3490658503988659,1.0,0.14,0.14,0.75,0.08726646259971647,5.0,0.184,0.175,0.174,0.0,0.0,0.0,0.0003458168244001902,0.0,0.008278162954996999,0.0,6.087920311460363,0.0,-0.5151972710552315,0.0,0.18606800977448798,0.0,-3.770052529105598,0.0,-0.044161572812426726,0.0,-0.012356107029183074,0.6475778041374809,-0.16726248963369994,0.12550045536950719,0.0,0.0,0.0,0.6421409730371813,0.12550045536950719,0.0,0.0,-0.16389563563572315,0.0,0.0,-0.0008930522776497066,0.0,1.543794044038916,0.0,7.899042331674429,0.0,-0.28225359625255153,0.0,87.86502233873915,-1.5981695756244862,0.0,-7.8882205734590665,0.0,-0.28225359625255153,0.0
sim_raptor_glider_3dof,raptor_glider_3dof,0.005,-14.94007201138181,0.0,-0.0002480342729840622,11.971072362233512,0.0,-0.10322812650012125,0.0,0.0,0.0,-10.8921225924308,-0.19010340176877785,-0.007939820615869909,0.0,0.0,0.0,0.0,0.0,-0.0004790225586120763,-0.02744597090003008,0.0,0.0,11.971517428794554,0.0002480342729840622,0.035180338619396845,-0.008622917384925188,-0.494056773246198,0.0,0.0,0.008143894826313112,0.4666108023461679,-5.84509409939026,0.0,-20.738930345823945,11.97112043737616,0.0,-0.09749370116364191,0.0,-37.120850882707614,0.0,0.0,-0.19010340176877785,0.0,0.17009947393902447,0.3490658503988659,1.0,0.14,0.14,0.75,0.08726646259971647,5.0,0.184,0.175,0.174,0.0,0.0,0.0,0.00031630994750460854,0.0,0.008261708628846098,0.0,6.088947839246248,0.0,-0.5154316993507736,0.0,0.18407326724319933,0.0,-3.771073739531303,0.0,-0.04364164965974712,0.0,-0.012149997516741635,0.6404613081544298,-0.1666755763787708,0.12500156004321622,0.0,0.0,0.0,0.6336929866528093,0.12500156004321622,0.0,0.0,-0.16248374551581735,0.0,0.0,-0.0011115748862217873,0.0,1.5362010084663318,0.0,7.7877412475294765,0.0,-0.2795571279976711,0.0,87.781819222052,-1.6032961141392603,0.0,-7.774205351498691,0.0,-0.2795571279976711,0.0
sim_raptor_glider_3dof,raptor_glider_3dof,0.006,-14.928103801342811,0.0,-0.00035469200125607054,11.965215242439935,0.0,-0.12398040418045675,0.0,0.0,0.0,-13.008772925401509,-0.22704591919255102,-0.009487239766090163,0.0,0.0,0.0,0.0,0.0,-0.0006876269119326143,-0.039398119933352745,0.0,0.0,11.965857551322333,0.00035469200125607054,0.035163706107503405,-0.01036136541452539,-0.5936625082451236,0.0,0.0,0.009673738502592776,0.5542643883117708,-5.869157407743326,0.0,-20.764772995089185,11.965297665934827,0.0,-0.11575277151019227,0.0,-36.76446361358303,0.0,0.0,-0.22704591919255102,0.0,0.17009947393902447,0.3490658503988659,1.0,0.14,0.14,0.75,0.08726646259971647,5.0,0.184,0.175,0.174,0.0,0.0,0.0,0.00028677358673594226,0.0,0.008244968115757471,0.0,6.089963753231195,0.0,-0.515662711928724,0.0,0.18207265782637402,0.0,-3.7720859327366623,0.0,-0.04312095595687146,0.0,-0.011945437610082097,0.6333057351463208,-0.1660861892723167,0.12450711444268132,0.0,0.0,0.0,0.6252169626652024,0.12450711444268132,0.0,0.0,-0.1610760535596131,0.0,0.0,-0.0013282135672526229,0.0,1.5286780633401045,0.0,7.676311991749034,0.0,-0.27687317547389384,0.0,87.69883610855562,-1.6081316566806718,0.0,-7.660061030487208,0.0,-0.27687317547389384,0.0
sim_raptor_glider_3dof,raptor_glider_3dof,0.007,-14.916141419732808,0.0,-0.0004794018470708494,11.959334027105985,0.0,-0.14475598705332557,0.0,0.0,0.0,-15.10505206296757,-0.2636328921839459,-0.011021248409188654,0.0,0.0,0.0,0.0,0.0,-0.0009329958764584226,-0.053456726024176775,0.0,0.0,11.960210059513287,0.0004794018470708494,0.03514710999298624,-0.012103426334613324,-0.6934752466208391,0.0,0.0,0.011170430458154901,0.6400185205966624,-5.893281223699602,0.0,-20.78556108903754,11.959463878637433,0.0,-0.1335979163359674,0.0,-36.40976638763969,0.0,0.0,-0.2636328921839459,0.0,0.17009947393902447,0.3490658503988659,1.0,0.14,0.14,0.75,0.08726646259971647,5.0,0.184,0.175,0.174,0.0,0.0,0.0,0.0002572224697114656,0.0,0.008227959436038799,0.0,6.090967681331667,0.0,-0.5158902441442643,0.0,0.18006667668328127,0.0,-3.7730887801641058,0.0,-0.042599620172650274,0.0,-0.011742500718268125,0.626113349310426,-0.16549448527877417,0.12401733451467116,0.0,0.0,0.0,0.6167151398088645,0.12401733451467116,0.0,0.0,-0.15967270445851858,0.0,0.0,-0.001542974777286412,0.0,1.521227668970723,0.0,7.564782280007866,0.0,-0.27420195066531455,0.0,87.61607370245503,-1.6126737953854666,0.0,-7.54581657572195,0.0,-0.27420195066531455,0.0
sim_raptor_glider_3dof,raptor_glider_3dof,0.008,-14.904184876633265,0.0,-0.0006217498318832311,11.953428668064456,0.0,-0.16554988427911185,0.0,0.0,0.0,-17.181057618040118,-0.2998660244096544,-0.012541893966996278,0.0,0.0,0.0,0.0,0.0,-0.001214774750501565,-0.06960146626279726,0.0,0.0,11.954575010709918,0.0006217498318832311,0.03513055044435604,-0.013848687715377646,-0.7934713578858094,0.0,0.0,0.01263391296487608,0.7238698916230121,-5.917440742999556,0.0,-20.801423039186567,11.95362095413142,0.0,-0.1510290423734225,0.0,-36.05678658191084,0.0,0.0,-0.2998660244096544,0.0,0.17009947393902447,0.3490658503988659,1.0,0.14,0.14,0.75,0.08726646259971647,5.0,0.184,0.175,0.174,0.0,0.0,0.0,0.00022767120239599207,0.0,0.008210700928735505,0.0,6.091959270142466,0.0,-0.5161142366241921,0.0,0.17805580891143727,0.0,-3.774081969733715,0.0,-0.04207776737714019,0.0,-0.011541257280635299,0.6188864012851111,-0.16490061929025254,0.12353242900956615,0.0,0.0,0.0,0.6081897422746769,0.12353242900956615,0.0,0.0,-0.15827384026605115,0.0,0.0,-0.001755865155379479,0.0,1.5138521860266572,0.0,7.453179527379088,0.0,-0.2715436597483706,0.0,87.53353258643565,-1.6169204769400047,0.0,-7.431500634443394,0.0,-0.2715436597483706,0.0
sim_raptor_glider_3dof,raptor_glider_3dof,0.009000000000000001,-14.892234180262097,0.0,-0.0007813219327971236,11.947499141734776,0.0,-0.1863572335588805,0.0,0.0,0.0,-19.236888757176555,-0.33574704665261085,-0.014049225148843684,0.0,0.0,0.0,0.0,0.0,-0.0015326105564153695,-0.08781211651979742,0.0,0.0,11.948952454514702,0.0007813219327971236,0.03511402760737812,-0.015596747077217617,-0.8936277816575717,0.0,0.0,0.014064136520802248,0.8058156651377744,-5.941611834152322,0.0,-20.812486379464318,11.947770722977925,0.0,-0.1680461585531211,0.0,-35.70555078874475,0.0,0.0,-0.33574704665261085,0.0,0.17009947393902447,0.3490658503988659,1.0,0.14,0.14,0.75,0.08726646259971647,5.0,0.184,0.175,0.174,0.0,0.0,0.0,0.00019813425296459983,0.0,0.008193211209864375,0.0,6.092938184690278,0.0,-0.5163346351349828,0.0,0.17604052944772436,0.0,-3.775065205601567,0.0,-0.04155551924643165,0.0,-0.011341774788955029,0.6116271259695426,-0.16430474404290416,0.12305259948239929,0.0,0.0,0.0,0.5996429775170845,0.12305259948239929,0.0,0.0,-0.15687960029939543,0.0,0.0,-0.001966891520838116,0.0,1.5065538761983253,0.0,7.341530824325942,0.0,-0.26889850299003676,0.0,87.4512132288723,-1.6208699960177326,0.0,-7.317141510345801,0.0,-0.26889850299003676,0.0
sim_raptor_glider_3dof,raptor_glider_3dof,0.01,-14.880289337030947,0.0,-0.0009577041862300031,11.941545448324705,0.0,-0.20717329965548936,0.0,0.0,0.0,-21.27264614794274,-0.37127771589328956,-0.015543291920913995,0.0,0.0,0.0,0.0,0.0,-0.0018861520605630295,-0.10806855259016523,0.0,0.0,11.943342432941234,0.0009577041862300031,0.03509754160551657,-0.017347211788819646,-0.9939220218189528,0.0,0.0,0.015461059728256617,0.8858534692287876,-5.965771053919212,0.0,-20.818877690037578,11.941914967005843,0.0,-0.18464937394007722,0.0,-35.35608481233199,0.0,0.0,-0.37127771589328956,0.0,0.17009947393902447,0.3490658503988659,1.0,0.14,0.14,0.75,0.08726646259971647,5.0,0.184,0.175,0.174,0.0,0.0,0.0,0.0001686259383049799,0.0,0.008175509132715376,0.0,6.093904108103786,0.0,-0.5165513904330524,0.0,0.17402130311744998,0.0,-3.7760382078377184,0.0,-0.04103299410600414,0.0,-0.011144117826249448,0.604337740911016,-0.16370701007750568,0.12257804033524482,0.0,0.0,0.0,0.591077034642372,0.12257804033524482,0.0,0.0,-0.15549012109385316,0.0,0.0,-0.0021760608689279596,0.0,1.4993349032795387,0.0,7.229862919512364,0.0,-0.26626667472167226,0.0,87.36911598631559,-1.6245209878057802,0.0,-7.20276714515405,0.0,-0.26626667472167226,0.0
sim_raptor_glider_3dof,raptor_glider_3dof,0.01,-14.880289337030947,0.0,-0.0009577041862300031,11.941545448324705,0.0,-0.20717329965548936,0.0,0.0,0.0,-21.27264614794274,-0.37127771589328956,-0.015543291920913995,0.0,0.0,0.0,0.0,0.0,-0.0018861520605630295,-0.10806855259016523,0.0,0.0,11.943342432941234,0.0009577041862300031,0.03509754160551657,-0.017347211788819646,-0.9939220218189528,0.0,0.0,0.015461059728256617,0.8858534692287876,-4.688072980333891,0.0,-18.340252674446653,11.941914967005843,0.0,-0.18464937394007722,0.0,-6.2076762265805545,0.0,0.0,-0.37127771589328956,0.0,-0.03947309156270401,0.3490658503988659,1.0,0.14,0.14,0.75,0.08726646259971647,5.0,0.184,0.175,0.174,0.0,0.0,0.0,-0.008700959671222745,0.0,0.0011426770463712405,0.0,6.07974464193164,0.0,-0.5173968006710304,0.0,0.1728042449393799,0.0,-3.7819269296537517,0.0,-0.03747098313178148,0.0,-0.00852020112403768,0.548091064500723,-0.035530020340115084,0.0948230171319244,0.0,0.0,0.0,0.5348611700923411,0.0948230171319244,0.0,0.0,-0.027300317139350692,0.0,0.0,-0.0021760608689279596,0.0,1.159844445476009,0.0,6.542248664892392,0.0,-0.04675000966237816,0.0,87.36911598631559,-1.273154017569817,0.0,-6.521145265866545,0.0,-0.04675000966237816,0.0
sim_raptor_glider_3dof,raptor_glider_3dof,0.011,-14.868349716431815,0.0,-0.0011492541802088634,11.936848843530564,0.0,-0.22539033706535624,0.0,0.0,0.0,-21.62393649665212,-0.3774088891087473,-0.01580574714483196,0.0,0.0,0.0,0.0,0.0,-0.0022605059125618246,-0.12951744835416126,0.0,0.0,11.938976552340632,0.0011492541802088634,0.03508471172335546,-0.01887965240324649,-1.0817244013800456,0.0,0.0,0.016619146490684664,0.9522069530258843,-4.705020872968709,0.0,-18.094167861380043,11.937327841324961,0.0,-0.1984064667981472,0.0,-6.055040628710992,0.0,0.0,-0.3774088891087473,0.0,-0.03947309156270401,0.3490658503988659,1.0,0.14,0.14,0.75,0.08726646259971647,5.0,0.184,0.175,0.174,0.0,0.0,0.0,-0.00875950224105043,0.0,0.001132973180609418,0.0,6.080089553634481,0.0,-0.5175949422763564,0.0,0.1710318405731862,0.0,-3.7814553383188323,0.0,-0.03700438676841438,0.0,-0.008354968311205626,0.5417135803912649,-0.035016152334499964,0.09448749262606214,0.0,0.0,0.0,0.5282595302568897,0.09448749262606214,0.0,0.0,-0.02664853056612802,0.0,0.0,-0.0022128046002764744,0.0,1.1548956125598078,0.0,6.456776413794999,0.0,-0.045600510974822484,0.0,87.30525222077738,-1.2765842451090121,0.0,-6.433822984726014,0.0,-0.045600510974822484,0.0
sim_raptor_glider_3dof,raptor_glider_3dof,0.012,-14.856414683819002,0.0,-0.0013544065848934421,11.932135725201634,0.0,-0.24336228736305127,0.0,0.0,0.0,-21.966552380238216,-0.38338866434695423,-0.016062042766310777,0.0,0.0,0.0,0.0,0.0,-0.002640916407091696,-0.15131336417320737,0.0,0.0,11.934617219146315,0.0013544065848934421,0.035071901081860514,-0.020392707303004205,-1.1684160613077526,0.0,0.0,0.017751790895912507,1.0171026971345452,-4.721078361170926,0.0,-17.850038686285377,11.932736813957128,0.0,-0.21184970232692285,0.0,-5.904895917225359,0.0,0.0,-0.38338866434695423,0.0,-0.03947309156270401,0.3490658503988659,1.0,0.14,0.14,0.75,0.08726646259971647,5.0,0.184,0.175,0.174,0.0,0.0,0.0,-0.008817213666300484,0.0,0.0011231537717701187,0.0,6.080419156523914,0.0,-0.5177877432695142,0.0,0.16928090331615675,0.0,-3.7809810533011667,0.0,-0.03654404722218078,0.0,-0.00819337790184088,0.535404342985643,-0.034508963886766365,0.09416058514066444,0.0,0.0,0.0,0.5217313896315574,0.09416058514066444,0.0,0.0,-0.02600672477402359,0.0,0.0,-0.002248685987283509,0.0,1.1500595956256425,0.0,6.3723286138091995,0.0,-0.044469771152624175,0.0,87.24150752731876,-1.279760496202476,0.0,-6.347552450214309,0.0,-0.044469771152624175,0.0
sim_raptor_glider_3dof,raptor_glider_3dof,0.013000000000000001,-14.844484243752147,0.0,-0.001572853253919676,11.927406967726586,0.0,-0.2610910616441035,0.0,0.0,0.0,-22.300633391440677,-0.38921947796082923,-0.01631227394469831,0.0,0.0,0.0,0.0,0.0,-0.0030272350839331197,-0.17344779390329929,0.0,0.0,11.930264268499803,0.001572853253919676,0.03505910919656705,-0.021886514963329627,-1.2540049356487113,0.0,0.0,0.018859279879396507,1.080557141745412,-4.736265744776089,0.0,-17.607898247944618,11.928142698296314,0.0,-0.22498285562126105,0.0,-5.757214033399756,0.0,0.0,-0.38921947796082923,0.0,-0.03947309156270401,0.3490658503988659,1.0,0.14,0.14,0.75,0.08726646259971647,5.0,0.184,0.175,0.174,0.0,0.0,0.0,-0.008874105230820533,0.0,0.0011132311759541771,0.0,6.08073390207334,0.0,-0.5179753361907986,0.0,0.1675513192078485,0.0,-3.7805043533336797,0.0,-0.036089907277716354,0.0,-0.00803536137211153,0.5291636719238713,-0.03400840852286557,0.09384212914825557,0.0,0.0,0.0,0.5152769883165104,0.09384212914825557,0.0,0.0,-0.02537480135036707,0.0,0.0,-0.002283718352257764,0.0,1.1453340943447032,0.0,6.288905719709229,0.0,-0.043357578885533564,0.0,87.17787939170981,-1.28269102710536,0.0,-6.262334154933227,0.0,-0.043357578885533564,0.0
sim_raptor_glider_3dof,raptor_glider_3dof,0.014,-14.83255839905893,0.0,-0.001804275145066576,11.922663462304186,0.0,-0.27857873070174377,0.0,0.0,0.0,-22.626324773846438,-0.3949038649291817,-0.01655654008393533,0.0,0.0,0.0,0.0,0.0,-0.0034193089570728487,-0.19591197209155342,0.0,0.0,11.925917580822142,0.001804275145066576,0.035046335716072005,-0.02336122728855574,-1.3384997278800916,0.0,0.0,0.019941918331482893,1.1425877557885384,-4.750603494813366,0.0,-17.367776276944493,11.923546309319407,0.0,-0.23780991164824974,0.0,-5.611965450064883,0.0,0.0,-0.3949038649291817,0.0,-0.03947309156270401,0.3490658503988659,1.0,0.14,0.14,0.75,0.08726646259971647,5.0,0.184,0.175,0.174,0.0,0.0,0.0,-0.008930188458282662,0.0,0.0011032171380645054,0.0,6.081034234847149,0.0,-0.5181578523043696,0.0,0.16584295716444458,0.0,-3.7800255060075814,0.0,-0.03564190606221349,0.0,-0.007880849702319724,0.5229917870397403,-0.03351443490916931,0.0935319578500437,0.0,0.0,0.0,0.508896462851196,0.0935319578500437,0.0,0.0,-0.024752654775977566,0.0,0.0,-0.0023179156117509466,0.0,1.1407168087785824,0.0,6.206506978427947,0.0,-0.042263711804438636,0.0,87.11436596488925,-1.285383984009207,0.0,-6.17816734353784,0.0,-0.042263711804438636,0.0
sim_raptor_glider_3dof,raptor_glider_3dof,0.015,-14.820637151579367,0.0,-0.0020483726475553125,11.917906035462975,0.0,-0.29582729844513667,0.0,0.0,0.0,-22.943763046900433,-0.4004442079658187,-0.016794934433404695,0.0,0.0,0.0,0.0,0.0,-0.003816995010761503,-0.21869770453912635,0.0,0.0,11.921576995541745,0.0020483726475553125,0.03503358016850846,-0.02481699078682019,-1.421908832299845,0.0,0.0,0.020999995776058687,1.2032111277607187,-4.764111697424542,0.0,-17.12969982816295,11.918948385475217,0.0,-0.2503346660130823,0.0,-5.469121771162416,0.0,0.0,-0.4004442079658187,0.0,-0.03947309156270401,0.3490658503988659,1.0,0.14,0.14,0.75,0.08726646259971647,5.0,0.184,0.175,0.174,0.0,0.0,0.0,-0.008985474403793915,0.0,0.0010931229308152087,0.0,6.08132058854101,0.0,-0.5183354192555678,0.0,0.16415569080828538,0.0,-3.7795447737473724,0.0,-0.03519998476347108,0.0,-0.007729775387640359,0.516888888557873,-0.03302699318359625,0.09322990727564685,0.0,0.0,0.0,0.5025899352804445,0.09322990727564685,0.0,0.0,-0.024140184250747616,0.0,0.0,-0.0023512908206766575,0.0,1.1362054727422934,0.0,6.125131427219625,0.0,-0.04118795605862416,0.0,87.05096480183491,-1.2878473334189577,0.0,-6.0950510352915614,0.0,-0.04118795605862416,0.0
sim_raptor_glider_3dof,raptor_glider_3dof,0.016,-14.808720502511699,0.0,-0.0023048452470679224,11.913135507423732,0.0,-0.3128388220164218,0.0,0.0,0.0,-23.25308523542397,-0.4058428986050291,-0.017027550751481667,0.0,0.0,0.0,0.0,0.0,-0.004220150314693465,-0.24179680194274172,0.0,0.0,11.917242371740231,0.0023048452470679224,0.03502084213976382,-0.026253956541424824,-1.504240905343522,0.0,0.0,0.02203380622673136,1.2624441034007803,-4.776810355845079,0.0,-16.893693392783867,11.914349646017405,0.0,-0.26256096291274106,0.0,-5.328654238200445,0.0,0.0,-0.4058428986050291,0.0,-0.03947309156270401,0.3490658503988659,1.0,0.14,0.14,0.75,0.08726646259971647,5.0,0.184,0.175,0.174,0.0,0.0,0.0,-0.00903997404272103,0.0,0.0010829593039986575,0.0,6.081593388177613,0.0,-0.5185081623667916,0.0,0.1624893869623958,0.0,-3.7790624106670747,0.0,-0.034764083590614225,0.0,-0.007582071389677062,0.51085511703719,-0.03254603163528544,0.09293581420689435,0.0,0.0,0.0,0.49635746742780024,0.09293581420689435,0.0,0.0,-0.0235372868565944,0.0,0.0,-0.0023838571052074336,0.0,1.1317978400026263,0.0,6.0447774014582585,0.0,-0.040130095067887554,0.0,86.98767374798898,-1.2900888978344582,0.0,-6.012983520640926,0.0,-0.040130095067887554,0.0
sim_raptor_glider_3dof,raptor_glider_3dof,0.017,-14.796808452330483,0.0,-0.0025733963714065283,11.90835267796989,0.0,-0.3296153824983605,0.0,0.0,0.0,-23.554426672959096,-0.4111022988627098,-0.017254481715810066,0.0,0.0,0.0,0.0,0.0,-0.004628634380115359,-0.26520121488976206,0.0,0.0,11.912913573231874,0.0025733963714065283,0.03500812122963318,-0.027672277790480457,-1.5855047269081333,0.0,0.0,0.0230436434103651,1.320303512018371,-4.7887192945768176,0.0,-16.659778974104576,11.909750778042074,0.0,-0.2744926378218541,0.0,-5.190534094700083,0.0,0.0,-0.4111022988627098,0.0,-0.03947309156270401,0.3490658503988659,1.0,0.14,0.14,0.75,0.08726646259971647,5.0,0.184,0.175,0.174,0.0,0.0,0.0,-0.009093698187154128,0.0,0.0010727365151503548,0.0,6.081853049664346,0.0,-0.5186762043697152,0.0,0.16084390848945984,0.0,-3.7785786633601823,0.0,-0.03433414250307563,0.0,-0.007437671402208399,0.5048905650086976,-0.03207149753647685,0.0926495167528712,0.0,0.0,0.0,0.4901990738945828,0.0926495167528712,0.0,0.0,-0.02294385923225909,0.0,0.0,-0.002415627440213409,0.0,1.1274916883004098,0.0,5.965442679025874,0.0,-0.039089912267186326,0.0,86.92449072098441,-1.2921163442978105,0.0,-5.931962509720402,0.0,-0.039089912267186326,0.0
sim_raptor_glider_3dof,raptor_glider_3dof,0.018000000000000002,-14.784901000797896,0.0,-0.002853733502510172,11.903558325996206,0.0,-0.34615908316281147,0.0,0.0,0.0,-23.847920949985383,-0.4162247403325789,-0.01747581888284178,0.0,0.0,0.0,0.0,0.0,-0.0050423092038523794,-0.2889030363807116,0.0,0.0,11.908590467861833,0.002853733502510172,0.03499541704975707,-0.02907210979037602,-1.6657091925295064,0.0,0.0,0.02402980058652364,1.3768061561487948,-4.799858139651262,0.0,-16.42797617626824,11.905152436768038,0.0,-0.2861335152787027,0.0,-5.054732604930956,0.0,0.0,-0.4162247403325789,0.0,-0.03947309156270401,0.3490658503988659,1.0,0.14,0.14,0.75,0.08726646259971647,5.0,0.184,0.175,0.174,0.0,0.0,0.0,-0.00914665748925798,0.0,0.0010624643450207407,0.0,6.082099979847251,0.0,-0.5188396654277255,0.0,0.1592191144869961,0.0,-3.778093770973788,0.0,-0.033910101244895616,0.0,-0.007296509872688193,0.49899527904336327,-0.03160333720827607,0.09237085443045136,0.0,0.0,0.0,0.4841147241688428,0.09237085443045136,0.0,0.0,-0.022359797663325784,0.0,0.0,-0.0024466146435978492,0.0,1.1232848200743488,0.0,5.887124506819228,0.0,-0.038067191247735034,0.0,86.86141370027227,-1.293937182220834,0.0,-5.851985160120231,0.0,-0.038067191247735034,0.0
sim_raptor_glider_3dof,raptor_glider_3dof,0.019000000000000003,-14.77299814707739,0.0,-0.0031455677204274032,11.89875321202652,0.0,-0.3624720443089375,0.0,0.0,0.0,-24.133700106016335,-0.4212125275388896,-0.017691652821977315,0.0,0.0,0.0,0.0,0.0,-0.005461038962950457,-0.3128944843335611,0.0,0.0,11.904272929650803,0.0031455677204274032,0.034982729229923896,-0.030453609385333164,-1.7448632887195834,0.0,0.0,0.024992570422382707,1.4319688043860224,-4.810246303976818,0.0,-16.198302402568935,11.900555248644924,0.0,-0.29748740740857615,0.0,-4.921221076112372,0.0,0.0,-0.4212125275388896,0.0,-0.03947309156270401,0.3490658503988659,1.0,0.14,0.14,0.75,0.08726646259971647,5.0,0.184,0.175,0.174,0.0,0.0,0.0,-0.009198862433361465,0.0,0.0010521521150532545,0.0,6.082334576522739,0.0,-0.5189986631260095,0.0,0.15761486082367593,0.0,-3.7776079653930403,0.0,-0.03349189946787305,0.0,-0.007158522051494781,0.49316926302260666,-0.03114149618395718,0.09209966829781507,0.0,0.0,0.0,0.47810434578811384,0.09209966829781507,0.0,0.0,-0.021784998176979414,0.0,0.0,-0.002476831395076824,0.0,1.119175064364722,0.0,5.809819642783227,0.0,-0.03706171592420227,0.0,86.79844075828018,-1.2955587616360191,0.0,-5.773048120491786,0.0,-0.03706171592420227,0.0
sim_raptor_glider_3dof,raptor_glider_3dof,0.02,-14.761099889718308,0.0,-0.0034486139208400384,11.893938077230196,0.0,-0.37855640263980417,0.0,0.0,0.0,-24.41189453369835,-0.42606793626264206,-0.01790207304374415,0.0,0.0,0.0,0.0,0.0,-0.005884690131565669,-0.33716790828099796,0.0,0.0,11.899960837539169,0.0034486139208400384,0.034970057414379405,-0.03181693496491085,-1.8229760905316117,0.0,0.0,0.02593224483334518,1.4858081822506137,-4.819902970977702,0.0,-15.970772911802541,11.895959811066211,0.0,-0.3085581119716426,0.0,-4.789970872692437,0.0,0.0,-0.42606793626264206,0.0,-0.03947309156270401,0.3490658503988659,1.0,0.14,0.14,0.75,0.08726646259971647,5.0,0.184,0.175,0.174,0.0,0.0,0.0,-0.009250323342589585,0.0,0.0010418087018923968,0.0,6.082557228529171,0.0,-0.5191533125093769,0.0,0.15603100022547178,0.0,-3.7771214713013226,0.0,-0.0330794767369585,0.0,-0.007023643999887776,0.48741247974120255,-0.0306859192417092,0.09183580100433593,0.0,0.0,0.0,0.4721678260094989,0.09183580100433593,0.0,0.0,-0.021219356615302908,0.0,0.0,-0.0025062902261241814,0.0,1.115160277051607,0.0,5.733524376215192,0.0,-0.036073270642246746,0.0,86.73557004193322,-1.2969882720167,0.0,-5.695147551944441,0.0,-0.036073270642246746,0.0
sim_raptor_glider_3dof,raptor_glider_3dof,0.02,-14.761099889718308,0.0,-0.0034486139208400384,11.893938077230196,0.0,-0.37855640263980417,0.0,0.0,0.0,-24.41189453369835,-0.42606793626264206,-0.01790207304374415,0.0,0.0,0.0,0.0,0.0,-0.005884690131565669,-0.33716790828099796,0.0,0.0,11.899960837539169,0.0034486139208400384,0.034970057414379405,-0.03181693496491085,-1.8229760905316117,0.0,0.0,0.02593224483334518,1.4858081822506137,-4.823076415638148,0.0,-15.960002419116073,11.895959811066211,0.0,-0.3085581119716426,0.0,-4.666234102338358,0.0,0.0,-0.42606793626264206,0.0,-0.04041719642784675,0.3490658503988659,1.0,0.14,0.14,0.75,0.08726646259971647,5.0,0.184,0.175,0.174,0.0,0.0,0.0,-0.009420042510455764,0.0,0.0010838185680544072,0.0,6.082404708030412,0.0,-0.5191870300251492,0.0,0.15602925584899413,0.0,-3.776604401496204,0.0,-0.03302878044490779,0.0,-0.0070389691856216855,0.4871705896620611,-0.030136474959250113,0.09191539249093948,0.0,0.0,0.0,0.4719263181909928,0.09191539249093948,0.0,0.0,-0.020671208259842613,0.0,0.0,-0.0025062902261241814,0.0,1.116126754866153,0.0,5.730591751652113,0.0,-0.03514140902471017,0.0,86.73557004193322,-1.297860969298323,0.0,-5.6921856664556625,0.0,-0.03514140902471017,0.0
sim_raptor_glider_3dof,raptor_glider_3dof,0.021,-14.749206232842731,0.0,-0.00376258285341106,11.889110525420989,0.0,-0.3944028679947692,0.0,0.0,0.0,-24.675566357312817,-0.4306698777294522,-0.018101989246139618,0.0,0.0,0.0,0.0,0.0,-0.006313068132686483,-0.3617121597814711,0.0,0.0,11.895650579432747,0.00376258285341106,0.03495739098837094,-0.033161293720595404,-1.9000021733837957,0.0,0.0,0.02684822558790892,1.5382900136023245,-4.831960191940621,0.0,-15.733539848145815,11.891363482611276,0.0,-0.31933874236880067,0.0,-4.53806264307182,0.0,0.0,-0.4306698777294522,0.0,-0.04041719642784675,0.3490658503988659,1.0,0.14,0.14,0.75,0.08726646259971647,5.0,0.184,0.175,0.174,0.0,0.0,0.0,-0.009471456867903062,0.0,0.0010733715642212967,0.0,6.082611983529176,0.0,-0.5193376141112,0.0,0.15446676052128128,0.0,-3.7761085805261625,0.0,-0.032622227356202974,0.0,-0.006907192028750018,0.48148719449179994,-0.029687696340757245,0.09165911831722827,0.0,0.0,0.0,0.4660721617518,0.09165911831722827,0.0,0.0,-0.020117985572385626,0.0,0.0,-0.0025342784944595467,0.0,1.1122086835696434,0.0,5.655405757628747,0.0,-0.03417614976497388,0.0,86.67274882885214,-1.2991034087277553,0.0,-5.615420979112789,0.0,-0.03417614976497388,0.0
sim_raptor_glider_3dof,raptor_glider_3dof,0.022,-14.737317166246726,0.0,-0.004087188479910673,11.884274435909724,0.0,-0.4100241603862067,0.0,0.0,0.0,-24.931963036637647,-0.4351448439748506,-0.018296703372264342,0.0,0.0,0.0,0.0,0.0,-0.006745981990096389,-0.386516296703787,0.0,0.0,11.891345536991084,0.004087188479910673,0.034944739889479805,-0.03448772479639147,-1.9760010758419078,0.0,0.0,0.027741742806295083,1.5894847791381208,-4.840148369523341,0.0,-15.509271577994731,11.886770015154543,0.0,-0.3298443374392066,0.0,-4.412095533512005,0.0,0.0,-0.4351448439748506,0.0,-0.04041719642784675,0.3490658503988659,1.0,0.14,0.14,0.75,0.08726646259971647,5.0,0.184,0.175,0.174,0.0,0.0,0.0,-0.009522133871294762,0.0,0.0010629101380034503,0.0,6.0828081173920046,0.0,-0.5194840632991531,0.0,0.15292444168344263,0.0,-3.775612661357135,0.0,-0.03222135673201828,0.0,-0.0067784057762476,0.47587317071131,-0.029245094451977097,0.09140986146815312,0.0,0.0,0.0,0.4602918237001048,0.09140986146815312,0.0,0.0,-0.01957371736409871,0.0,0.0,-0.002561538472117008,0.0,1.1083814714604883,0.0,5.581224177127742,0.0,-0.033227491462878914,0.0,86.6100263502786,-1.3001679495035496,0.0,-5.539687365250489,0.0,-0.033227491462878914,0.0
sim_raptor_glider_3dof,raptor_glider_3dof,0.023,-14.72543269140101,0.0,-0.004422160769798844,11.879430505238451,0.0,-0.4254223118182066,0.0,0.0,0.0,-25.181206175194962,-0.4394949573806802,-0.018486298946621054,0.0,0.0,0.0,0.0,0.0,-0.007183306901370947,-0.41157316839575236,0.0,0.0,11.887045607390535,0.004422160769798844,0.03493210381554126,-0.03579637818447847,-2.050981391824789,0.0,0.0,0.028613071283107524,1.6394082234290361,-4.847659365966719,0.0,-15.28720860243614,11.882179930602456,0.0,-0.3400784747243847,0.0,-4.288305576826566,0.0,0.0,-0.4394949573806802,0.0,-0.04041719642784675,0.3490658503988659,1.0,0.14,0.14,0.75,0.08726646259971647,5.0,0.184,0.175,0.174,0.0,0.0,0.0,-0.009572083115486109,0.0,0.0010524420959379087,0.0,6.08299347109013,0.0,-0.5196264841494671,0.0,0.1514021580667922,0.0,-3.775116852138596,0.0,-0.03182611158368503,0.0,-0.0066525500845583925,0.4703284212422458,-0.028808615987142114,0.09116747130083265,0.0,0.0,0.0,0.4545851362306775,0.09116747130083265,0.0,0.0,-0.019038304570953554,0.0,0.0,-0.0025880818525269482,0.0,1.1046430778932304,0.0,5.508042692040562,0.0,-0.03229522929908087,0.0,86.54740102641517,-1.3010612933924532,0.0,-5.464980341933064,0.0,-0.03229522929908087,0.0
sim_raptor_glider_3dof,raptor_glider_3dof,0.024,-14.713552804984824,0.0,-0.0047672497871570595,11.874579352137115,0.0,-0.4405993695423901,0.0,0.0,0.0,-25.423410641316583,-0.4437222227775375,-0.018670854775122703,0.0,0.0,0.0,0.0,0.0,-0.007624928090779537,-0.4368761986924121,0.0,0.0,11.882750632519485,0.0047672497871570595,0.03491948230191744,-0.03708740551741361,-2.124951809238003,0.0,0.0,0.029462477426634073,1.688075610545591,-4.854511179315014,0.0,-15.067358870568356,11.877593668543906,0.0,-0.3500446251665641,0.0,-4.166666029360079,0.0,0.0,-0.4437222227775375,0.0,-0.04041719642784675,0.3490658503988659,1.0,0.14,0.14,0.75,0.08726646259971647,5.0,0.184,0.175,0.174,0.0,0.0,0.0,-0.009621314063956,0.0,0.0010419748545018872,0.0,6.083168397826198,0.0,-0.5197649809340036,0.0,0.14989976531288302,0.0,-3.774621354192231,0.0,-0.03143643477919327,0.0,-0.006529565369861971,0.4648528129286767,-0.028378206926705125,0.09093179877140378,0.0,0.0,0.0,0.44895189940669666,0.09093179877140378,0.0,0.0,-0.018511649927777107,0.0,0.0,-0.0026139196685171784,0.0,1.1009914774316916,0.0,5.43585656175305,0.0,-0.031379161867110754,0.0,86.48487047493596,-1.301789974156911,0.0,-5.391294988823692,0.0,-0.031379161867110754,0.0
sim_raptor_glider_3dof,raptor_glider_3dof,0.025,-14.701677502639903,0.0,-0.005122167498331305,11.869721682042927,0.0,-0.45555772771632114,0.0,0.0,0.0,-25.658708917347536,-0.4478289524185441,-0.018850462547661942,0.0,0.0,0.0,0.0,0.0,-0.008070713721883421,-0.4624178339222405,0.0,0.0,11.878460575867651,0.005122167498331305,0.03490687524131667,-0.03836098747698873,-2.1979226803856586,0.0,0.0,0.03029027375510531,1.735504846463418,-4.860722215181036,0.0,-14.849727152154273,11.873011744643069,0.0,-0.3597468054198297,0.0,-4.047146588658381,0.0,0.0,-0.4478289524185441,0.0,-0.04041719642784675,0.3490658503988659,1.0,0.14,0.14,0.75,0.08726646259971647,5.0,0.184,0.175,0.174,0.0,0.0,0.0,-0.00966983709992309,0.0,0.0010315152257569383,0.0,6.083333246088236,0.0,-0.519899658550896,0.0,0.1484170840897283,0.0,-3.774126351334965,0.0,-0.031052260770953063,0.0,-0.006409390236935602,0.45944606131372845,-0.027953803420971556,0.09070269157646026,0.0,0.0,0.0,0.44339175094088185,0.09070269157646026,0.0,0.0,-0.01799363957993383,0.0,0.0,-0.002639064756672672,0.0,1.0974246337912166,0.0,5.36465921181799,0.0,-0.03047906095918627,0.0,86.4224340863699,-1.3023604221961955,0.0,-5.3186245041826705,0.0,-0.03047906095918627,0.0
sim_raptor_glider_3dof,raptor_glider_3dof,0.026000000000000002,-14.689806779870796,0.0,-0.005486656927993433,11.864858113886195,0.0,-0.47029956491649566,0.0,0.0,0.0,-25.887219302126024,-0.4518172110079278,-0.01902520379268528,0.0,0.0,0.0,0.0,0.0,-0.008520546682861337,-0.48819136407214814,0.0,0.0,11.874175328982293,0.005486656927993433,0.03489428231503216,-0.039617287032484454,-2.269903342719725,0.0,0.0,0.031096740349623116,1.7817119786475766,-4.866310124348626,0.0,-14.634317583554678,11.868434584739413,0.0,-0.3691886390087228,0.0,-3.9297195015929463,0.0,0.0,-0.4518172110079278,0.0,-0.04041719642784675,0.3490658503988659,1.0,0.14,0.14,0.75,0.08726646259971647,5.0,0.184,0.175,0.174,0.0,0.0,0.0,-0.009717661749805635,0.0,0.0010210698066401092,0.0,6.083488353291446,0.0,-0.5200306175172459,0.0,0.14695395453205107,0.0,-3.7736320277795006,0.0,-0.03067352970662456,0.0,-0.006291965953005842,0.45410793007092737,-0.02753534739756984,0.0904800027741748,0.0,0.0,0.0,0.43790438527407577,0.0904800027741748,0.0,0.0,-0.017484170826174553,0.0,0.0,-0.0026635285309759395,0.0,1.0939405681937682,0.0,5.2944447099198735,0.0,-0.02959471756649648,0.0,86.36009020563739,-1.3027788660350454,0.0,-5.24696273851369,0.0,-0.02959471756649648,0.0
sim_raptor_glider_3dof,raptor_glider_3dof,0.027,-14.677940631718796,0.0,-0.005860459437349297,11.85998926264267,0.0,-0.48482710458119915,0.0,0.0,0.0,-26.109060930382455,-0.4556890778389878,-0.019195160757810085,0.0,0.0,0.0,0.0,0.0,-0.00897430947117228,-0.5141900567424533,0.0,0.0,11.86989480287572,0.005860459437349297,0.034881703261558435,-0.040856471093272596,-2.340903359442768,0.0,0.0,0.031882161622100315,1.8267133027003146,-4.8712923413760345,0.0,-14.421132634150315,11.863862604646911,0.0,-0.3783737958641615,0.0,-3.814356715289573,0.0,0.0,-0.4556890778389878,0.0,-0.04041719642784675,0.3490658503988659,1.0,0.14,0.14,0.75,0.08726646259971647,5.0,0.184,0.175,0.174,0.0,0.0,0.0,-0.009764797516720276,0.0,0.0010106448175951652,0.0,6.083634048939176,0.0,-0.5201579563636167,0.0,0.1455102110848416,0.0,-3.773138559978661,0.0,-0.030300180882576775,0.0,-0.006177234366795525,0.4488381404008244,-0.027122779353979446,0.09026358680575407,0.0,0.0,0.0,0.432489453702274,0.09026358680575407,0.0,0.0,-0.0169831391831399,0.0,0.0,-0.002687322506093412,0.0,1.0905373280193613,0.0,5.22520664121188,0.0,-0.028725920422845774,0.0,86.2978374630563,-1.3030513803517998,0.0,-5.176303044387144,0.0,-0.028725920422845774,0.0
sim_raptor_glider_3dof,raptor_glider_3dof,0.028,-14.666079052805483,0.0,-0.006243320169412519,11.85511572542962,0.0,-0.4991425720014555,0.0,0.0,0.0,-26.32435128011308,-0.45944660328955733,-0.019360414601534426,0.0,0.0,0.0,0.0,0.0,-0.009431886720766993,-0.5404073019454347,0.0,0.0,11.865618912240224,0.006243320169412519,0.03486913783020431,-0.042078706940025024,-2.410932315031281,0.0,0.0,0.03264682021925803,1.870525013085846,-4.875685990096803,0.0,-14.210173335509255,11.8592961972987,0.0,-0.3873059194609125,0.0,-3.701030350213757,0.0,0.0,-0.45944660328955733,0.0,-0.04041719642784675,0.3490658503988659,1.0,0.14,0.14,0.75,0.08726646259971647,5.0,0.184,0.175,0.174,0.0,0.0,0.0,-0.009811253751406098,0.0,0.0010002461435500048,0.0,6.0837706542648124,0.0,-0.5202817712966527,0.0,0.14408568668887206,0.0,-3.7726461180689843,0.0,-0.02993215381331453,0.0,-0.006065138244759246,0.443636387287974,-0.02671603956037679,0.09005330016337765,0.0,0.0,0.0,0.4271465821789639,0.09005330016337765,0.0,0.0,-0.016490440541680897,0.0,0.0,-0.00271045804421482,0.0,1.0872129918351452,0.0,5.156938310094351,0.0,-0.027872459567459804,0.0,86.23567454438393,-1.3031838796203277,0.0,-5.106638483350043,0.0,-0.027872459567459804,0.0
sim_raptor_glider_3dof,raptor_glider_3dof,0.029,-14.654222037352683,0.0,-0.00663498806044985,11.850238081623466,0.0,-0.5132481929046452,0.0,0.0,0.0,-26.533206165588563,-0.4630918086999802,-0.019521045385682372,0.0,0.0,0.0,0.0,0.0,-0.009893165193702877,-0.5668366116249004,0.0,0.0,11.861347575156833,0.00663498806044985,0.034856585780236954,-0.04328416211019392,-2.4799998086741826,0.0,0.0,0.03339099691649104,1.9131631970492824,-4.87950787907222,0.0,-14.001439354093552,11.854735733330104,0.0,-0.39598862557563064,0.0,-3.5897127112175164,0.0,0.0,-0.4630918086999802,0.0,-0.04041719642784675,0.3490658503988659,1.0,0.14,0.14,0.75,0.08726646259971647,5.0,0.184,0.175,0.174,0.0,0.0,0.0,-0.009857039654727413,0.0,0.000989879346779736,0.0,6.0838984823549795,0.0,-0.5204021562351498,0.0,0.14268021294664482,0.0,-3.7721548660001996,0.0,-0.029569388258011354,0.0,-0.0059556212757675,0.4385023410773974,-0.02631506810999734,0.08984900141981783,0.0,0.0,0.0,0.4218753729019664,0.08984900141981783,0.0,0.0,-0.01600597122225559,0.0,0.0,-0.002732946353995532,0.0,1.0839656695708657,0.0,5.089632759816885,0.0,-0.02703412642817912,0.0,86.17360018648364,-1.303182119510655,0.0,-5.037961846421346,0.0,-0.02703412642817912,0.0
sim_raptor_glider_3dof,raptor_glider_3dof,0.03,-14.642369579243425,0.0,-0.007035215461096504,11.845356894847717,0.0,-0.52714619188882,0.0,0.0,0.0,-26.735739901847545,-0.46662668924406525,-0.019677132191027832,0.0,0.0,0.0,0.0,0.0,-0.010358033553285333,-0.5934716066581451,0.0,0.0,11.857080714659036,0.007035215461096504,0.034844046885477195,-0.044473004263635756,-2.5481154465736444,0.0,0.0,0.034114970710350426,1.9546438399154995,-4.882774502722888,0.0,-13.794929103247432,11.850181563422783,0.0,-0.4044255034663396,0.0,-3.480376286411531,0.0,0.0,-0.46662668924406525,0.0,-0.04041719642784675,0.3490658503988659,1.0,0.14,0.14,0.75,0.08726646259971647,5.0,0.184,0.175,0.174,0.0,0.0,0.0,-0.009902164279221137,0.0,0.0009795496796503626,0.0,6.0840178382734535,0.0,-0.5205192028443579,0.0,0.14129362031091716,0.0,-3.7716649616759184,0.0,-0.029211824253066832,0.0,-0.0058486280766750515,0.4334356490991125,-0.025919804975481874,0.0896505512582659,0.0,0.0,0.0,0.41667540584323354,0.0896505512582659,0.0,0.0,-0.015529627971118775,0.0,0.0,-0.0027547985067438974,0.0,1.0807935030359055,0.0,5.023282792906352,0.0,-0.02621071381296524,0.0,86.11161319994471,-1.303051698809195,0.0,-4.970265675388403,0.0,-0.02621071381296524,0.0
sim_raptor_glider_3dof,raptor_glider_3dof,0.03,-14.642369579243425,0.0,-0.007035215461096504,11.845356894847717,0.0,-0.52714619188882,0.0,0.0,0.0,-26.735739901847545,-0.46662668924406525,-0.019677132191027832,0.0,0.0,0.0,0.0,0.0,-0.010358033553285333,-0.5934716066581451,0.0,0.0,11.857080714659036,0.007035215461096504,0.034844046885477195,-0.044473004263635756,-2.5481154465736444,0.0,0.0,0.034114970710350426,1.9546438399154995,-4.885915939120733,0.0,-13.78423485669576,11.850181563422783,0.0,-0.4044255034663396,0.0,-3.357562342892545,0.0,0.0,-0.46662668924406525,0.0,-0.04136638593462583,0.3490658503988659,1.0,0.14,0.14,0.75,0.08726646259971647,5.0,0.184,0.175,0.174,0.0,0.0,0.0,-0.010076960872561044,0.0,0.0010210925877748608,0.0,6.083829177449305,0.0,-0.520555420823701,0.0,0.14129193402806728,0.0,-3.7710531288589637,0.0,-0.029160359475297635,0.0,-0.005863821594767489,0.4331946107481269,-0.02537011701468831,0.08973298490178735,0.0,0.0,0.0,0.4164348872148046,0.08973298490178735,0.0,0.0,-0.014981625486455735,0.0,0.0,-0.0027547985067438974,0.0,1.0817872921994869,0.0,5.020383190312541,0.0,-0.02528580200432376,0.0,86.11161319994471,-1.3039155938186024,0.0,-4.9673247575866935,0.0,-0.02528580200432376,0.0
sim_raptor_glider_3dof,raptor_glider_3dof,0.031,-14.630521683789155,0.0,-0.007443752639617291,11.840469642837865,0.0,-0.5408272582617272,0.0,0.0,0.0,-26.92504711890668,-0.46993072347953474,-0.019823591980286825,0.0,0.0,0.0,0.0,0.0,-0.010826320256553489,-0.6203024583575055,0.0,0.0,11.852814665143631,0.007443752639617291,0.03483151037392703,-0.045644440903261564,-2.6152338219911906,0.0,0.0,0.03481812064670808,1.9949313636336852,-4.888572455955051,0.0,-13.578873153152836,11.845630798289454,0.0,-0.41260935139704463,0.0,-3.251015811808551,0.0,0.0,-0.46993072347953474,0.0,-0.04136638593462583,0.3490658503988659,1.0,0.14,0.14,0.75,0.08726646259971647,5.0,0.184,0.175,0.174,0.0,0.0,0.0,-0.010122013789109749,0.0,0.0010107244651762547,0.0,6.083937089150347,0.0,-0.5206693615571022,0.0,0.13992517724688855,0.0,-3.770557106764198,0.0,-0.028808108047852814,0.0,-0.005759358489903647,0.4281992282892379,-0.024981091057248155,0.08954064251764242,0.0,0.0,0.0,0.41131446018077084,0.08954064251764242,0.0,0.0,-0.014516653070047158,0.0,0.0,-0.002775302877240156,0.0,1.078691861924615,0.0,4.95508573999225,0.0,-0.0244834000787302,0.0,86.0496602911017,-1.3036619669543448,0.0,-4.900705694037713,0.0,-0.0244834000787302,0.0
sim_raptor_glider_3dof,raptor_glider_3dof,0.032,-14.618678324903781,0.0,-0.00786033503570186,11.835580004017938,0.0,-0.5543045700621589,0.0,0.0,0.0,-27.108319378071766,-0.4731294278295338,-0.019965705046453116,0.0,0.0,0.0,0.0,0.0,-0.011297850336263425,-0.6473191418383522,0.0,0.0,11.848552974431142,0.00786033503570186,0.03481898667146005,-0.04679955117154855,-2.6814167652362593,0.0,0.0,0.03550170083528512,2.034097623397907,-4.890705030326488,0.0,-13.375750337298125,11.841086973769642,0.0,-0.42055542740993607,0.0,-3.146393006149361,0.0,0.0,-0.4731294278295338,0.0,-0.04136638593462583,0.3490658503988659,1.0,0.14,0.14,0.75,0.08726646259971647,5.0,0.184,0.175,0.174,0.0,0.0,0.0,-0.010166412388500475,0.0,0.0010004036778572295,0.0,6.084037168046886,0.0,-0.5207801348125586,0.0,0.13857701609774273,0.0,-3.770062873813451,0.0,-0.028460954585484928,0.0,-0.005657315403025529,0.42327064560612687,-0.024597667656701985,0.08935387779860467,0.0,0.0,0.0,0.4062645527836834,0.08935387779860467,0.0,0.0,-0.014059592788381998,0.0,0.0,-0.0027951987065034365,0.0,1.0756679839796015,0.0,4.890730914221423,0.0,-0.023695485729310836,0.0,85.98779294200278,-1.3032907066518697,0.0,-4.835053652342931,0.0,-0.023695485729310836,0.0
sim_raptor_glider_3dof,raptor_glider_3dof,0.033,-14.606839506233445,0.0,-0.00828474612530652,11.830688486944492,0.0,-0.5675798779930052,0.0,0.0,0.0,-27.285651632458823,-0.4762244595385721,-0.02010353666322456,0.0,0.0,0.0,0.0,0.0,-0.011772527301562486,-0.6745161285820662,0.0,0.0,11.844295546507757,0.00828474612530652,0.03480647549592335,-0.04793846339474165,-2.7466716288610855,0.0,0.0,0.03616593609317916,2.072155500279019,-4.892328804931124,0.0,-13.17486610262132,11.836550369931164,0.0,-0.4282666612122928,0.0,-3.0436711393175555,0.0,0.0,-0.4762244595385721,0.0,-0.04136638593462583,0.3490658503988659,1.0,0.14,0.14,0.75,0.08726646259971647,5.0,0.184,0.175,0.174,0.0,0.0,0.0,-0.010210163938867674,0.0,0.000990135019666629,0.0,6.084129692918889,0.0,-0.5208878222153244,0.0,0.13724732416224725,0.0,-3.769570586820855,0.0,-0.028118851745304353,0.0,-0.0055576430701825994,0.41840861606072377,-0.024219799503544324,0.08917256367487783,0.0,0.0,0.0,0.4012848626523666,0.08917256367487783,0.0,0.0,-0.013610361433997088,0.0,0.0,-0.0028144951328514384,0.0,1.0727139598734843,0.0,4.827312979613033,0.0,-0.022921887350200513,0.0,85.9260096912918,-1.302806937421652,0.0,-4.770362661963336,0.0,-0.022921887350200513,0.0
sim_raptor_glider_3dof,raptor_glider_3dof,0.034,-14.595005221342003,0.0,-0.008716780815130982,11.825795532626072,0.0,-0.5806551471640314,0.0,0.0,0.0,-27.457139019225163,-0.4792174790632857,-0.02023715241549378,0.0,0.0,0.0,0.0,0.0,-0.012250260739178667,-0.7018882382897498,0.0,0.0,11.840042245676612,0.008716780815130982,0.034793976448548626,-0.04906132438911176,-2.8110068248183557,0.0,0.0,0.03681106364993309,2.1091185865286057,-4.893458698579846,0.0,-12.976215710583695,11.832021200771733,0.0,-0.4357461232129093,0.0,-2.942826068077533,0.0,0.0,-0.4792174790632857,0.0,-0.04136638593462583,0.3490658503988659,1.0,0.14,0.14,0.75,0.08726646259971647,5.0,0.184,0.175,0.174,0.0,0.0,0.0,-0.010253276288276134,0.0,0.0009799228599751022,0.0,6.084214937234353,0.0,-0.5209925052276606,0.0,0.13593595259582225,0.0,-3.769080389508334,0.0,-0.027781746900352018,0.0,-0.005460291409168461,0.4136127956682948,-0.02384743310327066,0.08899657196472215,0.0,0.0,0.0,0.39637498976641383,0.08899657196472215,0.0,0.0,-0.013168869500048624,0.0,0.0,-0.00283320133816913,0.0,1.0698280755383003,0.0,4.764825016646808,0.0,-0.022162423118691904,0.0,85.8643085041182,-1.3022156448183853,0.0,-4.706625539052737,0.0,-0.022162423118691904,0.0
sim_raptor_glider_3dof,raptor_glider_3dof,0.034999999999999996,-14.58317546149755,0.0,-0.009156172023731307,11.820901707688751,0.0,-0.5935329619650326,0.0,0.0,0.0,-27.62290549703341,-0.48211064989047375,-0.0203666389476593,0.0,0.0,0.0,0.0,0.0,-0.012730933237863538,-0.7294287437924005,0.0,0.0,11.835793110720456,0.009156172023731307,0.034781489643305574,-0.050168332863350734,-2.8744337382774656,0.0,0.0,0.0374373996254872,2.1450049944850655,-4.894110357367566,0.0,-12.779789505120668,11.827499798887233,0.0,-0.4429978183922143,0.0,-2.843827502253112,0.0,0.0,-0.48211064989047375,0.0,-0.04136638593462583,0.3490658503988659,1.0,0.14,0.14,0.75,0.08726646259971647,5.0,0.184,0.175,0.174,0.0,0.0,0.0,-0.010295759149950777,0.0,0.000969770838221453,0.0,6.084293171047968,0.0,-0.5210942681150659,0.0,0.1346426910905778,0.0,-3.7685923973855293,0.0,-0.02744957212699379,0.0,-0.005365206733216002,0.4088826009835102,-0.02348049773054439,0.0888257684931095,0.0,0.0,0.0,0.39153427666620816,0.0888257684931095,0.0,0.0,-0.012734999232762109,0.0,0.0,-0.002851329452672302,0.0,1.0670085814099486,0.0,4.703257176450873,0.0,-0.02141686491946819,0.0,85.80268987827718,-1.3015217130634609,0.0,-4.643832104099314,0.0,-0.02141686491946819,0.0
sim_raptor_glider_3dof,raptor_glider_3dof,0.036,-14.571350219071626,0.0,-0.009602702157463075,11.816007464696872,0.0,-0.6062154618546131,0.0,0.0,0.0,-27.78305218252137,-0.4849057368383945,-0.020492066389507704,0.0,0.0,0.0,0.0,0.0,-0.013214449603211663,-0.7571321908523536,0.0,0.0,11.831548064051626,0.009602702157463075,0.034769014852189674,-0.0512596506443361,-2.9369616412355097,0.0,0.0,0.03804520104112444,2.179829450383156,-4.894298357514839,0.0,-12.585579679447243,11.822986384710214,0.0,-0.45002504254842496,0.0,-2.746649850770504,0.0,0.0,-0.4849057368383945,0.0,-0.04136638593462583,0.3490658503988659,1.0,0.14,0.14,0.75,0.08726646259971647,5.0,0.184,0.175,0.174,0.0,0.0,0.0,-0.01033762069877214,0.0,0.0009596826782500336,0.0,6.0843646542020355,0.0,-0.5211931896659002,0.0,0.13336737156712372,0.0,-3.768106736435444,0.0,-0.027122270855025936,0.0,-0.005272339469017944,0.40421758904208016,-0.023118934883056053,0.0886600270940405,0.0,0.0,0.0,0.3867622204216167,0.0886600270940405,0.0,0.0,-0.012308653806245967,0.0,0.0,-0.0028688892945310787,0.0,1.0642538080628652,0.0,4.642601399861544,0.0,-0.020685020026152665,0.0,85.74115262418779,-1.300729846078718,0.0,-4.581974006200025,0.0,-0.020685020026152665,0.0
sim_raptor_glider_3dof,raptor_glider_3dof,0.037,-14.559529485973405,0.0,-0.010056148693287314,11.811113259536892,0.0,-0.6187048563043736,0.0,0.0,0.0,-27.93768253876823,-0.4876045456784339,-0.020613506670976917,0.0,0.0,0.0,0.0,0.0,-0.013700712767762923,-0.7849930179138163,0.0,0.0,11.827307053121721,0.010056148693287314,0.03475655192077851,-0.05233544563050943,-2.998600153564576,0.0,0.0,0.038634732862746504,2.2136071356507596,-4.89403708449949,0.0,-12.39357709885467,11.818481179949428,0.0,-0.4568311810767575,0.0,-2.6512669581325343,0.0,0.0,-0.4876045456784339,0.0,-0.04136638593462583,0.3490658503988659,1.0,0.14,0.14,0.75,0.08726646259971647,5.0,0.184,0.175,0.174,0.0,0.0,0.0,-0.010378869226631213,0.0,0.000949661809767741,0.0,6.084429639902091,0.0,-0.5212893472844387,0.0,0.13210981804920938,0.0,-3.7676235245977074,0.0,-0.026799784959675426,0.0,-0.005181640396050233,0.39961727478928055,-0.022762684039849917,0.08849922279059835,0.0,0.0,0.0,0.382058274453311,0.08849922279059835,0.0,0.0,-0.011889733467726498,0.0,0.0,-0.002885890933936769,0.0,1.0615621096591008,0.0,4.582849148867993,0.0,-0.019966691461696117,0.0,85.67969591672545,-1.2998446108046045,0.0,-4.521042404325157,0.0,-0.019966691461696117,0.0
sim_raptor_glider_3dof,raptor_glider_3dof,0.038,-14.547713253901472,0.0,-0.010516292020897476,11.806219535280137,0.0,-0.6310033482521763,0.0,0.0,0.0,-28.086898745429,-0.4902088597820007,-0.020731030879747238,0.0,0.0,0.0,0.0,0.0,-0.01418962723716652,-0.8130057535535204,0.0,0.0,11.82307003027284,0.010516292020897476,0.034744100709021244,-0.053395885403850624,-3.059358877004836,0.0,0.0,0.039206258166684105,2.2463531234513154,-4.893340599745584,0.0,-12.203771851490478,11.813984392345718,0.0,-0.4634195918900768,0.0,-2.5576529287482015,0.0,0.0,-0.4902088597820007,0.0,-0.04136638593462583,0.3490658503988659,1.0,0.14,0.14,0.75,0.08726646259971647,5.0,0.184,0.175,0.174,0.0,0.0,0.0,-0.010419512758433662,0.0,0.000939711206127055,0.0,6.084488373793142,0.0,-0.5213828154801562,0.0,0.13086985468329124,0.0,-3.7671428755487715,0.0,-0.02648205630020099,0.0,-0.005093060862595978,0.39508115939087984,-0.022411685015773265,0.08834323259344455,0.0,0.0,0.0,0.3774218790998402,0.08834323259344455,0.0,0.0,-0.011478139276374269,0.0,0.0,-0.002902344323164614,0.0,1.058931869788734,0.0,4.523991758074156,0.0,-0.019261684206402705,0.0,85.61831900274832,-1.2988704317169755,0.0,-4.4610283269206565,0.0,-0.019261684206402705,0.0
sim_raptor_glider_3dof,raptor_glider_3dof,0.039,-14.535901514325712,0.0,-0.01098291631807209,11.80132671923094,0.0,-0.6431131291216289,0.0,0.0,0.0,-28.230801312902774,-0.49272043338649135,-0.020844708980498155,0.0,0.0,0.0,0.0,0.0,-0.014681099525493908,-0.8411650414223165,0.0,0.0,11.818836949162245,0.01098291631807209,0.034731661080731856,-0.05444113682476988,-3.119247371953562,0.0,0.0,0.03976003729927597,2.278082330531245,-4.8922226044008,0.0,-12.01615331576036,11.809496213158257,0.0,-0.46979359540493576,0.0,-2.465782344372104,0.0,0.0,-0.49272043338649135,0.0,-0.04136638593462583,0.3490658503988659,1.0,0.14,0.14,0.75,0.08726646259971647,5.0,0.184,0.175,0.174,0.0,0.0,0.0,-0.01045955859429943,0.0,0.0009298326845031847,0.0,6.084541092331698,0.0,-0.5214736629066905,0.0,0.12964730789728687,0.0,-3.7666649018121436,0.0,-0.02616902567673617,0.0,-0.005006551782926478,0.390608733487744,-0.022065878811537997,0.08819193492288638,0.0,0.0,0.0,0.3728524651188089,0.08819193492288638,0.0,0.0,-0.011073774092791684,0.0,0.0,-0.0029182592572697423,0.0,1.0563614937941257,0.0,4.466020474118389,0.0,-0.018569806835466315,0.0,85.55702114920399,-1.2978115858344346,0.0,-4.401922712689252,0.0,-0.018569806835466315,0.0
sim_raptor_glider_3dof,raptor_glider_3dof,0.04,-14.524094258548525,0.0,-0.011455808811433606,11.796435226238572,0.0,-0.6550363800707852,0.0,0.0,0.0,-28.36948941777154,-0.4951409974498025,-0.02095461005488809,0.0,0.0,0.0,0.0,0.0,-0.015175037752511314,-0.8694656171705886,0.0,0.0,11.814607767761844,0.011455808811433606,0.03471923291240366,-0.05547136612491442,-3.1782751627825605,0.0,0.0,0.04029632837240311,2.3088095456119717,-4.890696480905398,0.0,-11.8307102079809,11.80501682060033,0.0,-0.47595648057546525,0.0,-2.3756300568275543,0.0,0.0,-0.4951409974498025,0.0,-0.04136638593462583,0.3490658503988659,1.0,0.14,0.14,0.75,0.08726646259971647,5.0,0.184,0.175,0.174,0.0,0.0,0.0,-0.010499013814380686,0.0,0.0009200277042896356,0.0,6.08458802487343,0.0,-0.5215619557098067,0.0,0.12844200447661164,0.0,-3.766189711675444,0.0,-0.025860634079220655,0.0,-0.004922064755527108,0.3861994766759673,-0.021725206802654985,0.08804521027814041,0.0,0.0,0.0,0.3683494529591463,0.08804521027814041,0.0,0.0,-0.010676541650530336,0.0,0.0,-0.002933645407684333,0.0,1.0538494172341044,0.0,4.40892644941385,0.0,-0.017890869957968313,0.0,85.49580168650425,-1.2966722138534372,0.0,-4.343716404228769,0.0,-0.017890869957968313,0.0
sim_raptor_glider_3dof,raptor_glider_3dof,0.04,-14.524094258548525,0.0,-0.011455808811433606,11.796435226238572,0.0,-0.6550363800707852,0.0,0.0,0.0,-28.36948941777154,-0.4951409974498025,-0.02095461005488809,0.0,0.0,0.0,0.0,0.0,-0.015175037752511314,-0.8694656171705886,0.0,0.0,11.814607767761844,0.011455808811433606,0.03471923291240366,-0.05547136612491442,-3.1782751627825605,0.0,0.0,0.04029632837240311,2.3088095456119717,-4.8937402333333715,0.0,-11.820377279205644,11.80501682060033,0.0,-0.47595648057546525,0.0,-2.256827668241893,0.0,0.0,-0.4951409974498025,0.0,-0.04229620507786158,0.3490658503988659,1.0,0.14,0.14,0.75,0.08726646259971647,5.0,0.184,0.175,0.174,0.0,0.0,0.0,-0.010673080028595176,0.0,0.0009600616566611402,0.0,6.084373431275849,0.0,-0.5215992550262629,0.0,0.1284403195477351,0.0,-3.765512025007843,0.0,-0.02580994870072339,0.0,-0.004936895765485375,0.3859656880496408,-0.02118929776316769,0.08812819585506303,0.0,0.0,0.0,0.36811629387434186,0.08812819585506303,0.0,0.0,-0.0101426207034233,0.0,0.0,-0.002933645407684333,0.0,1.0548427058139425,0.0,4.4061356722112315,0.0,-0.016996169169529694,0.0,85.49580168650425,-1.29750924577113,0.0,-4.340874848815575,0.0,-0.016996169169529694,0.0
sim_raptor_glider_3dof,raptor_glider_3dof,0.041,-14.512291498113063,0.0,-0.011934764141898858,11.791542492460122,0.0,-0.6667637907191954,0.0,0.0,0.0,-28.49626266340282,-0.49735360798950784,-0.021055785542489852,0.0,0.0,0.0,0.0,0.0,-0.0156712950471987,-0.8978990657087559,0.0,0.0,11.810378838297563,0.011934764141898858,0.03470680548443258,-0.056485782504419116,-3.2363969399971206,0.0,0.0,0.04081448745722041,2.3384978742883646,-4.891740679074622,0.0,-11.636069889260517,11.800543207048863,0.0,-0.48190073944729184,0.0,-2.1691718884167073,0.0,0.0,-0.49735360798950784,0.0,-0.04229620507786158,0.3490658503988659,1.0,0.14,0.14,0.75,0.08726646259971647,5.0,0.184,0.175,0.174,0.0,0.0,0.0,-0.010712428985903237,0.0,0.0009502572798836821,0.0,6.084412094815071,0.0,-0.5216851702212918,0.0,0.12725320112530975,0.0,-3.7650334062321678,0.0,-0.02550631970384607,0.0,-0.004854452345850654,0.38162340549160306,-0.020854264331424427,0.08798627623627411,0.0,0.0,0.0,0.363687714820725,0.08798627623627411,0.0,0.0,-0.00975566129675358,0.0,0.0,-0.00294780997594858,0.0,1.0523902200261617,0.0,4.3500124177684185,0.0,-0.016336033491666225,0.0,85.43460777906867,-1.29629497724407,0.0,-4.283661114271056,0.0,-0.016336033491666225,0.0
sim_raptor_glider_3dof,raptor_glider_3dof,0.042,-14.500493187166077,0.0,-0.012419535346990813,11.786651942578748,0.0,-0.6783087907649383,0.0,0.0,0.0,-28.618083535017544,-0.49947978329683407,-0.021153365992213517,0.0,0.0,0.0,0.0,0.0,-0.01616971174650644,-0.9264562390179303,0.0,0.0,11.80615376958662,0.012419535346990813,0.03469438940194134,-0.05748548899714179,-3.2936759027819558,0.0,0.0,0.041315777250635344,2.367219663764025,-4.889358937630766,0.0,-11.453930175805004,11.796078689307471,0.0,-0.48764165817794636,0.0,-2.083178843111626,0.0,0.0,-0.49947978329683407,0.0,-0.04229620507786158,0.3490658503988659,1.0,0.14,0.14,0.75,0.08726646259971647,5.0,0.184,0.175,0.174,0.0,0.0,0.0,-0.01075119323781631,0.0,0.0009405297285835323,0.0,6.0844454612256325,0.0,-0.5217686565204253,0.0,0.1260830002962007,0.0,-3.764557888024914,0.0,-0.025207219727615606,0.0,-0.0047739384999114795,0.3773433002749929,-0.020524251899323335,0.08784869368686517,0.0,0.0,0.0,0.35932439003685734,0.08784869368686517,0.0,0.0,-0.009375621986726182,0.0,0.0,-0.002961471238909893,0.0,1.0499929599488829,0.0,4.2947488920149715,0.0,-0.015688419867473657,0.0,85.37349161564093,-1.2950083309979263,0.0,-4.22732855170402,0.0,-0.015688419867473657,0.0
sim_raptor_glider_3dof,raptor_glider_3dof,0.043000000000000003,-14.488699336124315,0.0,-0.0129099470119649,11.78176395944713,0.0,-0.6896727318503477,0.0,0.0,0.0,-28.735024459545897,-0.50152078746018,-0.02124740113243042,0.0,0.0,0.0,0.0,0.0,-0.016670212070160454,-0.955132795208237,0.0,0.0,11.80193248892677,0.0129099470119649,0.03468198445128205,-0.058470582326599,-3.350117592986344,0.0,0.0,0.04180037025643854,2.394984797778107,-4.886606892320401,0.0,-11.27395364777869,11.791623403204774,0.0,-0.4931814982120434,0.0,-1.9988309017972197,0.0,0.0,-0.50152078746018,0.0,-0.04229620507786158,0.3490658503988659,1.0,0.14,0.14,0.75,0.08726646259971647,5.0,0.184,0.175,0.174,0.0,0.0,0.0,-0.010789377191422372,0.0,0.0009308809162792576,0.0,6.084473739086707,0.0,-0.5218497706397421,0.0,0.12492962246053968,0.0,-3.7640855948069687,0.0,-0.024912611832299265,0.0,-0.004695314210035636,0.37312511117195346,-0.02019922451066855,0.08771534457433178,0.0,0.0,0.0,0.3550260155819775,0.08771534457433178,0.0,0.0,-0.009002439396515224,0.0,0.0,-0.0029746361585402587,0.0,1.047649558358722,0.0,4.240339592066739,0.0,-0.015053195521434862,0.0,85.31245208519134,-1.2936530872007843,0.0,-4.1718714197772,0.0,-0.015053195521434862,0.0
