name,vehicle,t,north,east,down,u,v,w,p_rad,p_deg,p_hat_div_b,q_deg,q_rad,q_hat_div_c,r_rad,r_deg,r_hat_div_b,phi_rad,phi_deg,theta_rad,theta_deg,psi_rad,psi_deg,speed,altitude,mach,alpha_rad,alpha_deg,beta_rad,beta_deg,gamma_rad,gamma_deg,u_dot,v_dot,w_dot,north_dot,east_dot,down_dot,p_rad_dot,q_rad_dot,r_rad_dot,phi_rad_dot,theta_rad_dot,psi_rad_dot,del_tail_alt_rad,del_tail_splay_rad,DIM_b,DIM_c_bar,DIM_S,DIM_wing_position,DIM_wing_incidence_rad,DIM_wing_incidence_deg,DIM_empennage_length,DIM_nose_length,DIM_tail_length,CDp,CDq,CDr,CYp,CYq,CYr,CLp,CLq,CLr,Clp,Clq,Clr,Cmp,Cmq,Cmr,Cnp,Cnq,Cnr,CL_0,Cm_0,CD_0,Cl_0,CY_0,Cn_0,CL,CD,CY,Cl,Cm,Cn,p_hat,q_hat,r_hat,drag_force_wind,side_force_wind,lift_force_wind,roll_moment_wind,pitch_moment_wind,yaw_moment_wind,qbar,X_total,Y_total,Z_total,L_total,M_total,N_total
sim_raptor_glider_3dof,raptor_glider_3dof,0.0,-15.0,0.0,0.0,12.0,0.0,0.0,0.0,0.0,0.0,0.0,0.0,0.0,0.0,0.0,0.0,0.0,0.0,0.0,0.0,0.0,0.0,12.0,-0.0,0.035264039495724236,0.0,0.0,0.0,0.0,0.0,0.0,-6.106326217214199,0.0,-21.073492311152613,12.0,0.0,0.0,0.0,-45.23638989222441,0.0,0.0,0.0,0.0,0.20956833851431464,0.3490658503988659,1.0,0.14,0.14,0.75,0.08726646259971647,5.0,0.184,0.175,0.174,0.0,0.0,0.0,0.0001233457995777839,0.0,0.012564094327029544,0.0,6.0778481458095905,0.0,-0.5143356112349563,0.0,0.19423675205668026,0.0,-3.730848096124717,0.0,-0.046292236093139295,0.0,-0.014796975250560814,0.6877257511930581,-0.19706788242307374,0.13599282485323338,0.0,0.0,0.0,0.6877257511930581,0.13599282485323338,0.0,0.0,-0.19706788242307374,0.0,0.0,0.0,0.0,1.6792397097339047,0.0,8.49203913556697,0.0,-0.34067525227834206,0.0,88.20001620075907,-1.6792397097339047,0.0,-8.49203913556697,0.0,-0.34067525227834206,0.0
sim_raptor_glider_3dof,raptor_glider_3dof,0.001,-14.988003056914136,0.0,-0.000010465149811535717,11.993881897478396,0.0,-0.021127416943788398,0.0,0.0,0.0,-2.580269355549812,-0.045034195842656444,-0.0018773790820426786,0.0,0.0,0.0,0.0,0.0,-0.00002255132961901555,-0.0012920960095779577,0.0,0.0,11.993900505607284,0.000010465149811535717,0.03524611509479351,-0.0017615143514050533,-0.10092733788723415,0.0,0.0,0.0017389630217860379,0.0996352418776562,-6.129954883285624,0.0,-21.180125980167887,11.99388237087992,0.0,-0.02085693895435744,0.0,-44.83224834431886,0.0,0.0,-0.045034195842656444,0.0,0.20956833851431464,0.3490658503988659,1.0,0.14,0.14,0.75,0.08726646259971647,5.0,0.184,0.175,0.174,0.0,0.0,0.0,0.00008519780778706184,0.0,0.012543364813280711,0.0,6.0790097348417245,0.0,-0.5145894669053674,0.0,0.19221879975376416,0.0,-3.7321160437800884,0.0,-0.04576156834625173,0.0,-0.014577870378441113,0.6805985788086126,-0.19648690047420192,0.13544580320382338,0.0,0.0,0.0,0.6790008140084111,0.13544580320382338,0.0,0.0,-0.1955059769512731,0.0,0.0,-0.00026283307148597504,0.0,1.6707852983696263,0.0,8.375782422132946,0.0,-0.3376316622810654,0.0,88.11037640406792,-1.6855367595137274,0.0,-8.372826316632114,0.0,-0.3376316622810654,0.0
sim_raptor_glider_3dof,raptor_glider_3dof,0.002,-14.976012242184112,0.0,-0.000041569726514638124,11.987739948563272,0.0,-0.04235790203063695,0.0,0.0,0.0,-5.137425352216685,-0.08966498747161052,-0.003739838706901313,0.0,0.0,0.0,0.0,0.0,-0.00008993449883438299,-0.005152867215834367,0.0,0.0,11.987814782780228,0.000041569726514638124,0.03522823116394907,-0.003533420472242341,-0.20245008030460837,0.0,0.0,0.003443485973407958,0.19729721308877401,-6.154012688218596,0.0,-21.279670630989187,11.987743709520254,0.0,-0.04127979047635944,0.0,-44.429582642347704,0.0,0.0,-0.08966498747161052,0.0,0.20956833851431464,0.3490658503988659,1.0,0.14,0.14,0.75,0.08726646259971647,5.0,0.184,0.175,0.174,0.0,0.0,0.0,0.000046696237597923413,0.0,0.0125225803218893,0.0,6.0801637678268206,0.0,-0.514840788306493,0.0,0.1901878228966413,0.0,-3.733379710536166,0.0,-0.045228375851468314,0.0,-0.014359596316862913,0.6734027918025192,-0.19590149996243125,0.13490121122279944,0.0,0.0,0.0,0.6702193553500687,0.13490121122279944,0.0,0.0,-0.19394678664956802,0.0,0.0,-0.0005235774189661839,0.0,1.6623792375500641,0.0,8.259071440789558,0.0,-0.33459918687952056,0.0,88.02098441844869,-1.6915515714942628,0.0,-8.25314601073303,0.0,-0.33459918687952056,0.0
sim_raptor_glider_3dof,raptor_glider_3dof,0.003,-14.964027575660305,0.0,-0.00009287954200094607,11.981573741081657,0.0,-0.06368444896654667,0.0,0.0,0.0,-7.671553355480238,-0.13389386479554913,-0.005587411820366894,0.0,0.0,0.0,0.0,0.0,-0.00020174737698058803,-0.011559273228822472,0.0,0.0,11.981742987646566,0.00009287954200094607,0.035210388161998785,-0.0053151489636683695,-0.3045356031015309,0.0,0.0,0.005113401586687782,0.29297632987270844,-6.17846649073292,0.0,-21.37227446891252,11.981586345415073,0.0,-0.06126719661253943,0.0,-44.02842508213542,0.0,0.0,-0.13389386479554913,0.0,0.20956833851431464,0.3490658503988659,1.0,0.14,0.14,0.75,0.08726646259971647,5.0,0.184,0.175,0.174,0.0,0.0,0.0,7.870693619335488e-6,0.0,0.01250173817024625,0.0,6.0813096038039545,0.0,-0.5150894398288479,0.0,0.18814445230661947,0.0,-3.7346384917032984,0.0,-0.04469282069037175,0.0,-0.014142263583467658,0.6661409767571397,-0.19531184461929701,0.13435937227285868,0.0,0.0,0.0,0.661383947394235,0.13435937227285868,0.0,0.0,-0.1923904697638294,0.0,0.0,-0.0007822376548513653,0.0,1.6540253974273522,0.0,8.141939247968661,0.0,-0.3315780692935619,0.0,87.93184222748614,-1.6972774498994765,0.0,-8.133032890073046,0.0,-0.3315780692935619,0.0
sim_raptor_glider_3dof,raptor_glider_3dof,0.004,-14.952049074947627,0.0,-0.00016395854996859656,11.975382894814802,0.0,-0.08510018815785464,0.0,0.0,0.0,-10.182740642182,-0.1777223510827177,-0.00742013284330294,0.0,0.0,0.0,0.0,0.0,-0.0003575887787076986,-0.020488327821188684,0.0,0.0,11.975685263042255,0.00016395854996859656,0.03519258650869039,-0.0071061406937112,-0.4071518703758188,0.0,0.0,0.006748551915003501,0.3866635425546301,-6.203283448344953,0.0,-21.458085943986298,11.975412560041997,0.0,-0.08081792026433353,0.0,-43.62880707477188,0.0,0.0,-0.1777223510827177,0.0,0.20956833851431464,0.3490658503988659,1.0,0.14,0.14,0.75,0.08726646259971647,5.0,0.184,0.175,0.174,0.0,0.0,0.0,-0.00003124866825346605,0.0,0.012480835138980862,0.0,6.082446624850065,0.0,-0.515335292558085,0.0,0.18608930828129033,0.0,-3.735891803959989,0.0,-0.04415506050787396,0.0,-0.013925979039738044,0.6588157312898709,-0.19471809572339302,0.13382060174037622,0.0,0.0,0.0,0.6524971726142548,0.13382060174037622,0.0,0.0,-0.19083718183709045,0.0,0.0,-0.0010388185980624116,0.0,1.6457275301434373,0.0,8.024418858879171,0.0,-0.32856854608010705,0.0,87.84295161583427,-1.7027081474562327,0.0,-8.012521581299728,0.0,-0.32856854608010705,0.0
sim_raptor_glider_3dof,raptor_glider_3dof,0.005,-14.940076755302421,0.0,-0.00025436947603849313,11.969167063490492,0.0,-0.1065984041498324,0.0,0.0,0.0,-12.67107633402758,-0.22115200180031408,-0.0092380376364338,0.0,0.0,0.0,0.0,0.0,-0.000557059114937309,-0.031917136225200836,0.0,0.0,11.969641741234902,0.00025436947603849313,0.035174826592714745,-0.008905848278007937,-0.5102675193137066,0.0,0.0,0.008348789163070629,0.47835038308850586,-6.228431096319995,0.0,-21.537253366566198,11.969224587994951,0.0,-0.09993085434421284,0.0,-43.23075905888628,0.0,0.0,-0.22115200180031408,0.0,0.20956833851431464,0.3490658503988659,1.0,0.14,0.14,0.75,0.08726646259971647,5.0,0.184,0.175,0.174,0.0,0.0,0.0,-0.00007063122752519088,0.0,0.012459867484051255,0.0,6.083574236888212,0.0,-0.5155782243852551,0.0,0.18402299888741164,0.0,-3.737139086222346,0.0,-0.04361524812895936,0.0,-0.013710845730059242,0.6514296555927911,-0.19412041161612656,0.1332852065477003,0.0,0.0,0.0,0.6435616153057734,0.1332852065477003,0.0,0.0,-0.18928707520177118,0.0,0.0,-0.0012933252691007323,0.0,1.6374892652842399,0.0,7.906543148395429,0.0,-0.3255708464724726,0.0,87.75431420966827,-1.707837870568639,0.0,-7.891646561980041,0.0,-0.3255708464724726,0.0
sim_raptor_glider_3dof,raptor_glider_3dof,0.006,-14.928110629792213,0.0,-0.00036367401585962663,11.962925932799068,0.0,-0.12817252842507962,0.0,0.0,0.0,-15.136651252477503,-0.2641844020818559,-0.011041163408628448,0.0,0.0,0.0,0.0,0.0,-0.00079976035498075,-0.0458228929622815,0.0,0.0,11.963612542651125,0.00036367401585962663,0.035157108767965926,-0.010713735506697976,-0.6138518273532485,0.0,0.0,0.009913975151717226,0.568028934390967,-6.253877390959816,0.0,-21.60992487438837,11.96302461425202,0.0,-0.11860501456373715,0.0,-42.83431054560093,0.0,0.0,-0.2641844020818559,0.0,0.20956833851431464,0.3490658503988659,1.0,0.14,0.14,0.75,0.08726646259971647,5.0,0.184,0.175,0.174,0.0,0.0,0.0,-0.00011024594126412159,0.0,0.012438830972980531,0.0,6.0846918691397756,0.0,-0.5158181198206597,0.0,0.18194612060649312,0.0,-3.738379799033819,0.0,-0.04307353179417322,0.0,-0.013496962976504562,0.6439853522961488,-0.193518947894735,0.1327534853032144,0.0,0.0,0.0,0.6345798614855833,0.1327534853032144,0.0,0.0,-0.1877402991804843,0.0,0.0,-0.0015457628772079827,0.0,1.629314112084642,0.0,7.788344849866954,0.0,-0.3225851927189206,0.0,87.66593145844837,-1.7126612737364917,0.0,-7.770442158444433,0.0,-0.3225851927189206,0.0
sim_raptor_glider_3dof,raptor_glider_3dof,0.007,-14.91615070936529,0.0,-0.0004914329642017871,11.956659219665037,0.0,-0.1498161378714914,0.0,0.0,0.0,-17.57955785151471,-0.3068211655537521,-0.012829548681256268,0.0,0.0,0.0,0.0,0.0,-0.0010852960412906978,-0.062182882688212905,0.0,0.0,11.95759777590665,0.0004914329642017871,0.0351394333536297,-0.012529277243655788,-0.7178747064107819,0.0,0.0,0.01144398120236509,0.655691823722569,-6.27959075802977,0.0,-21.676248331816055,11.956814772815028,0.0,-0.1368395372689917,0.0,-42.43949013066787,0.0,0.0,-0.3068211655537521,0.0,0.20956833851431464,0.3490658503988659,1.0,0.14,0.14,0.75,0.08726646259971647,5.0,0.184,0.175,0.174,0.0,0.0,0.0,-0.0001500613964453352,0.0,0.012417720915504948,0.0,6.08579897387069,0.0,-0.5160548698711169,0.0,0.17985925843791756,0.0,-3.7396134242809214,0.0,-0.04253005525333104,0.0,-0.01328442641743926,0.6364854244113198,-0.1929138574482568,0.1322257283110306,0.0,0.0,0.0,0.6255544968233739,0.1322257283110306,0.0,0.0,-0.18619700010163198,0.0,0.0,-0.0017961368153758778,0.0,1.6212054602593466,0.0,7.669856531659874,0.0,-0.31961180017405977,0.0,87.57780463582017,-1.7171734558888903,0.0,-7.6489425205717785,0.0,-0.31961180017405977,0.0
sim_raptor_glider_3dof,raptor_glider_3dof,0.008,-14.904197002843661,0.0,-0.0006372063027167693,11.950366672587911,0.0,-0.17152295819671118,0.0,0.0,0.0,-19.99989021133951,-0.349063934225259,-0.014603233295209787,0.0,0.0,0.0,0.0,0.0,-0.001413271355665795,-0.08097448398638234,0.0,0.0,11.951597539010775,0.0006372063027167693,0.03512180063772304,-0.014351959738077543,-0.8223067207335256,0.0,0.0,0.012938688382411748,0.7413322367471433,-6.305540145166021,0.0,-21.73637116763262,11.950597146544526,0.0,-0.154633681616389,0.0,-42.04632547821457,0.0,0.0,-0.349063934225259,0.0,0.20956833851431464,0.3490658503988659,1.0,0.14,0.14,0.75,0.08726646259971647,5.0,0.184,0.175,0.174,0.0,0.0,0.0,-0.00019004587111833167,0.0,0.012396532189306265,0.0,6.086895026369314,0.0,-0.5162883719658693,0.0,0.177762985526526,0.0,-3.740839465173435,0.0,-0.04198495773621052,0.0,-0.013073328000788217,0.6289324715636656,-0.19230529035459187,0.1317022174683934,0.0,0.0,0.0,0.6164881028277723,0.1317022174683934,0.0,0.0,-0.1846573211544121,0.0,0.0,-0.00204445266132937,0.0,1.613166579769487,0.0,7.551110553973188,0.0,-0.3166508771764339,0.0,87.48993485770401,-1.7213699578609318,0.0,-7.527181576166759,0.0,-0.3166508771764339,0.0
sim_raptor_glider_3dof,raptor_glider_3dof,0.009000000000000001,-14.892249516992488,0.0,-0.0008005533329020573,11.944048070841013,0.0,-0.19328686227544314,0.0,0.0,0.0,-22.397743970719095,-0.39091437730775663,-0.016362258373379582,0.0,0.0,0.0,0.0,0.0,-0.001783293135679438,-0.10217517030908228,0.0,0.0,11.945611919432558,0.0008005533329020573,0.035104210877288655,-0.016181280513463365,-0.9271190805387325,0.0,0.0,0.014397987377783927,0.8249439102296502,-6.331695062942682,0.0,-21.790440276614696,11.944373765958948,0.0,-0.17198682728880493,0.0,-41.65484333347708,0.0,0.0,-0.39091437730775663,0.0,0.20956833851431464,0.3490658503988659,1.0,0.14,0.14,0.75,0.08726646259971647,5.0,0.184,0.175,0.174,0.0,0.0,0.0,-0.00023016738591599215,0.0,0.012375259270442437,0.0,6.087979524640707,0.0,-0.5165185298207948,0.0,0.17565786327392469,0.0,-3.742057445916981,0.0,-0.04143837405018434,0.0,-0.012863756030607366,0.6213290879618367,-0.1916933939164432,0.13118322629626575,0.0,0.0,0.0,0.6073832548082745,0.13118322629626575,0.0,0.0,-0.18312140240750602,0.0,0.0,-0.002290716172273142,0.0,1.6052006219066508,0.0,7.432139046131095,0.0,-0.31370262514441594,0.0,87.40232308367179,-1.725246757270965,0.0,-7.405193006540879,0.0,-0.31370262514441594,0.0
sim_raptor_glider_3dof,raptor_glider_3dof,0.01,-14.880308256572963,0.0,-0.000981032795658838,11.93770322388913,0.0,-0.21510186956428565,0.0,0.0,0.0,-24.773216274636457,-0.43237419030104995,-0.01810666629351137,0.0,0.0,0.0,0.0,0.0,-0.002194969901344883,-0.12576251150530848,0.0,0.0,11.939640994432914,0.000981032795658838,0.03508666429937087,-0.018016748345441803,-1.0322836407431242,0.0,0.0,0.01582177844409692,0.9065211292378158,-6.358025624111039,0.0,-21.838601909291057,11.938146608363361,0.0,-0.18889847316844283,0.0,-41.26506952926851,0.0,0.0,-0.43237419030104995,0.0,0.20956833851431464,0.3490658503988659,1.0,0.14,0.14,0.75,0.08726646259971647,5.0,0.184,0.175,0.174,0.0,0.0,0.0,-0.00027039375693512424,0.0,0.012353896262431104,0.0,6.089051989139784,0.0,-0.5167452533106717,0.0,0.17354444134645247,0.0,-3.7432669114342807,0.0,-0.0408904346511533,0.0,-0.01265579520553268,0.6136778600133846,-0.1910783126663853,0.13066901995038444,0.0,0.0,0.0,0.5982425194758173,0.13066901995038444,0.0,0.0,-0.1815893807925816,0.0,0.0,-0.002534933281091592,0.0,1.5973106202012255,0.0,7.312973879941081,0.0,-0.31076723862492117,0.0,87.31497012220706,-1.728800263224247,0.0,-7.283010218033743,0.0,-0.31076723862492117,0.0
sim_raptor_glider_3dof,raptor_glider_3dof,0.01,-14.880308256572963,0.0,-0.000981032795658838,11.93770322388913,0.0,-0.21510186956428565,0.0,0.0,0.0,-24.773216274636457,-0.43237419030104995,-0.01810666629351137,0.0,0.0,0.0,0.0,0.0,-0.002194969901344883,-0.12576251150530848,0.0,0.0,11.939640994432914,0.000981032795658838,0.03508666429937087,-0.018016748345441803,-1.0322836407431242,0.0,0.0,0.01582177844409692,0.9065211292378158,-4.744136368947585,0.0,-18.693219430247034,11.938146608363361,0.0,-0.18889847316844283,0.0,-4.273499435138633,0.0,0.0,-0.43237419030104995,0.0,-0.051318843204538,0.3490658503988659,1.0,0.14,0.14,0.75,0.08726646259971647,5.0,0.184,0.175,0.174,0.0,0.0,0.0,-0.010548106674708704,0.0,0.001681534076175903,0.0,6.078374993123331,0.0,-0.5178475584287273,0.0,0.17200209319781096,0.0,-3.7759966112283103,0.0,-0.03671340806872012,0.0,-0.008650522560897886,0.5422479224280689,-0.028377686676271986,0.09564277066900984,0.0,0.0,0.0,0.5268396473630457,0.09564277066900984,0.0,0.0,-0.018805787197180273,0.0,0.0,-0.002534933281091592,0.0,1.1691463928717576,0.0,6.440138329617781,0.0,-0.03218372424602905,0.0,87.31497012220706,-1.2849807180542971,0.0,-6.418030036296637,0.0,-0.03218372424602905,0.0
sim_raptor_glider_3dof,raptor_glider_3dof,0.011,-14.868372422312246,0.0,-0.0011766445342112288,11.932950538560922,0.0,-0.23365893574734758,0.0,0.0,0.0,-25.013965848825446,-0.4365760630434222,-0.018289374064924705,0.0,0.0,0.0,0.0,0.0,-0.002629454498336833,-0.15065664517638966,0.0,0.0,11.935237955482748,0.0011766445342112288,0.035073725221084213,-0.019578483886241012,-1.1217644959465,0.0,0.0,0.01694902938790418,0.9711078507701104,-4.76110682489059,0.0,-18.421330934451866,11.933523681021649,0.0,-0.20228101367029105,0.0,-4.130623745528589,0.0,0.0,-0.4365760630434222,0.0,-0.051318843204538,0.3490658503988659,1.0,0.14,0.14,0.75,0.08726646259971647,5.0,0.184,0.175,0.174,0.0,0.0,0.0,-0.010617306877648157,0.0,0.0016707148595771586,0.0,6.078669159794389,0.0,-0.5180519795842565,0.0,0.17019564433231107,0.0,-3.775380559960124,0.0,-0.03623619484097873,0.0,-0.008482391954593629,0.5357446837642463,-0.027857376789970738,0.09530606527084745,0.0,0.0,0.0,0.5201801761929902,0.09530606527084745,0.0,0.0,-0.018190468168172956,0.0,0.0,-0.0025605123690894587,0.0,1.1641713644557339,0.0,6.354043299977194,0.0,-0.031107727427575803,0.0,87.25058287193775,-1.2883428351389368,0.0,-6.3300342781812775,0.0,-0.031107727427575803,0.0
sim_raptor_glider_3dof,raptor_glider_3dof,0.012,-14.856441211186356,0.0,-0.0013854832188505695,11.928181365922704,0.0,-0.25194537063474487,0.0,0.0,0.0,-25.24660320268685,-0.4406363508314308,-0.018466272392911685,0.0,0.0,0.0,0.0,0.0,-0.0030680715895586514,-0.1757875533257045,0.0,0.0,11.930841846581066,0.0013854832188505695,0.03506080650792284,-0.021118719265684576,-1.2100134826453472,0.0,0.0,0.018050647676125926,1.0342259293196427,-4.777086673524969,0.0,-18.15192408126196,11.928898210824814,0.0,-0.21534772789711698,0.0,-3.9903528621369424,0.0,0.0,-0.4406363508314308,0.0,-0.051318843204538,0.3490658503988659,1.0,0.14,0.14,0.75,0.08726646259971647,5.0,0.184,0.175,0.174,0.0,0.0,0.0,-0.010685433022552865,0.0,0.0016597753954440367,0.0,6.07894795099139,0.0,-0.5182506507668709,0.0,0.1684130776889753,0.0,-3.774764030582119,0.0,-0.03576594405062911,0.0,-0.008318180845431664,0.5293183982216092,-0.027344509537271126,0.09497860233944946,0.0,0.0,0.0,0.5136026270000617,0.09497860233944946,0.0,0.0,-0.017585694624193876,0.0,0.0,-0.0025852781350076365,0.0,1.159316883050881,0.0,6.269077265765828,0.0,-0.030051347404753313,0.0,87.18632065504096,-1.2914434065089626,0.0,-6.243197844634854,0.0,-0.030051347404753313,0.0
sim_raptor_glider_3dof,raptor_glider_3dof,0.013000000000000001,-14.844514626421002,0.0,-0.001607239111465007,11.923396676790613,0.0,-0.2699636003756001,0.0,0.0,0.0,-25.47127429023851,-0.44455760104324377,-0.018637461640211954,0.0,0.0,0.0,0.0,0.0,-0.00351068224394209,-0.20114727578939906,0.0,0.0,11.926452475804748,0.001607239111465007,0.03504790759588806,-0.0226376334457551,-1.2970408546059622,0.0,0.0,0.01912695120181301,1.0958935788165631,-4.79210141287443,0.0,-17.885027450177404,11.92427095406245,0.0,-0.22810276572587584,0.0,-3.8526532127000683,0.0,0.0,-0.44455760104324377,0.0,-0.051318843204538,0.3490658503988659,1.0,0.14,0.14,0.75,0.08726646259971647,5.0,0.184,0.175,0.174,0.0,0.0,0.0,-0.010752502156898575,0.0,0.001648729803911531,0.0,6.079211874665175,0.0,-0.5184437232910957,0.0,0.16665423656368802,0.0,-3.774147316509881,0.0,-0.035302580921766136,0.0,-0.008157811187096912,0.5229692868629642,-0.026839018626516258,0.0946601844701297,0.0,0.0,0.0,0.5071071359266132,0.0946601844701297,0.0,0.0,-0.016991345009481608,0.0,0.0,-0.0026092446296296736,0.0,1.154580235596333,0.0,6.185239124010852,0.0,-0.029014331344844217,0.0,87.1221805555779,-1.2942916259981874,0.0,-6.157519608453974,0.0,-0.029014331344844217,0.0
sim_raptor_glider_3dof,raptor_glider_3dof,0.014,-14.832592669521544,0.0,-0.0018415913538310288,11.918597459484943,0.0,-0.2877162356637013,0.0,0.0,0.0,-25.68813080025034,-0.4483424611473343,-0.018803046462088056,0.0,0.0,0.0,0.0,0.0,-0.003957143640265831,-0.22672762951426698,0.0,0.0,11.922069704271378,0.0018415913538310288,0.035035028076850265,-0.02413542094956526,-1.382857757181719,0.0,0.0,0.02017827730929943,1.1561301276674523,-4.806176607222533,0.0,-17.62066557852807,11.919642674533364,0.0,-0.24055050394566155,0.0,-3.717489675448933,0.0,0.0,-0.4483424611473343,0.0,-0.051318843204538,0.3490658503988659,1.0,0.14,0.14,0.75,0.08726646259971647,5.0,0.184,0.175,0.174,0.0,0.0,0.0,-0.010818531549692962,0.0,0.0016375914606707785,0.0,6.079461429110375,0.0,-0.5186313468359893,0.0,0.1649189444150435,0.0,-3.773530695982914,0.0,-0.0348460266610464,0.0,-0.00800120434653053,0.5166974547696753,-0.02634083247641347,0.09435061339999128,0.0,0.0,0.0,0.5006937193694305,0.09435061339999128,0.0,0.0,-0.01640729025603796,0.0,0.0,-0.002632426504692328,0.0,1.1499587174127726,0.0,6.102526381060647,0.0,-0.027996414745805914,0.0,87.05816043654274,-1.2968965414391176,0.0,-6.072997006758529,0.0,-0.027996414745805914,0.0
sim_raptor_glider_3dof,raptor_glider_3dof,0.015,-14.820675341125247,0.0,-0.0020882394416058643,11.913784626194731,0.0,-0.3052057857202451,0.0,0.0,0.0,-25.897314849819097,-0.45199341155496403,-0.018963124760378508,0.0,0.0,0.0,0.0,0.0,-0.004407322750545377,-0.25252099255823945,0.0,0.0,11.917693346071255,0.0020882394416058643,0.03502216740448222,-0.025612268077391403,-1.4674748645921747,0.0,0.0,0.021204945326846025,1.2149538720339352,-4.819337243616557,0.0,-17.358860393289177,11.915014052812293,0.0,-0.25269509745267926,0.0,-3.584828630885391,0.0,0.0,-0.45199341155496403,0.0,-0.051318843204538,0.3490658503988659,1.0,0.14,0.14,0.75,0.08726646259971647,5.0,0.184,0.175,0.174,0.0,0.0,0.0,-0.010883537658569937,0.0,0.001626373188523196,0.0,6.079697098915567,0.0,-0.5188136664635683,0.0,0.16320703244894808,0.0,-3.772914441741738,0.0,-0.03439620569556847,0.0,-0.007848283637591017,0.5105029924839556,-0.025849882149732224,0.09404969507463735,0.0,0.0,0.0,0.494362384841069,0.09404969507463735,0.0,0.0,-0.015833407532074684,0.0,0.0,-0.0026548374664529914,0.0,1.145449674460667,0.0,6.020936403168715,0.0,-0.02699734441919788,0.0,86.99425747751486,-1.2992669720331809,0.0,-5.9896273225558865,0.0,-0.02699734441919788,0.0
sim_raptor_glider_3dof,raptor_glider_3dof,0.016,-14.808762641264043,0.0,-0.0023468821841983885,11.908959079925918,0.0,-0.3224348163229166,0.0,0.0,0.0,-26.0989689176749,-0.45551293898908785,-0.019117794836961247,0.0,0.0,0.0,0.0,0.0,-0.004861086822675893,-0.2785197587859879,0.0,0.0,11.913323238212215,0.0023468821841983885,0.035009325099803736,-0.027068366039821077,-1.5509031323969937,0.0,0.0,0.022207279217145184,1.272383373611006,-4.831608092021512,0.0,-17.099630909995867,11.910385752332276,0.0,-0.26454075067457916,0.0,-3.4546361643110792,0.0,0.0,-0.45551293898908785,0.0,-0.051318843204538,0.3490658503988659,1.0,0.14,0.14,0.75,0.08726646259971647,5.0,0.184,0.175,0.174,0.0,0.0,0.0,-0.010947536727495197,0.0,0.0016150871822350388,0.0,6.079919357425467,0.0,-0.518990824354404,0.0,0.16151832446196948,0.0,-3.7722988157942408,0.0,-0.033953041645858134,0.0,-0.007698972942020201,0.5043859231713714,-0.025366096997996752,0.09375723693316891,0.0,0.0,0.0,0.4881130720452973,0.09375723693316891,0.0,0.0,-0.01526957212262749,0.0,0.0,-0.0026764912771745746,0.0,1.1410504836057087,0.0,5.940465772349525,0.0,-0.026016864953426738,0.0,86.93046919666897,-1.3014115539012943,0.0,-5.907407025587901,0.0,-0.026016864953426738,0.0
sim_raptor_glider_3dof,raptor_glider_3dof,0.017,-14.79685456930334,0.0,-0.002617222698851915,11.904121698431988,0.0,-0.3394059114579737,0.0,0.0,0.0,-26.293233492120905,-0.4589034954331563,-0.01926715369604822,0.0,0.0,0.0,0.0,0.0,-0.005318305640863993,-0.3047164673821253,0.0,0.0,11.908959223366745,0.002617222698851915,0.034996500700481194,-0.028503907782718944,-1.6331536155798958,0.0,0.0,0.02318560214185495,1.3284371481977706,-4.8430135964906444,0.0,-16.842993434325592,11.905758404372644,0.0,-0.27609165239469613,0.0,-3.3268784992,0.0,0.0,-0.4589034954331563,0.0,-0.051318843204538,0.3490658503988659,1.0,0.14,0.14,0.75,0.08726646259971647,5.0,0.184,0.175,0.174,0.0,0.0,0.0,-0.011010544663487309,0.0,0.0016037450505950247,0.0,6.080128666330819,0.0,-0.5191629594596746,0.0,0.15985264056449833,0.0,-3.771684070774299,0.0,-0.033516458275621656,0.0,-0.007553197056747896,0.49834621784535554,-0.02488940573387036,0.0934730486252398,0.0,0.0,0.0,0.4819456695545233,0.0934730486252398,0.0,0.0,-0.014715659398034027,0.0,0.0,-0.002697401517446751,0.0,1.1367585578380928,0.0,5.861110473411699,0.0,-0.0250547219774752,0.0,86.8667931984547,-1.3033387272137167,0.0,-5.8263319646669105,0.0,-0.0250547219774752,0.0
sim_raptor_glider_3dof,raptor_glider_3dof,0.018000000000000002,-14.784951123954706,0.0,-0.0028989685316594786,11.899273333732065,0.0,-0.35612167119820826,0.0,0.0,0.0,-26.480247015694452,-0.4621674971652707,-0.01941129700116258,0.0,0.0,0.0,0.0,0.0,-0.0057788515701286194,-0.331103805400919,0.0,0.0,11.904601148949258,0.0028989685316594786,0.03498369375811589,-0.02991908782028094,-1.7142374589833635,0.0,0.0,0.02414023625015232,1.3831336535824446,-4.853577855878898,0.0,-16.588961674380364,11.901132608246408,0.0,-0.28735197319329353,0.0,-3.2015220164146867,0.0,0.0,-0.4621674971652707,0.0,-0.051318843204538,0.3490658503988659,1.0,0.14,0.14,0.75,0.08726646259971647,5.0,0.184,0.175,0.174,0.0,0.0,0.0,-0.01107257704585508,0.0,0.0015923578365139568,0.0,6.0803254757987535,0.0,-0.5193302075395799,0.0,0.15820979742110566,0.0,-3.771070450094517,0.0,-0.03308637952367984,0.0,-0.007410881720031803,0.49238379797110504,-0.024419736501391804,0.09319694208754595,0.0,0.0,0.0,0.47586001745667994,0.09319694208754595,0.0,0.0,-0.01417154490871885,0.0,0.0,-0.0027175815801627617,0.0,1.1325713468496654,0.0,5.78286592682999,0.0,-0.024110662305619007,0.0,86.80322715997694,-1.3050567347790885,0.0,-5.746397402060171,0.0,-0.024110662305619007,0.0
sim_raptor_glider_3dof,raptor_glider_3dof,0.019000000000000003,-14.773052303383757,0.0,-0.003191831146679321,11.894414815362145,0.0,-0.37258470695714246,0.0,0.0,0.0,-26.66014612190756,-0.4653073288900844,-0.01955031924037978,0.0,0.0,0.0,0.0,0.0,-0.006242599231293345,-0.3576745891447207,0.0,0.0,11.900248869824734,0.003191831146679321,0.034970903846203924,-0.031314101837910384,-1.7941658745551192,0.0,0.0,0.025071502606617037,1.4364912854103984,-4.863324611835755,0.0,-16.337546961173956,11.89650893507208,0.0,-0.2983258646430063,0.0,-3.078533267494269,0.0,0.0,-0.4653073288900844,0.0,-0.051318843204538,0.3490658503988659,1.0,0.14,0.14,0.75,0.08726646259971647,5.0,0.184,0.175,0.174,0.0,0.0,0.0,-0.011133649124940553,0.0,0.001580936038680933,0.0,6.080510224580041,0.0,-0.5194927011762404,0.0,0.15658960875776812,0.0,-3.770458188207154,0.0,-0.03266272960599805,0.0,-0.007271953658444954,0.48649853898352086,-0.02395701702175975,0.09292873165884283,0.0,0.0,0.0,0.4698559107386302,0.09292873165884283,0.0,0.0,-0.013637104445086218,0.0,0.0,-0.002737044693653169,0.0,1.1284863387703123,0.0,5.705727033976717,0.0,-0.02318443403749934,0.0,86.73976887034384,-1.3065736214274692,0.0,-5.667598060451524,0.0,-0.02318443403749934,0.0
sim_raptor_glider_3dof,raptor_glider_3dof,0.02,-14.761158105197307,0.0,-0.0034955261602822047,11.889546949235404,0.0,-0.3887976403843499,0.0,0.0,0.0,-26.833065527933027,-0.46832534186582175,-0.01968431364655037,0.0,0.0,0.0,0.0,0.0,-0.006709425620262492,-0.38442177099798536,0.0,0.0,11.895902246708374,0.0034955261602822047,0.03495813055543323,-0.03268914661004015,-1.872950136639683,0.0,0.0,0.02597972098977766,1.4885283656416977,-4.872277233204943,0.0,-16.088758326292556,11.89188792726316,0.0,-0.30901745687596477,0.0,-2.9578789909080814,0.0,0.0,-0.46832534186582175,0.0,-0.051318843204538,0.3490658503988659,1.0,0.14,0.14,0.75,0.08726646259971647,5.0,0.184,0.175,0.174,0.0,0.0,0.0,-0.011193775834269268,0.0,0.0015694896304109334,0.0,6.080683340170114,0.0,-0.5196505698257848,0.0,0.15499188550322734,0.0,-3.7698475107377956,0.0,-0.032245433022113315,0.0,-0.007136340599721249,0.4806902724239792,-0.023501174633715496,0.09266823412658215,0.0,0.0,0.0,0.4639331014965225,0.09266823412658215,0.0,0.0,-0.013112214121571304,0.0,0.0,-0.002755803910517052,0.0,1.1245010602470398,0.0,5.629688203661236,0.0,-0.02227578668052876,0.0,86.67641620713643,-1.3078972336260055,0.0,-5.58992815080951,0.0,-0.02227578668052876,0.0
sim_raptor_glider_3dof,raptor_glider_3dof,0.02,-14.761158105197307,0.0,-0.0034955261602822047,11.889546949235404,0.0,-0.3887976403843499,0.0,0.0,0.0,-26.833065527933027,-0.46832534186582175,-0.01968431364655037,0.0,0.0,0.0,0.0,0.0,-0.006709425620262492,-0.38442177099798536,0.0,0.0,11.895902246708374,0.0034955261602822047,0.03495813055543323,-0.03268914661004015,-1.872950136639683,0.0,0.0,0.02597972098977766,1.4885283656416977,-4.875722465780857,0.0,-16.077057442316523,11.89188792726316,0.0,-0.30901745687596477,0.0,-2.8236351852340467,0.0,0.0,-0.46832534186582175,0.0,-0.05234426834869843,0.3490658503988659,1.0,0.14,0.14,0.75,0.08726646259971647,5.0,0.184,0.175,0.174,0.0,0.0,0.0,-0.011331046728137334,0.0,0.0016158907071008087,0.0,6.080501081901214,0.0,-0.5196816138523396,0.0,0.1549891922421366,0.0,-3.7692016370019914,0.0,-0.03220432607455754,0.0,-0.0071539762167521365,0.48042729485477526,-0.022904294821262664,0.09275493585714067,0.0,0.0,0.0,0.4636706261953687,0.09275493585714067,0.0,0.0,-0.012517114210485302,0.0,0.0,-0.002755803910517052,0.0,1.1255531595867676,0.0,5.6265031450786696,0.0,-0.021264796579997608,0.0,86.67641620713643,-1.3088446725843819,0.0,-5.586710407716101,0.0,-0.021264796579997608,0.0
sim_raptor_glider_3dof,raptor_glider_3dof,0.021,-14.749268532839805,0.0,-0.003809764623619788,11.884667134829602,0.0,-0.40475068261249625,0.0,0.0,0.0,-26.991472295323895,-0.4710900615142332,-0.019807753011705394,0.0,0.0,0.0,0.0,0.0,-0.007179140153697646,-0.41133443133977626,0.0,0.0,11.891557342113527,0.003809764623619788,0.03494536231483008,-0.03404338579448196,-1.9505423263594375,0.0,0.0,0.026864245640784316,1.539207895019661,-4.883837594604908,0.0,-15.829719443771832,11.88726660487328,0.0,-0.319419294092618,0.0,-2.7062020527087047,0.0,0.0,-0.4710900615142332,0.0,-0.05234426834869843,0.3490658503988659,1.0,0.14,0.14,0.75,0.08726646259971647,5.0,0.184,0.175,0.174,0.0,0.0,0.0,-0.011390775185999893,0.0,0.0016043848827759007,0.0,6.080659129992211,0.0,-0.5198351206882478,0.0,0.15341496215376235,0.0,-3.7685837567438063,0.0,-0.03179352345414327,0.0,-0.007021685941949186,0.47470041029813387,-0.022455908453045223,0.0925024471301184,0.0,0.0,0.0,0.45783822311079786,0.0925024471301184,0.0,0.0,-0.01200530377699436,0.0,0.0,-0.0027730854216387554,0.0,1.121669470297474,0.0,5.55167104364548,0.0,-0.020380407658949256,0.0,86.61311172199736,-1.3099807271814388,0.0,-5.5102762427905825,0.0,-0.020380407658949256,0.0
sim_raptor_glider_3dof,raptor_glider_3dof,0.022,-14.737383575262658,0.0,-0.004134262614184451,11.879779575569522,0.0,-0.42045792315255587,0.0,0.0,0.0,-27.143220131661725,-0.47373856089110583,-0.019926385124262768,0.0,0.0,0.0,0.0,0.0,-0.0076515606267039205,-0.43840213059860983,0.0,0.0,11.887217825431675,0.004134262614184451,0.034932609907524975,-0.0353779706670321,-2.027008406958565,0.0,0.0,0.027726410040328178,1.5886062763599553,-4.891202282013048,0.0,-15.58504669379378,11.882648946119271,0.0,-0.32954764837745504,0.0,-2.591037375598693,0.0,0.0,-0.47373856089110583,0.0,-0.05234426834869843,0.3490658503988659,1.0,0.14,0.14,0.75,0.08726646259971647,5.0,0.184,0.175,0.174,0.0,0.0,0.0,-0.01144957466129851,0.0,0.0015928732258441085,0.0,6.080806427152709,0.0,-0.5199842422486257,0.0,0.15186290660670523,0.0,-3.767968073983291,0.0,-0.0313889499899977,0.0,-0.006892576109573294,0.46905041654015245,-0.022014279484726076,0.09225732064217847,0.0,0.0,0.0,0.45208682783745724,0.09225732064217847,0.0,0.0,-0.0115028018677896,0.0,0.0,-0.0027896939173967877,0.0,1.1178807765456966,0.0,5.477930321964788,0.0,-0.01951310247563376,0.0,86.54990882058605,-1.3109389137412555,0.0,-5.4349624844437106,0.0,-0.01951310247563376,0.0
sim_raptor_glider_3dof,raptor_glider_3dof,0.023,-14.725503233211635,0.0,-0.004468749275028472,11.874885029522419,0.0,-0.43592187295250373,0.0,0.0,0.0,-27.28843593207276,-0.4762730547341973,-0.02004029793124941,0.0,0.0,0.0,0.0,0.0,-0.008126570504731916,-0.46561819183663794,0.0,0.0,11.882883587063121,0.004468749275028472,0.034919873011440596,-0.036693089244197584,-2.1023591509893973,0.0,0.0,0.02856651873946567,1.6367409591527593,-4.897838787829905,0.0,-15.343043738385466,11.878035427002425,0.0,-0.3394064503945232,0.0,-2.478109461556625,0.0,0.0,-0.4762730547341973,0.0,-0.05234426834869843,0.3490658503988659,1.0,0.14,0.14,0.75,0.08726646259971647,5.0,0.184,0.175,0.174,0.0,0.0,0.0,-0.011507458896419631,0.0,0.0015813643864039616,0.0,6.080943367575549,0.0,-0.5201290979890346,0.0,0.15033284245776324,0.0,-3.7673547937060277,0.0,-0.030990534396797807,0.0,-0.006766578473154501,0.4634770745006127,-0.021579337822523668,0.09201938209367086,0.0,0.0,0.0,0.44641612615011506,0.09201938209367086,0.0,0.0,-0.011009490075521143,0.0,0.0,-0.0028056417103749175,0.0,1.1141847403340663,0.0,5.405274674515733,0.0,-0.018662642354982942,0.0,86.48680582158573,-1.3117264878385755,0.0,-5.360762591614847,0.0,-0.018662642354982942,0.0
sim_raptor_glider_3dof,raptor_glider_3dof,0.024,-14.71362750274727,0.0,-0.0048129796967692545,11.869984152368808,0.0,-0.45114497567717154,0.0,0.0,0.0,-27.427236132801227,-0.4786955752393381,-0.02014957197388517,0.0,0.0,0.0,0.0,0.0,-0.008604066409702507,-0.49297669192623267,0.0,0.0,11.878554439264292,0.0048129796967692545,0.03490715107486053,-0.03798892437057626,-2.176605034675697,0.0,0.0,0.02938485796087375,1.683628342749464,-4.903768679393357,0.0,-15.103712488207325,11.87342642129841,0.0,-0.34899940483936137,0.0,-2.367387967718514,0.0,0.0,-0.4786955752393381,0.0,-0.05234426834869843,0.3490658503988659,1.0,0.14,0.14,0.75,0.08726646259971647,5.0,0.184,0.175,0.174,0.0,0.0,0.0,-0.011564441093725687,0.0,0.001569866618044505,0.0,6.081070334534903,0.0,-0.5202698038705942,0.0,0.14882459124991537,0.0,-3.7667441156276418,0.0,-0.030598207500822813,0.0,-0.006643626341650859,0.45798013444171615,-0.021151015115260127,0.09178846072952353,0.0,0.0,0.0,0.44082579942796046,0.09178846072952353,0.0,0.0,-0.010525255682153461,0.0,0.0,-0.002820940076343924,0.0,1.1105790589663567,0.0,5.3336976958295015,0.0,-0.01782879878488813,0.0,86.42379990902134,-1.312350490696847,0.0,-5.2876699165397305,0.0,-0.01782879878488813,0.0
sim_raptor_glider_3dof,raptor_glider_3dof,0.025,-14.701756378751421,0.0,-0.00516666662653412,11.865077704002564,0.0,-0.4661301346515537,0.0,0.0,0.0,-27.55975737981448,-0.4810085073285681,-0.020254302529860536,0.0,0.0,0.0,0.0,0.0,-0.009083927582075442,-0.5204707118554015,0.0,0.0,11.874230342403209,0.00516666662653412,0.03489444398131949,-0.03926569741986156,-2.249758741795793,0.0,0.0,0.030181769837786115,1.7292880299403917,-4.909013952028259,0.0,-14.867050302337468,11.868822401821657,0.0,-0.3583308784705219,0.0,-2.2588381342444364,0.0,0.0,-0.4810085073285681,0.0,-0.05234426834869843,0.3490658503988659,1.0,0.14,0.14,0.75,0.08726646259971647,5.0,0.184,0.175,0.174,0.0,0.0,0.0,-0.011620535849468615,0.0,0.0015583874013368976,0.0,6.081187704618848,0.0,-0.5204064771073766,0.0,0.14733792837080667,0.0,-3.766136213526254,0.0,-0.030211888999026274,0.0,-0.006523650466318091,0.45255915192787793,-0.020729230325623602,0.09156438166599921,0.0,0.0,0.0,0.4353153217564474,0.09156438166599921,0.0,0.0,-0.010049965612384215,0.0,0.0,-0.0028356023541804753,0.0,1.1070614144700135,0.0,5.263190632380083,0.0,-0.01701130998899485,0.0,86.36089042541971,-1.3128178428786355,0.0,-5.215675403972269,0.0,-0.01701130998899485,0.0
sim_raptor_glider_3dof,raptor_glider_3dof,0.026000000000000002,-14.689889856125216,0.0,-0.005529555932294216,11.860166343829658,0.0,-0.4808799648966215,0.0,0.0,0.0,-27.686120631895207,-0.48321396213090434,-0.020354573640317047,0.0,0.0,0.0,0.0,0.0,-0.009566047780848198,-0.5480941644630888,0.0,0.0,11.869911172538265,0.005529555932294216,0.03488175136659397,-0.04052360603015548,-2.3218315961788014,0.0,0.0,0.03095755824930728,1.7737374317157126,-4.913595636309186,0.0,-14.633054629485104,11.864223740947292,0.0,-0.367404774998089,0.0,-2.1524283868440524,0.0,0.0,-0.48321396213090434,0.0,-0.05234426834869843,0.3490658503988659,1.0,0.14,0.14,0.75,0.08726646259971647,5.0,0.184,0.175,0.174,0.0,0.0,0.0,-0.011675756427973649,0.0,0.0015469340078277066,0.0,6.081295841605352,0.0,-0.5205392294140408,0.0,0.14587265554856957,0.0,-3.7655312645340575,0.0,-0.029831506299682876,0.0,-0.0064065849774718265,0.44721375327810325,-0.020313910326049817,0.09134697708854289,0.0,0.0,0.0,0.42988424751299187,0.09134697708854289,0.0,0.0,-0.009583500647407366,0.0,0.0,-0.002849640309644387,0.0,1.1036295654184356,0.0,5.193745654036533,0.0,-0.016209938181322558,0.0,86.29807548832531,-1.3131352230914013,0.0,-5.144770939737333,0.0,-0.016209938181322558,0.0
sim_raptor_glider_3dof,raptor_glider_3dof,0.027,-14.678027929339189,0.0,-0.005901391877438669,11.85525072575168,0.0,-0.4953971310240891,0.0,0.0,0.0,-27.806447656818435,-0.48531406489494394,-0.020450470040586987,0.0,0.0,0.0,0.0,0.0,-0.01005032051912386,-0.5758409484995277,0.0,0.0,11.865596828135644,0.005901391877438669,0.034869072932309626,-0.04176285223215419,-2.392835173330944,0.0,0.0,0.03171253171303033,1.8169942248314168,-4.917534431390111,0.0,-14.40172106952341,11.859630803754438,0.0,-0.37622504767959714,0.0,-2.0481268794461163,0.0,0.0,-0.48531406489494394,0.0,-0.05234426834869843,0.3490658503988659,1.0,0.14,0.14,0.75,0.08726646259971647,5.0,0.184,0.175,0.174,0.0,0.0,0.0,-0.01173011601250367,0.0,0.0015355132683455904,0.0,6.081395099541348,0.0,-0.5206681701560864,0.0,0.1444285681633343,0.0,-3.764929436109329,0.0,-0.029456985985441848,0.0,-0.006292364691402103,0.4419435177428597,-0.01990498060523403,0.09113608118475733,0.0,0.0,0.0,0.42453208338251974,0.09113608118475733,0.0,0.0,-0.009125739875903123,0.0,0.0,-0.0028630658056821782,0.0,1.1002813054177065,0.0,5.125354402159017,0.0,-0.0154244435291087,0.0,86.23535354370168,-1.3133091269328094,0.0,-5.074947865337879,0.0,-0.0154244435291087,0.0
sim_raptor_glider_3dof,raptor_glider_3dof,0.028,-14.666170592496707,0.0,-0.006281922788922768,11.850331482541542,0.0,-0.5096842923910243,0.0,0.0,0.0,-27.920858347685282,-0.48731090815005185,-0.020542075216747585,0.0,0.0,0.0,0.0,0.0,-0.010536641488041128,-0.6037050875072001,0.0,0.0,11.861287211935531,0.006281922788922768,0.034856408392651944,-0.04298363789002283,-2.462781039216919,0.0,0.0,0.032446996401981704,1.859075951709719,-4.920850600115038,0.0,-14.173043759790986,11.855043933195947,0.0,-0.3847956159044861,0.0,-1.9459020552383157,0.0,0.0,-0.48731090815005185,0.0,-0.05234426834869843,0.3490658503988659,1.0,0.14,0.14,0.75,0.08726646259971647,5.0,0.184,0.175,0.174,0.0,0.0,0.0,-0.011783627517391908,0.0,0.0015241316282116626,0.0,6.081485822483444,0.0,-0.5207934059157956,0.0,0.1430054605926571,0.0,-3.764330888305149,0.0,-0.029088255177404893,0.0,-0.006180925538200677,0.4367479981970297,-0.01950236678262233,0.09093153095963806,0.0,0.0,0.0,0.41925831070972425,0.09093153095963806,0.0,0.0,-0.008676563227861643,0.0,0.0,-0.002875890530344662,0.0,1.097014469405672,0.0,5.058008244371224,0.0,-0.014654588377999756,0.0,86.17272310184727,-1.3133458602087027,0.0,-5.006197239191175,0.0,-0.014654588377999756,0.0
sim_raptor_glider_3dof,raptor_glider_3dof,0.029,-14.654317839352156,0.0,-0.006670901084538663,11.845409225942493,0.0,-0.5237441015683103,0.0,0.0,0.0,-28.029470710924762,-0.48920655149695286,-0.020629471394470366,0.0,0.0,0.0,0.0,0.0,-0.011024908556020452,-0.6316807297776427,0.0,0.0,11.856982230482222,0.006670901084538663,0.03484375747298546,-0.0441861645770724,-2.5316807431367083,0.0,0.0,0.033161256021051945,1.9000000133590658,-4.923563967098855,0.0,-13.94701545814707,11.850463450581373,0.0,-0.39312036376427456,0.0,-1.845722656820997,0.0,0.0,-0.48920655149695286,0.0,-0.05234426834869843,0.3490658503988659,1.0,0.14,0.14,0.75,0.08726646259971647,5.0,0.184,0.175,0.174,0.0,0.0,0.0,-0.011836303594836308,0.0,0.0015127951629589436,0.0,6.08156834468824,0.0,-0.520915040543018,0.0,0.14160312639539416,0.0,-3.763735773961453,0.0,-0.02872524155647315,0.0,-0.006072204565604743,0.4316267229780837,-0.019105994656050205,0.09073316625102466,0.0,0.0,0.0,0.4140623873500469,0.09073316625102466,0.0,0.0,-0.008235851528110643,0.0,0.0,-0.0028881259952258515,0.0,1.093826933582344,0.0,4.991698297112736,0.0,-0.013900137328518929,0.0,86.11018273045153,-1.3132515414024353,0.0,-4.93850986017366,0.0,-0.013900137328518929,0.0
sim_raptor_glider_3dof,raptor_glider_3dof,0.03,-14.642469663367816,0.0,-0.007068082841150826,11.84048454918736,0.0,-0.5375792034407236,0.0,0.0,0.0,-28.132401066516024,-0.4910030251022689,-0.020712739679891456,0.0,0.0,0.0,0.0,0.0,-0.011515021523882205,-0.659762134320752,0.0,0.0,11.852681796096467,0.007068082841150826,0.034831119915649786,-0.04537063349515788,-2.5995458131074334,0.0,0.0,0.03385561197127568,1.9397836787866816,-4.9256939241587485,0.0,-13.72362766183841,11.845889658369703,0.0,-0.4012031421191748,0.0,-1.7475577158123483,0.0,0.0,-0.4910030251022689,0.0,-0.05234426834869843,0.3490658503988659,1.0,0.14,0.14,0.75,0.08726646259971647,5.0,0.184,0.175,0.174,0.0,0.0,0.0,-0.011888156643174526,0.0,0.0015015095932297488,0.0,6.081642990806608,0.0,-0.5210331752101117,0.0,0.1402213584437193,0.0,-3.7631442388774077,0.0,-0.028367873371870755,0.0,-0.005966139937833014,0.4265791974879394,-0.018715790234427696,0.09054082973463104,0.0,0.0,0.0,0.40894374915469345,0.09054082973463104,0.0,0.0,-0.007803486454742551,0.0,0.0,-0.0028997835551848043,0.0,1.0907166156668189,0.0,4.926415445754423,0.0,-0.013160857157782795,0.0,86.04773108312683,-1.3130321048201177,0.0,-4.871876288615207,0.0,-0.013160857157782795,0.0
sim_raptor_glider_3dof,raptor_glider_3dof,0.03,-14.642469663367816,0.0,-0.007068082841150826,11.84048454918736,0.0,-0.5375792034407236,0.0,0.0,0.0,-28.132401066516024,-0.4910030251022689,-0.020712739679891456,0.0,0.0,0.0,0.0,0.0,-0.011515021523882205,-0.659762134320752,0.0,0.0,11.852681796096467,0.007068082841150826,0.034831119915649786,-0.04537063349515788,-2.5995458131074334,0.0,0.0,0.03385561197127568,1.9397836787866816,-4.928955537890472,0.0,-13.712556419240318,11.845889658369703,0.0,-0.4012031421191748,0.0,-1.6206051340092171,0.0,0.0,-0.4910030251022689,0.0,-0.05332671722065657,0.3490658503988659,1.0,0.14,0.14,0.75,0.08726646259971647,5.0,0.184,0.175,0.174,0.0,0.0,0.0,-0.012019532431090923,0.0,0.0015453823920979983,0.0,6.081433900431852,0.0,-0.521064419607194,0.0,0.14021881543278913,0.0,-3.762434256241172,0.0,-0.028329142979891947,0.0,-0.005982939512282858,0.42632949539686554,-0.01814684157637374,0.09062667149550094,0.0,0.0,0.0,0.40869465338044986,0.09062667149550094,0.0,0.0,-0.007236596592661619,0.0,0.0,-0.0028997835551848043,0.0,1.0917507240925237,0.0,4.923414668086975,0.0,-0.012204777264223414,0.0,86.04773108312683,-1.3139290485963417,0.0,-4.86883169690073,0.0,-0.012204777264223414,0.0
sim_raptor_glider_3dof,raptor_glider_3dof,0.031,-14.630626069776017,0.0,-0.007473222021741601,11.835554842627399,0.0,-0.5511802901528938,0.0,0.0,0.0,-28.22251090949788,-0.4925757385507574,-0.020786624486739298,0.0,0.0,0.0,0.0,0.0,-0.012006814882752374,-0.6879398181765755,0.0,0.0,11.848382089766261,0.007473222021741601,0.03481848449782909,-0.04653625091347841,-2.666330771704135,0.0,0.0,0.034529436030726036,1.9783909535275594,-4.930447024977191,0.0,-13.49069186977634,11.841319485459497,0.0,-0.4090366589575163,0.0,-1.5252875066376421,0.0,0.0,-0.4925757385507574,0.0,-0.05332671722065657,0.3490658503988659,1.0,0.14,0.14,0.75,0.08726646259971647,5.0,0.184,0.175,0.174,0.0,0.0,0.0,-0.012070985338519783,0.0,0.0015341112903125647,0.0,6.081497903415004,0.0,-0.5211792528161948,0.0,0.13885857548726938,0.0,-3.7618392203645414,0.0,-0.027977570743203,0.0,-0.005879551014367678,0.42135968689682807,-0.01776334412136882,0.09044062565834282,0.0,0.0,0.0,0.40366175304390284,0.09044062565834282,0.0,0.0,-0.00681591262592,0.0,0.0,-0.0029101274281435026,0.0,1.0887191663883042,0.0,4.859257486088161,0.0,-0.011486940212488084,0.0,85.98531265782782,-1.3135905168487938,0.0,-4.8033501531129295,0.0,-0.011486940212488084,0.0
sim_raptor_glider_3dof,raptor_glider_3dof,0.032,-14.618787031756808,0.0,-0.007886058748367938,11.830623923083804,0.0,-0.5645613706325951,0.0,0.0,0.0,-28.30722865465381,-0.49405434213859384,-0.020856582309378667,0.0,0.0,0.0,0.0,0.0,-0.012500129927611134,-0.7162046882172892,0.0,0.0,11.844086792600491,0.007886058748367938,0.03480586203708746,-0.04768416386176822,-2.73210133888956,0.0,0.0,0.03518403393415709,2.015896650672271,-4.931391877877672,0.0,-13.271469013306941,11.83675655511506,0.0,-0.4166367789742378,0.0,-1.431919811740822,0.0,0.0,-0.49405434213859384,0.0,-0.05332671722065657,0.3490658503988659,1.0,0.14,0.14,0.75,0.08726646259971647,5.0,0.184,0.175,0.174,0.0,0.0,0.0,-0.012121630398815066,0.0,0.0015229017760749492,0.0,6.0815547078598655,0.0,-0.5212907749476996,0.0,0.13751854162896543,0.0,-3.7612481878365824,0.0,-0.02763151681138265,0.0,-0.005778702234408909,0.41646278563667766,-0.01738588034752233,0.09026030230196282,0.0,0.0,0.0,0.39870512314999207,0.09026030230196282,0.0,0.0,-0.006403330809336225,0.0,0.0,-0.0029199215233130134,0.0,1.0857607916978054,0.0,4.796110572697389,0.0,-0.01078378810222013,0.0,85.92298085228376,-1.313138499234113,0.0,-4.738904979439565,0.0,-0.01078378810222013,0.0
sim_raptor_glider_3dof,raptor_glider_3dof,0.033,-14.606952552930307,0.0,-0.00830638052005526,11.825692323056707,0.0,-0.5777245455976927,0.0,0.0,0.0,-28.386651930241964,-0.495440539800326,-0.020922680939638044,0.0,0.0,0.0,0.0,0.0,-0.012994877389538317,-0.7445516297105261,0.0,0.0,11.839795799345037,0.00830638052005526,0.03479325222411777,-0.04881452843189794,-2.7968664580691125,0.0,0.0,0.035819651042359624,2.0523148283585866,-4.931807823451262,0.0,-13.054881684535387,11.832201101813723,0.0,-0.4240066702618259,0.0,-1.34047629500351,0.0,0.0,-0.495440539800326,0.0,-0.05332671722065657,0.3490658503988659,1.0,0.14,0.14,0.75,0.08726646259971647,5.0,0.184,0.175,0.174,0.0,0.0,0.0,-0.012171477496497007,0.0,0.0015117590509637203,0.0,6.081604608892124,0.0,-0.5213990754896131,0.0,0.1361985563028876,0.0,-3.7606613061113685,0.0,-0.027290924237689324,0.0,-0.00568033835210649,0.4116384226269822,-0.017014391223967685,0.0900855589374008,0.0,0.0,0.0,0.3938243364303787,0.0900855589374008,0.0,0.0,-0.0059987548957941925,0.0,0.0,-0.0029291753315493266,0.0,1.0828737107299846,0.0,4.733966526893401,0.0,-0.010095126977671435,0.0,85.86073407031533,-1.3125783798824786,0.0,-4.675488482266038,0.0,-0.010095126977671435,0.0
sim_raptor_glider_3dof,raptor_glider_3dof,0.034,-14.59512262665387,0.0,-0.0087339863648923,11.820760500268529,0.0,-0.5906721266252954,0.0,0.0,0.0,-28.460876986723168,-0.49673601142340174,-0.020984987340226982,0.0,0.0,0.0,0.0,0.0,-0.0134909767568913,-0.7729760296789623,0.0,0.0,11.835508960998707,0.0087339863648923,0.03478065462105471,-0.049927518987177934,-2.860636119524578,0.0,0.0,0.03643654223028663,2.087660089845616,-4.9317122239977795,0.0,-12.840918997107984,11.827653291440253,0.0,-0.43114960670663055,0.0,-1.250930067331187,0.0,0.0,-0.49673601142340174,0.0,-0.05332671722065657,0.3490658503988659,1.0,0.14,0.14,0.75,0.08726646259971647,5.0,0.184,0.175,0.174,0.0,0.0,0.0,-0.012220537125301963,0.0,0.0015006878426520177,0.0,6.081647894381667,0.0,-0.5215042434694231,0.0,0.13489843969343165,0.0,-3.7600787070535944,0.0,-0.0269557309521778,0.0,-0.0055844038809361105,0.4068861311688881,-0.016648811809220797,0.08991625263195176,0.0,0.0,0.0,0.38901886859890367,0.08991625263195176,0.0,0.0,-0.005602083240012054,0.0,0.0,-0.002937898227631778,0.0,1.080056026435602,0.0,4.672816772594244,0.0,-0.00942075433707117,0.0,85.79857008375845,-1.3119153799749492,0.0,-4.613091766512252,0.0,-0.00942075433707117,0.0
sim_raptor_glider_3dof,raptor_glider_3dof,0.034999999999999996,-14.583297243968914,0.0,-0.00916861491276612,11.815829040885491,0.0,-0.6034071476671306,0.0,0.0,0.0,-28.530029058050133,-0.49794294275263123,-0.021043589629191346,0.0,0.0,0.0,0.0,0.0,-0.013988323715319294,-0.8014719113505548,0.0,0.0,11.831226314684743,0.00916861491276612,0.03476806933699122,-0.05102337052307654,-2.9234237875044973,0.0,0.0,0.037035046807757245,2.1219518761539424,-4.931123112606068,0.0,-12.629563512665566,11.823113418441945,0.0,-0.43806986194757946,0.0,-1.1632474927072909,0.0,0.0,-0.49794294275263123,0.0,-0.05332671722065657,0.3490658503988659,1.0,0.14,0.14,0.75,0.08726646259971647,5.0,0.184,0.175,0.174,0.0,0.0,0.0,-0.012268822262006991,0.0,0.0014896919807636366,0.0,6.081684845934834,0.0,-0.5216063713025458,0.0,0.13361794021313395,0.0,-3.7595004842108506,0.0,-0.026625857014183938,0.0,-0.005490839137992279,0.4022051666750294,-0.01628905736926236,0.08975223394314721,0.0,0.0,0.0,0.38428789945376,0.08975223394314721,0.0,0.0,-0.005213183413195257,0.0,0.0,-0.0029461025480867886,0.0,1.077305803135651,0.0,4.61264935665654,0.0,-0.008760416867578608,0.0,85.73648936519278,-1.3111545983056274,0.0,-4.551702483717027,0.0,-0.008760416867578608,0.0
sim_raptor_glider_3dof,raptor_glider_3dof,0.036,-14.571476397106206,0.0,-0.009610053576633141,11.8108984109519,0.0,-0.6159321137836671,0.0,0.0,0.0,-28.594210124841997,-0.49906311368559164,-0.021098559122496877,0.0,0.0,0.0,0.0,0.0,-0.014486833971704008,-0.8300344450853835,0.0,0.0,11.826947773733346,0.009610053576633141,0.03475549611723338,-0.0521022741367632,-2.9852404110701563,0.0,0.0,0.037615440165059195,2.1552059659847727,-4.9300573158826495,0.0,-12.420800857304842,11.818581659863526,0.0,-0.4447709430185714,0.0,-1.0774002208925635,0.0,0.0,-0.49906311368559164,0.0,-0.05332671722065657,0.3490658503988659,1.0,0.14,0.14,0.75,0.08726646259971647,5.0,0.184,0.175,0.174,0.0,0.0,0.0,-0.01231634376771528,0.0,0.00147877544444109,0.0,6.081715734789551,0.0,-0.5217055449153045,0.0,0.1323568566235706,0.0,-3.7589267474753045,0.0,-0.026301236085881568,0.0,-0.005399589278665247,0.3975949539128678,-0.015935057723378228,0.08959336290929505,0.0,0.0,0.0,0.37963079245333303,0.08959336290929505,0.0,0.0,-0.004831946372754263,0.0,0.0,-0.002953798277149563,0.0,1.0746212018870644,0.0,4.553454465958158,0.0,-0.008113901063541895,0.0,85.67449059296776,-1.3103009310986948,0.0,-4.491310473688206,0.0,-0.008113901063541895,0.0
sim_raptor_glider_3dof,raptor_glider_3dof,0.037,-14.5596600778694,0.0,-0.010058085237398103,11.80596907826147,0.0,-0.6282496070482149,0.0,0.0,0.0,-28.653524392693402,-0.5000983429530085,-0.021149968842942284,0.0,0.0,0.0,0.0,0.0,-0.01498642177861823,-0.8586587179177652,0.0,0.0,11.822673278308176,0.010058085237398103,0.03474293478594192,-0.05316442764026685,-3.046097324015949,0.0,0.0,0.038178005861648615,2.1874386060981834,-4.928531375941473,0.0,-12.21461517193735,11.814058196191596,0.0,-0.45125644884079996,0.0,-0.9933593848550768,0.0,0.0,-0.5000983429530085,0.0,-0.05332671722065657,0.3490658503988659,1.0,0.14,0.14,0.75,0.08726646259971647,5.0,0.184,0.175,0.174,0.0,0.0,0.0,-0.012363112526686943,0.0,0.0014679417788490252,0.0,6.081740823880293,0.0,-0.5218018482260719,0.0,0.13111497925525314,0.0,-3.758357597233097,0.0,-0.025981800085387682,0.0,-0.005310599638588577,0.39305487197063266,-0.015586740803998635,0.08943950119160535,0.0,0.0,0.0,0.37504686391960407,0.08943950119160535,0.0,0.0,-0.004458260352502474,0.0,0.0,-0.0029609956380119203,0.0,1.072000413424651,0.0,4.495221773588896,0.0,-0.007480989527343584,0.0,85.61257283593578,-1.3093591171151733,0.0,-4.431905051166789,0.0,-0.007480989527343584,0.0
sim_raptor_glider_3dof,raptor_glider_3dof,0.038,-14.547848277889276,0.0,-0.010512495886493,11.801041495843705,0.0,-0.6403621971922683,0.0,0.0,0.0,-28.708074649822205,-0.5010504245477156,-0.021197890870960513,0.0,0.0,0.0,0.0,0.0,-0.015487002982841575,-0.8873399082233392,0.0,0.0,11.818402774073066,0.010512495886493,0.034730385183440786,-0.054210028092143606,-3.106005816965459,0.0,0.0,0.038723025109302034,2.21866590874212,-4.926561411271236,0.0,-12.010989875877028,11.809543195211353,0.0,-0.45752994509124517,0.0,-0.9110967512939401,0.0,0.0,-0.5010504245477156,0.0,-0.05332671722065657,0.3490658503988659,1.0,0.14,0.14,0.75,0.08726646259971647,5.0,0.184,0.175,0.174,0.0,0.0,0.0,-0.012409138394471986,0.0,0.001457193501495896,0.0,6.0817603655904975,0.0,-0.5218953595571822,0.0,0.12989210088494244,0.0,-3.7577931308690524,0.0,-0.025667480815101493,0.0,-0.005223814568889992,0.38858428745441354,-0.015244036464078937,0.0892905129014847,0.0,0.0,0.0,0.37053541849977667,0.0892905129014847,0.0,0.0,-0.004092016045545927,0.0,0.0,-0.002967704721934472,0.0,1.0694416640636764,0.0,4.437940848118288,0.0,-0.0068614696339946634,0.0,85.5507352438922,-1.3083337319854265,0.0,-4.3734754246458545,0.0,-0.0068614696339946634,0.0
sim_raptor_glider_3dof,raptor_glider_3dof,0.039,-14.536040988612745,0.0,-0.010973075535671336,11.796116098664118,0.0,-0.6522724348983266,0.0,0.0,0.0,-28.757961865498974,-0.5019211207159278,-0.02124239605319965,0.0,0.0,0.0,0.0,0.0,-0.01598849545051568,-0.9160733100786661,0.0,0.0,11.814136208055626,0.010973075535671336,0.03471784715406161,-0.05523927124772605,-3.1649771058730596,0.0,0.0,0.03925077579721037,2.2489037957943934,-4.924163115772995,0.0,-11.80990771405994,11.805036809024053,0.0,-0.4635949526021486,0.0,-0.830584584339736,0.0,0.0,-0.5019211207159278,0.0,-0.05332671722065657,0.3490658503988659,1.0,0.14,0.14,0.75,0.08726646259971647,5.0,0.184,0.175,0.174,0.0,0.0,0.0,-0.012454430689324314,0.0,0.0014465325887936414,0.0,6.081774603404383,0.0,-0.5219861536757233,0.0,0.12868801593573084,0.0,-3.757233441476967,0.0,-0.025358210536178705,0.0,-0.005139178715208941,0.384182557422677,-0.014906875722695183,0.08914626485791163,0.0,0.0,0.0,0.366095752346224,0.08914626485791163,0.0,0.0,-0.0037331060067499755,0.0,0.0,-0.002973935447447951,0.0,1.0669432178951603,0.0,4.381601188660058,0.0,-0.006255132504662552,0.0,85.48897698756555,-1.3072291933221276,0.0,-4.316010732471143,0.0,-0.006255132504662552,0.0
sim_raptor_glider_3dof,raptor_glider_3dof,0.04,-14.524238201354743,0.0,-0.011439617427194576,11.791193307435986,0.0,-0.6639828544753476,0.0,0.0,0.0,-28.803285552586424,-0.5027121682847474,-0.02128355426152732,0.0,0.0,0.0,0.0,0.0,-0.01649081865962101,-0.9448543099118693,0.0,0.0,11.809873532106955,0.011439617427194576,0.03470532055631066,-0.05625235176950716,-3.2230223440780286,0.0,0.0,0.039761533109886144,2.2781680341661588,-4.9213517833285785,0.0,-11.611350820418581,11.800539177923437,0.0,-0.46945495487267536,0.0,-0.751795417287388,0.0,0.0,-0.5027121682847474,0.0,-0.05332671722065657,0.3490658503988659,1.0,0.14,0.14,0.75,0.08726646259971647,5.0,0.184,0.175,0.174,0.0,0.0,0.0,-0.01249899865369507,0.0,0.0014359608960553992,0.0,6.081783773393082,0.0,-0.5220743036498975,0.0,0.12750251897067366,0.0,-3.756678616376841,0.0,-0.025053922262304126,0.0,-0.0050566380773684055,0.3798490290702422,-0.014575189877436345,0.08900662670646382,0.0,0.0,0.0,0.3617271525775379,0.08900662670646382,0.0,0.0,-0.0033814236329677214,0.0,0.0,-0.002979697596613825,0.0,1.064503378692801,0.0,4.326192221098428,0.0,-0.005661771287591319,0.0,85.42729730863115,-1.306049766970514,0.0,-4.259500039128678,0.0,-0.005661771287591319,0.0
sim_raptor_glider_3dof,raptor_glider_3dof,0.04,-14.524238201354743,0.0,-0.011439617427194576,11.791193307435986,0.0,-0.6639828544753476,0.0,0.0,0.0,-28.803285552586424,-0.5027121682847474,-0.02128355426152732,0.0,0.0,0.0,0.0,0.0,-0.01649081865962101,-0.9448543099118693,0.0,0.0,11.809873532106955,0.011439617427194576,0.03470532055631066,-0.05625235176950716,-3.2230223440780286,0.0,0.0,0.039761533109886144,2.2781680341661588,-4.924373068075686,0.0,-11.601158746919326,11.800539177923437,0.0,-0.46945495487267536,0.0,-0.6348098025162155,0.0,0.0,-0.5027121682847474,0.0,-0.054243486656956996,0.3490658503988659,1.0,0.14,0.14,0.75,0.08726646259971647,5.0,0.184,0.175,0.174,0.0,0.0,0.0,-0.012620537999792505,0.0,0.001476379443055014,0.0,6.081561624842976,0.0,-0.5221044181897919,0.0,0.1275001161518181,0.0,-3.7559438482844736,0.0,-0.02501851073662335,0.0,-0.005072357388691231,0.3796182906218362,-0.014046822871902192,0.08908916315460712,0.0,0.0,0.0,0.3614970760646327,0.08908916315460712,0.0,0.0,-0.0028552460141524644,0.0,0.0,-0.002979697596613825,0.0,1.0654904998900079,0.0,4.323440547044393,0.0,-0.004780752622749619,0.0,85.42729730863115,-1.3068806202759684,0.0,-4.256697218916384,0.0,-0.004780752622749619,0.0
sim_raptor_glider_3dof,raptor_glider_3dof,0.041,-14.512439928150457,0.0,-0.011911922174141568,11.78627059028186,0.0,-0.6754845970128236,0.0,0.0,0.0,-28.83745167719491,-0.5033084796518121,-0.021316494107059252,0.0,0.0,0.0,0.0,0.0,-0.016993831931232543,-0.9736748474142778,0.0,0.0,11.80561111794492,0.011911922174141568,0.03469279472786423,-0.057248515366991604,-3.280098313918456,0.0,0.0,0.04025468343575906,2.3064234665041785,-4.9210861545718565,0.0,-11.404098190831752,11.796047270003427,0.0,-0.47510280149601736,0.0,-0.5585047916320472,0.0,0.0,-0.5033084796518121,0.0,-0.054243486656956996,0.3490658503988659,1.0,0.14,0.14,0.75,0.08726646259971647,5.0,0.184,0.175,0.174,0.0,0.0,0.0,-0.012664698286226773,0.0,0.0014658618469675143,0.0,6.081563577728121,0.0,-0.522190061563542,0.0,0.1263341134746667,0.0,-3.755388407487006,0.0,-0.024719357833572184,0.0,-0.004991940073046707,0.375356590537342,-0.01372109587038909,0.08895435604222912,0.0,0.0,0.0,0.3572073245540533,0.08895435604222912,0.0,0.0,-0.002513855790280935,0.0,0.0,-0.002984309174988295,0.0,1.0631104205658106,0.0,4.269052646006107,0.0,-0.004206099585780948,0.0,85.36564367437435,-1.3056322316869724,0.0,-4.201230621647359,0.0,-0.004206099585780948,0.0
sim_raptor_glider_3dof,raptor_glider_3dof,0.042,-14.50064612234033,0.0,-0.012389750469404676,11.781351339257913,0.0,-0.6867914161665316,0.0,0.0,0.0,-28.86731329211542,-0.5038296631521377,-0.021346267783500697,0.0,0.0,0.0,0.0,0.0,-0.01749740100664355,-1.0025272301286334,0.0,0.0,11.80135254232981,0.012389750469404676,0.03468028017964033,-0.058228891437995096,-3.336269725122574,0.0,0.0,0.04073149043135155,2.3337424949939405,-4.917415722694906,0.0,-11.20954012688383,11.791564353287638,0.0,-0.48055377496232626,0.0,-0.4838623425431039,0.0,0.0,-0.5038296631521377,0.0,-0.054243486656956996,0.3490658503988659,1.0,0.14,0.14,0.75,0.08726646259971647,5.0,0.184,0.175,0.174,0.0,0.0,0.0,-0.012708146724123504,0.0,0.0014554370213561779,0.0,6.081560961224263,0.0,-0.5222732004143399,0.0,0.12518630136698114,0.0,-3.7548381003772047,0.0,-0.02442505874639457,0.0,-0.0049135140679400224,0.37116180783843367,-0.013400707915181331,0.08882390142142836,0.0,0.0,0.0,0.3529871998036369,0.08882390142142836,0.0,0.0,-0.0021794587747733275,0.0,0.0,-0.0029884774896900977,0.0,1.0607856151353507,0.0,4.215574162882617,0.0,-0.0036439673016921154,0.0,85.30406778869231,-1.3043172908876408,0.0,-4.146696040070104,0.0,-0.0036439673016921154,0.0
sim_raptor_glider_3dof,raptor_glider_3dof,0.043000000000000003,-14.488856794903924,0.0,-0.012872932605338174,11.776435943473212,0.0,-0.6979049229006281,0.0,0.0,0.0,-28.892945239623963,-0.5042770250298602,-0.0213729273352633,0.0,0.0,0.0,0.0,0.0,-0.018001454385936578,-1.031407361411431,0.0,0.0,11.797097728345593,0.012872932605338174,0.03466777668560814,-0.05919359730617979,-3.391543299841061,0.0,0.0,0.041192142920243216,2.36013593842963,-4.9133753818743635,0.0,-11.017475349108924,11.787090529187726,0.0,-0.4858103219053206,0.0,-0.41086288817575867,0.0,0.0,-0.5042770250298602,0.0,-0.054243486656956996,0.3490658503988659,1.0,0.14,0.14,0.75,0.08726646259971647,5.0,0.184,0.175,0.174,0.0,0.0,0.0,-0.01275088911438191,0.0,0.0014451073197969534,0.0,6.081553990301167,0.0,-0.5223538968210734,0.0,0.12405656182443549,0.0,-3.754293038482469,0.0,-0.024135570918203925,0.0,-0.004837035055822264,0.367033581225442,-0.013085615386427281,0.08869768683282062,0.0,0.0,0.0,0.34883629561261575,0.08869768683282062,0.0,0.0,-0.0018519828634793855,0.0,0.0,-0.0029922098269368623,0.0,1.0585146101405407,0.0,4.162998254387691,0.0,-0.0030942084108516385,0.0,85.24256847996277,-1.3029396578093857,0.0,-4.0930863531109996,0.0,-0.0030942084108516385,0.0
