name,vehicle,t,north,east,down,u,v,w,p_rad,p_deg,p_hat_div_b,q_deg,q_rad,q_hat_div_c,r_rad,r_deg,r_hat_div_b,phi_rad,phi_deg,theta_rad,theta_deg,psi_rad,psi_deg,speed,altitude,mach,alpha_rad,alpha_deg,beta_rad,beta_deg,gamma_rad,gamma_deg,u_dot,v_dot,w_dot,north_dot,east_dot,down_dot,p_rad_dot,q_rad_dot,r_rad_dot,phi_rad_dot,theta_rad_dot,psi_rad_dot,del_tail_alt_rad,del_tail_splay_rad,DIM_b,DIM_c_bar,DIM_S,DIM_wing_position,DIM_wing_incidence_rad,DIM_wing_incidence_deg,DIM_empennage_length,DIM_nose_length,DIM_tail_length,CDp,CDq,CDr,CYp,CYq,CYr,CLp,CLq,CLr,Clp,Clq,Clr,Cmp,Cmq,Cmr,Cnp,Cnq,Cnr,CL_0,Cm_0,CD_0,Cl_0,CY_0,Cn_0,CL,CD,CY,Cl,Cm,Cn,p_hat,q_hat,r_hat,drag_force_wind,side_force_wind,lift_force_wind,roll_moment_wind,pitch_moment_wind,yaw_moment_wind,qbar,X_total,Y_total,Z_total,L_total,M_total,N_total
sim_raptor_glider_3dof,raptor_glider_3dof,0.0,-15.0,0.0,0.0,12.0,0.0,0.0,0.0,0.0,0.0,0.0,0.0,0.0,0.0,0.0,0.0,0.0,0.0,0.0,0.0,0.0,0.0,12.0,-0.0,0.035264039495724236,0.0,0.0,0.0,0.0,0.0,0.0,-7.634725722157081,0.0,-27.690500405755785,12.0,0.0,0.0,0.0,-118.66100683193432,0.0,0.0,0.0,0.0,0.4363323129985824,0.5252395814305153,1.0,0.14,0.14,0.75,0.08726646259971647,5.0,0.184,0.175,0.174,0.0,0.0,0.0,0.03946338882263196,0.0,0.03123984336916933,0.0,6.855868886999695,0.0,-0.5136716582917129,0.0,0.19501476424086983,0.0,-5.035771578792762,0.0,-0.06423098063731646,0.0,-0.0259793980529949,0.8350918745955397,-0.5169350029538643,0.17003151829799518,0.0,0.0,0.0,0.8350918745955397,0.17003151829799518,0.0,0.0,-0.5169350029538643,0.0,0.0,0.0,0.0,2.0995495735931975,0.0,10.31171636158284,0.0,-0.8936360424512974,0.0,88.20001620075907,-2.0995495735931975,0.0,-10.31171636158284,0.0,-0.8936360424512974,0.0
sim_raptor_glider_3dof,raptor_glider_3dof,0.001,-14.988003819697326,0.0,-0.000013727650131651133,11.992356874821247,0.0,-0.02804616217380202,0.0,0.0,0.0,-6.762957441251749,-0.11803587452209399,-0.0049212824870122915,0.0,0.0,0.0,0.0,0.0,-0.000059122164188631706,-0.0033874504836880937,0.0,0.0,11.992389670131852,0.000013727650131651133,0.03524167524797041,-0.00233866547960928,-0.13399566167455024,0.0,0.0,0.002279543315420648,0.13060821119086213,-7.6521310203258945,0.0,-28.397216979526732,11.992358512011828,0.0,-0.02733714803303652,0.0,-117.41143836512222,0.0,0.0,-0.11803587452209399,0.0,0.4363323129985824,0.5252395814305153,1.0,0.14,0.14,0.75,0.08726646259971647,5.0,0.184,0.175,0.174,0.0,0.0,0.0,0.03950871323529642,0.0,0.03130711819157804,0.0,6.857540979887905,0.0,-0.5142566084544299,0.0,0.1923380427573875,0.0,-5.039064210456949,0.0,-0.06321988470533302,0.0,-0.025681358300534675,0.8254676293151123,-0.5156125804178627,0.1686556403711732,0.0,0.0,0.0,0.8207429238291515,0.1686556403711732,0.0,0.0,-0.5121407682348834,0.0,0.0,-0.0006889795481817209,0.0,2.0799195723893065,0.0,10.12168503475709,0.0,-0.8842255423277355,0.0,88.08817980539138,-2.103585098289902,0.0,-10.116793123548906,0.0,-0.8842255423277355,0.0
sim_raptor_glider_3dof,raptor_glider_3dof,0.002,-14.976015286110858,0.0,-0.00005443656160766375,11.984694508808248,0.0,-0.056785298588329446,0.0,0.0,0.0,-13.454444749995444,-0.23482435991508582,-0.009796733820543474,0.0,0.0,0.0,0.0,0.0,-0.00023565606163465386,-0.013502097748340465,0.0,0.0,11.984829036727822,0.00005443656160766375,0.03521945704172271,-0.0047381160702501725,-0.27147405366844596,0.0,0.0,0.004502460008615519,0.25797195592010547,-7.673223488485762,0.0,-29.076517201558776,11.98470755783026,0.0,-0.053961031129878476,0.0,-116.16631495585158,0.0,0.0,-0.23482435991508582,0.0,0.4363323129985824,0.5252395814305153,1.0,0.14,0.14,0.75,0.08726646259971647,5.0,0.184,0.175,0.174,0.0,0.0,0.0,0.039609609413401525,0.0,0.03138772440963584,0.0,6.859241708889808,0.0,-0.5148732293422201,0.0,0.1896058387290428,0.0,-5.042388596798657,0.0,-0.06216545508638447,0.0,-0.025337905935082953,0.8155271168446303,-0.5142649929502868,0.1672580857255353,0.0,0.0,0.0,0.8061193737120435,0.1672580857255353,0.0,0.0,-0.5073491415039256,0.0,0.0,-0.0013715427348760863,0.0,2.0600844163599157,0.0,9.928811227907415,0.0,-0.8748485179325183,0.0,87.97714397157296,-2.107104976236593,0.0,-9.918938895923713,0.0,-0.8748485179325183,0.0
sim_raptor_glider_3dof,raptor_glider_3dof,0.003,-14.964034405789679,0.0,-0.0001214087810126964,11.977009163442325,0.0,-0.08619019168244285,0.0,0.0,0.0,-20.074731670719444,-0.35037016410843647,-0.014626401608610997,0.0,0.0,0.0,0.0,0.0,-0.0005283566661467551,-0.030272607047811727,0.0,0.0,11.97731928481176,0.0001214087810126964,0.035197388359375116,-0.007196179172524645,-0.41231069520560726,0.0,0.0,0.0066678225063778905,0.38203808815779555,-7.698109129496198,0.0,-29.728803523330804,11.977053030847047,0.0,-0.07986204731440534,0.0,-114.92617281746122,0.0,0.0,-0.35037016410843647,0.0,0.4363323129985824,0.5252395814305153,1.0,0.14,0.14,0.75,0.08726646259971647,5.0,0.184,0.175,0.174,0.0,0.0,0.0,0.039765893206230016,0.0,0.031481758648786544,0.0,6.860967927944223,0.0,-0.5155180532901377,0.0,0.18682086808543674,0.0,-5.045737433083728,0.0,-0.061070820081225045,0.0,-0.024949862068781754,0.8052761990173177,-0.512894654381759,0.1658443049989128,0.0,0.0,0.0,0.7912270208900101,0.1658443049989128,0.0,0.0,-0.5025625168866551,0.0,0.0,-0.00204769622520554,0.0,2.040112068422227,0.0,9.733175909718799,0.0,-0.8655090074883005,0.0,87.8669247053994,-2.1101003183014915,0.0,-9.718243009307617,0.0,-0.8655090074883005,0.0
sim_raptor_glider_3dof,raptor_glider_3dof,0.004,-14.952061179409991,0.0,-0.0002139166658803388,11.969296988987372,0.0,-0.11623403758972764,0.0,0.0,0.0,-26.624119333109775,-0.4646785428066425,-0.019410356109428234,0.0,0.0,0.0,0.0,0.0,-0.0009359839178083865,-0.05362792818254028,0.0,0.0,11.969861350996368,0.0002139166658803388,0.03517547195332325,-0.009710711007630175,-0.55638275680844,0.0,0.0,0.008774727089821788,0.5027548286258997,-7.7269000755123995,0.0,-30.354489672372324,11.969400539215318,0.0,-0.10503091882199989,0.0,-113.69154954662108,0.0,0.0,-0.4646785428066425,0.0,0.4363323129985824,0.5252395814305153,1.0,0.14,0.14,0.75,0.08726646259971647,5.0,0.184,0.175,0.174,0.0,0.0,0.0,0.039976679029268325,0.0,0.0315891959549863,0.0,6.862716469645976,0.0,-0.5161869953537971,0.0,0.18398566998252294,0.0,-5.049103522623379,0.0,-0.059939622245268664,0.0,-0.02451859400334503,0.7947210028717673,-0.5115040163437685,0.16442014924598708,0.0,0.0,0.0,0.776071914994226,0.16442014924598708,0.0,0.0,-0.49778333070672015,0.0,0.0,-0.0027174498553199527,0.0,2.0200749650237637,0.0,9.534862081851255,0.0,-0.8562110596356034,0.0,87.75753433625499,-2.1125685563532093,0.0,-9.51479647070542,0.0,-0.8562110596356034,0.0
sim_raptor_glider_3dof,raptor_glider_3dof,0.005,-14.940095602280694,0.0,-0.00033122359990999636,11.96155402163535,0.0,-0.14689044619181332,0.0,0.0,0.0,-33.102939256750695,-0.5777552821179841,-0.024148690136475814,0.0,0.0,0.0,0.0,0.0,-0.0014573032257169125,-0.08349732430437985,0.0,0.0,11.96245591071011,0.00033122359990999636,0.03515370980842843,-0.012279597009031758,-0.7035690827389888,0.0,0.0,0.010822293783314845,0.6200717584346089,-7.759715239819282,0.0,-30.954000347350537,11.961755383911232,0.0,-0.1294586851235164,0.0,-112.46298347104178,0.0,0.0,-0.5777552821179841,0.0,0.4363323129985824,0.5252395814305153,1.0,0.14,0.14,0.75,0.08726646259971647,5.0,0.184,0.175,0.174,0.0,0.0,0.0,0.04024037458795774,0.0,0.031709888541528834,0.0,6.8644841481656425,0.0,-0.5168753539267925,0.0,0.18110260478999884,0.0,-5.052479785780461,0.0,-0.058776018298667236,0.0,-0.02404601851112509,0.7838679270565948,-0.5100955662633981,0.1629918626856521,0.0,0.0,0.0,0.7606603649668825,0.1629918626856521,0.0,0.0,-0.49301405863593134,0.0,0.0,-0.0033808166191066145,0.0,2.000049902392567,0.0,9.333954859084082,0.0,-0.8469587285204156,0.0,87.64898134164986,-2.114513435721308,0.0,-9.308691951806868,0.0,-0.8469587285204156,0.0
sim_raptor_glider_3dof,raptor_glider_3dof,0.006,-14.92813766455498,0.0,-0.0004725841367887355,11.953776174726281,0.0,-0.17813345863499436,0.0,0.0,0.0,-39.51155389751304,-0.6896067080908007,-0.028841520114284657,0.0,0.0,0.0,0.0,0.0,-0.002091086066738862,-0.11981040622274838,0.0,0.0,11.955103360679862,0.0004725841367887355,0.03513210309054002,-0.014900753706016016,-0.853750298918638,0.0,0.0,0.012809667639277154,0.7339398926958896,-7.796680833059718,0.0,-31.527770765451105,11.954122532072178,0.0,-0.1531367125911156,0.0,-111.24101248468612,0.0,0.0,-0.6896067080908007,0.0,0.4363323129985824,0.5252395814305153,1.0,0.14,0.14,0.75,0.08726646259971647,5.0,0.184,0.175,0.174,0.0,0.0,0.0,0.04055468008440523,0.0,0.03184356536815549,0.0,6.86626776339303,0.0,-0.5175778155003306,0.0,0.178173851301332,0.0,-5.055859270353924,0.0,-0.057584675193317565,0.0,-0.023534601467162426,0.7727236394856446,-0.5086718242523426,0.16156607153429992,0.0,0.0,0.0,0.7449989355125296,0.16156607153429992,0.0,0.0,-0.4882572108946158,0.0,0.0,-0.004037812815999853,0.0,1.9801178750739572,0.0,9.13054142562508,0.0,-0.8377560650221713,0.0,87.54127010303932,-2.1159449683023768,0.0,-9.100023649164815,0.0,-0.8377560650221713,0.0
sim_raptor_glider_3dof,raptor_glider_3dof,0.007,-14.916187351583234,0.0,-0.0006372443480503528,11.945959231774964,0.0,-0.2099375561609841,0.0,0.0,0.0,-45.850356506658095,-0.8002396842543891,-0.03348898665251389,0.0,0.0,0.0,0.0,0.0,-0.002836110498461303,-0.16249716179457682,0.0,0.0,11.947803804244375,0.0006372443480503528,0.03511065210333649,-0.01757212991339021,-1.0068088810928437,0.0,0.0,0.014736019414928907,0.844311719298267,-7.8379307297046035,0.0,-32.07624614725056,11.94650659331854,0.0,-0.1760566968705214,0.0,-110.02617306678346,0.0,0.0,-0.8002396842543891,0.0,0.4363323129985824,0.5252395814305153,1.0,0.14,0.14,0.75,0.08726646259971647,5.0,0.184,0.175,0.174,0.0,0.0,0.0,0.04091659156325906,0.0,0.03198983243479541,0.0,6.868064104742005,0.0,-0.5182884627838864,0.0,0.17520140560323177,0.0,-5.0592351603440715,0.0,-0.05637076348281866,0.0,-0.022987354341654647,0.7612950754634961,-0.5072353401352193,0.16014977031048003,0.0,0.0,0.0,0.729094444464972,0.16014977031048003,0.0,0.0,-0.4835153279092825,0.0,0.0,-0.004688458131351945,0.0,1.960363886592009,0.0,8.924711013153809,0.0,-0.8286071093659463,0.0,87.434400703768,-2.1168793447404752,0.0,-8.888887167467823,0.0,-0.8286071093659463,0.0
sim_raptor_glider_3dof,raptor_glider_3dof,0.008,-14.904244644312767,0.0,-0.0008244421839978828,11.938098838099245,0.0,-0.24227767050975205,0.0,0.0,0.0,-52.11977100526266,-0.9096616094273082,-0.038091255150810126,0.0,0.0,0.0,0.0,0.0,-0.003691161737804244,-0.21148798907635774,0.0,0.0,11.940557036330182,0.0008244421839978828,0.03508935624417462,-0.020291708084840647,-1.1626292323728598,0.0,0.0,0.016600546347036404,0.951141243296502,-7.883606694121169,0.0,-32.59988108790247,11.938911795869926,0.0,-0.19821066644389737,0.0,-108.81899923650673,0.0,0.0,-0.9096616094273082,0.0,0.4363323129985824,0.5252395814305153,1.0,0.14,0.14,0.75,0.08726646259971647,5.0,0.184,0.175,0.174,0.0,0.0,0.0,0.04132240820855483,0.0,0.03214817378149219,0.0,6.869869955195789,0.0,-0.5190007861795728,0.0,0.1721870805848044,0.0,-5.062600784265852,0.0,-0.05513994780781583,0.0,-0.022407827610124144,0.7495894328391809,-0.5057886901646932,0.1587503052644398,0.0,0.0,0.0,0.7129539571349063,0.1587503052644398,0.0,0.0,-0.4787909756166705,0.0,0.0,-0.005332775721113418,0.0,1.9408767270139138,0.0,8.71655484712682,0.0,-0.8195158832501322,0.0,87.32836872258878,-2.1173388080612776,0.0,-8.675379371780346,0.0,-0.8195158832501322,0.0
sim_raptor_glider_3dof,raptor_glider_3dof,0.009000000000000001,-14.892309519661076,0.0,-0.001033407789499954,11.930190493299095,0.0,-0.27512919237122113,0.0,0.0,0.0,-58.32025181648014,-1.0178804147897822,-0.042648516384534256,0.0,0.0,0.0,0.0,0.0,-0.0046550326642868425,-0.2667137251591751,0.0,0.0,11.933362530271966,0.001033407789499954,0.035068213965358856,-0.02305750553195982,-1.3210977530808456,0.0,0.0,0.018402472867672978,1.0543840279216707,-7.933858471102032,0.0,-33.099138887131495,11.93134196467241,0.0,-0.2195909855756458,0.0,-107.62002153492605,0.0,0.0,-1.0178804147897822,0.0,0.4363323129985824,0.5252395814305153,1.0,0.14,0.14,0.75,0.08726646259971647,5.0,0.184,0.175,0.174,0.0,0.0,0.0,0.04176774330110683,0.0,0.03231795313624409,0.0,6.8716820953628215,0.0,-0.5197076982834975,0.0,0.16913250636908314,0.0,-5.065949622619353,0.0,-0.05389837483837986,0.0,-0.021800101342064622,0.737614165588961,-0.5043344736134439,0.1573753552635705,0.0,0.0,0.0,0.6965847790882861,0.1573753552635705,0.0,0.0,-0.47408674064575296,0.0,0.0,-0.005970792293834796,0.0,1.9217487222765053,0.0,8.50616608253688,0.0,-0.8104863821795282,0.0,87.22316505465464,-2.117351490611326,0.0,-8.459598231622953,0.0,-0.8104863821795282,0.0
sim_raptor_glider_3dof,raptor_glider_3dof,0.01,-14.880381950922922,0.0,-0.0012633638349203115,11.922229543429331,0.0,-0.3084679795292858,0.0,0.0,0.0,-64.45228363795454,-1.1249045599115755,-0.04716098705698787,0.0,0.0,0.0,0.0,0.0,-0.0057265243401737964,-0.32810567597089707,0.0,0.0,11.926219425308846,0.0012633638349203115,0.035047222737397056,-0.02586757564589767,-1.482102910745331,0.0,0.0,0.020141051305723873,1.1539972347744338,-7.98884374585342,0.0,-33.574490811001645,11.92380050038227,0.0,-0.24019035721184903,0.0,-106.429766002269,0.0,0.0,-1.1249045599115755,0.0,0.4363323129985824,0.5252395814305153,1.0,0.14,0.14,0.75,0.08726646259971647,5.0,0.184,0.175,0.174,0.0,0.0,0.0,0.042247538575839086,0.0,0.032498416170374834,0.0,6.873497307611866,0.0,-0.5204015511900713,0.0,0.16603913145845134,0.0,-5.06927531469872,0.0,-0.052652658829668415,0.0,-0.02116877316055065,0.7253769753960965,-0.5028753091959117,0.1560329102420701,0.0,0.0,0.0,0.6799944469376231,0.1560329102420701,0.0,0.0,-0.4694052253452377,0.0,0.0,-0.006602538187978302,0.0,1.9030754562221275,0.0,8.2936397220733,0.0,-0.801522567763088,0.0,87.11877574278071,-2.1169512160727892,0.0,-8.241642650612503,0.0,-0.801522567763088,0.0
sim_raptor_glider_3dof,raptor_glider_3dof,0.01,-14.880381950922922,0.0,-0.0012633638349203115,11.922229543429331,0.0,-0.3084679795292858,0.0,0.0,0.0,-64.45228363795454,-1.1249045599115755,-0.04716098705698787,0.0,0.0,0.0,0.0,0.0,-0.0057265243401737964,-0.32810567597089707,0.0,0.0,11.926219425308846,0.0012633638349203115,0.035047222737397056,-0.02586757564589767,-1.482102910745331,0.0,0.0,0.020141051305723873,1.1539972347744338,-7.937060861912395,0.0,-31.307506783374286,11.92380050038227,0.0,-0.24019035721184903,0.0,-81.7859527749908,0.0,0.0,-1.1249045599115755,0.0,0.4363323129985824,0.3490658503988659,1.0,0.14,0.14,0.75,0.08726646259971647,5.0,0.184,0.175,0.174,0.0,0.0,0.0,-0.056512004527699146,0.0,0.05456466070476957,0.0,6.019770790116285,0.0,-0.5331837538778672,0.0,0.16871478802608336,0.0,-3.43423006653924,0.0,-0.028303715609830696,0.0,-0.026020076249888367,0.668612940091842,-0.38338907656606275,0.1561877933960737,0.0,0.0,0.0,0.6288671735672229,0.1561877933960737,0.0,0.0,-0.3607144414054341,0.0,0.0,-0.006602538187978302,0.0,1.9049645085285238,0.0,7.670059357239895,0.0,-0.6159300103484557,0.0,87.11877574278071,-2.102710922989007,0.0,-7.6182220430149785,0.0,-0.6159300103484557,0.0
sim_raptor_glider_3dof,raptor_glider_3dof,0.011,-14.868461892180488,0.0,-0.0015124119022151068,11.914263830196573,0.0,-0.33991943224145754,0.0,0.0,0.0,-69.12233617568074,-1.2064123529360147,-0.050608315695513544,0.0,0.0,0.0,0.0,0.0,-0.006892243114519364,-0.3948964418400613,0.0,0.0,11.919111872784217,0.0015124119022151068,0.03502633598631819,-0.028522723022093046,-1.6342316493865603,0.0,0.0,0.021630479907573684,1.2393352075464992,-7.994726464701423,0.0,-31.59343537140621,11.916323638407167,0.0,-0.2577960059509521,0.0,-81.23115079236547,0.0,0.0,-1.2064123529360147,0.0,0.4363323129985824,0.3490658503988659,1.0,0.14,0.14,0.75,0.08726646259971647,5.0,0.184,0.175,0.174,0.0,0.0,0.0,-0.05686968329489185,0.0,0.054591797555042225,0.0,6.019129527209466,0.0,-0.5338357038719894,0.0,0.16569799694759899,0.0,-3.431984746286643,0.0,-0.02749973825569442,0.0,-0.025675016364844986,0.6574203742241793,-0.38301108810409057,0.1552728757260138,0.0,0.0,0.0,0.6147738531986507,0.1552728757260138,0.0,0.0,-0.35869491265377396,0.0,0.0,-0.007085164197371896,0.0,1.8915490044681362,0.0,7.489233805670571,0.0,-0.6117517966173044,0.0,87.01496803260373,-2.104364004452214,0.0,-7.432242781897612,0.0,-0.6117517966173044,0.0
sim_raptor_glider_3dof,raptor_glider_3dof,0.012,-14.856549297400708,0.0,-0.0017787301278032195,11.906239231304584,0.0,-0.37165086063135255,0.0,0.0,0.0,-73.76082856274739,-1.2873693174190188,-0.05403648320178455,0.0,0.0,0.0,0.0,0.0,-0.008139178318827763,-0.4663405663732156,0.0,0.0,11.91203832243938,0.0017787301278032195,0.03500554915642358,-0.031204666413569473,-1.787895686611162,0.0,0.0,0.02306548809474171,1.3215551202379463,-8.054867868848962,0.0,-31.867515424077546,11.908869761016652,0.0,-0.2747326162063761,0.0,-80.683961966101,0.0,0.0,-1.2873693174190188,0.0,0.4363323129985824,0.3490658503988659,1.0,0.14,0.14,0.75,0.08726646259971647,5.0,0.184,0.175,0.174,0.0,0.0,0.0,-0.0572373256361426,0.0,0.05461880079246671,0.0,6.018465073145676,0.0,-0.5344877700697659,0.0,0.16264014046187844,0.0,-3.4297118757227256,0.0,-0.026674262714708283,0.0,-0.02533441308283424,0.6460858568932458,-0.3826480665893259,0.15437605466440382,0.0,0.0,0.0,0.6005555207376669,0.15437605466440382,0.0,0.0,-0.3567019270470026,0.0,0.0,-0.007565107648249838,0.0,1.8783923461294427,0.0,7.307343720058994,0.0,-0.6076309175667066,0.0,86.91171837372133,-2.1054641151138975,0.0,-7.24518121989029,0.0,-0.6076309175667066,0.0
sim_raptor_glider_3dof,raptor_glider_3dof,0.013000000000000001,-14.844644144079238,0.0,-0.0020616547956797474,11.8981533177962,0.0,-0.4036506830099055,0.0,0.0,0.0,-78.36814388044841,-1.3677821393904703,-0.057445708793940564,0.0,0.0,0.0,0.0,0.0,-0.009466802594987889,-0.5424078341763017,0.0,0.0,11.904998372434962,0.0020616547956797474,0.034984861066839935,-0.03391248372721017,-1.943042190375226,0.0,0.0,0.02444568113222228,1.4006343561989243,-8.117383824491792,0.0,-32.13007104143747,11.90144138769371,0.0,-0.29099680920987336,0.0,-80.14277107560564,0.0,0.0,-1.3677821393904703,0.0,0.4363323129985824,0.3490658503988659,1.0,0.14,0.14,0.75,0.08726646259971647,5.0,0.184,0.175,0.174,0.0,0.0,0.0,-0.05761601930955943,0.0,0.05463855083699745,0.0,6.0177819910699615,0.0,-0.5351373890075448,0.0,0.15953902573997666,0.0,-3.4274149133280445,0.0,-0.025824948194558973,0.0,-0.02499833852383666,0.6346146902653709,-0.3822931350535313,0.15349724359825548,0.0,0.0,0.0,0.5862172850071514,0.15349724359825548,0.0,0.0,-0.35472849598974404,0.0,0.0,-0.00804239923115168,0.0,1.8654923409971607,0.0,7.1244527243968,0.0,-0.6035552089703861,0.0,86.80902002196149,-2.1059813122431645,0.0,-7.0571050019796795,0.0,-0.6035552089703861,0.0
sim_raptor_glider_3dof,raptor_glider_3dof,0.014,-14.832746405252593,0.0,-0.002360502246274445,11.890003730263377,0.0,-0.435907360654491,0.0,0.0,0.0,-82.94458494168511,-1.447656103932514,-0.06083615426563203,0.0,0.0,0.0,0.0,0.0,-0.010874566618563394,-0.6230667712775334,0.0,0.0,11.897991592397004,0.002360502246274445,0.034964270452840236,-0.03664525512996455,-2.0996184581270976,0.0,0.0,0.025770688511401154,1.4765516868495643,-8.182169495569072,0.0,-32.38141627091821,11.894040914072189,0.0,-0.30658549725412,0.0,-79.60587358202784,0.0,0.0,-1.447656103932514,0.0,0.4363323129985824,0.3490658503988659,1.0,0.14,0.14,0.75,0.08726646259971647,5.0,0.184,0.175,0.174,0.0,0.0,0.0,-0.05800690334028452,0.0,0.05464352745317325,0.0,6.017085134986286,0.0,-0.535781883536813,0.0,0.15639230355488362,0.0,-3.4250974805392054,0.0,-0.024949342080951332,0.0,-0.024666839917634943,0.6230123126964741,-0.3819389683534815,0.1526362586052496,0.0,0.0,0.0,0.5717644279662687,0.1526362586052496,0.0,0.0,-0.352767202135354,0.0,0.0,-0.008517061597188486,0.0,1.852845623508327,0.0,6.940626216309836,0.0,-0.5995118339462517,0.0,86.70686583530339,-2.105885790536968,0.0,-6.868083736843621,0.0,-0.5995118339462517,0.0
sim_raptor_glider_3dof,raptor_glider_3dof,0.015,-14.82085605196005,0.0,-0.002674599483010127,11.881788267196312,0.0,-0.4684098998929004,0.0,0.0,0.0,-87.49034428820428,-1.5269945715325794,-0.0642079012551211,0.0,0.0,0.0,0.0,0.0,-0.012361936582118193,-0.7082867927637505,0.0,0.0,11.891017629320109,0.002674599483010127,0.03494377627705812,-0.03940210497848774,-2.257574319198757,0.0,0.0,0.02704016839636955,1.5492875264350066,-8.249117131150259,0.0,-32.62184200731303,11.886670712308405,0.0,-0.32149593769006923,0.0,-79.07148224812477,0.0,0.0,-1.5269945715325794,0.0,0.4363323129985824,0.3490658503988659,1.0,0.14,0.14,0.75,0.08726646259971647,5.0,0.184,0.175,0.174,0.0,0.0,0.0,-0.05841117186756767,0.0,0.05462582451813718,0.0,6.016379629141146,0.0,-0.5364184771854035,0.0,0.15319742610875378,0.0,-3.4227633203727703,0.0,-0.02404487117130256,0.0,-0.024339935063402637,0.6112841153350815,-0.3815778032983353,0.15179280882183402,0.0,0.0,0.0,0.5572022400553112,0.15179280882183402,0.0,0.0,-0.3508102203971549,0.0,0.0,-0.008989106175716955,0.0,1.8404475779935832,0.0,6.755929487845984,0.0,-0.5954873328106276,0.0,86.6052498175701,-2.105148059990786,0.0,-6.678187042723975,0.0,-0.5954873328106276,0.0
sim_raptor_glider_3dof,raptor_glider_3dof,0.016,-14.808973052877784,0.0,-0.003003267078392841,11.873504817280955,0.0,-0.5011475084927915,0.0,0.0,0.0,-92.00551680975953,-1.605799198329293,-0.06756096059635115,0.0,0.0,0.0,0.0,0.0,-0.013928377877089056,-0.7980372678205883,0.0,0.0,11.884076130320883,0.003003267078392841,0.03492337750248577,-0.042182173198098194,-2.416860494940885,0.0,0.0,0.028253795321009138,1.6188232271202965,-8.318115738342387,0.0,-32.851623250642255,11.879333053833843,0.0,-0.3357255834059568,0.0,-78.53772982919281,0.0,0.0,-1.605799198329293,0.0,0.4363323129985824,0.3490658503988659,1.0,0.14,0.14,0.75,0.08726646259971647,5.0,0.184,0.175,0.174,0.0,0.0,0.0,-0.058830068119510755,0.0,0.05457716449522396,0.0,6.0156708649842,0.0,-0.5370442916335318,0.0,0.14995168570541192,0.0,-3.4204163157866887,0.0,-0.023108855050905465,0.0,-0.024017616587256787,0.599435557506712,-0.3812014583387714,0.1509665099848223,0.0,0.0,0.0,0.5425361271889378,0.1509665099848223,0.0,0.0,-0.34884933266801404,0.0,0.0,-0.009458534483489161,0.0,1.8282924854207978,0.0,6.570428928300463,0.0,-0.5914676433436511,0.0,86.50416599041017,-2.1037389399081623,0.0,-6.487485813996653,0.0,-0.5914676433436511,0.0
sim_raptor_glider_3dof,raptor_glider_3dof,0.017,-14.797097374298678,0.0,-0.003345822995215223,11.865151389040044,0.0,-0.5341096789447184,0.0,0.0,0.0,-96.49008125199715,-1.6840696133642028,-0.07089525831670046,0.0,0.0,0.0,0.0,0.0,-0.015573356784395781,-0.8922876165973054,0.0,0.0,11.877166776381534,0.003345822995215223,0.03490307319163517,-0.04498462220647186,-2.5774289954213185,0.0,0.0,0.02941126542207608,1.6851413788240133,-8.389051259561496,0.0,-33.07101448400674,11.872030138223987,0.0,-0.3492721447275965,0.0,-78.00267481033623,0.0,0.0,-1.6840696133642028,0.0,0.4363323129985824,0.3490658503988659,1.0,0.14,0.14,0.75,0.08726646259971647,5.0,0.184,0.175,0.174,0.0,0.0,0.0,-0.05926488330612587,0.0,0.05448891343199046,0.0,6.014964489020712,0.0,-0.5376563528119047,0.0,0.14665221284871804,0.0,-3.418060477796501,0.0,-0.02213850843386708,0.0,-0.02369985178057718,0.5874721315973882,-0.3808013488355822,0.1501568865393661,0.0,0.0,0.0,0.5277715870273016,0.1501568865393661,0.0,0.0,-0.34687594956341394,0.0,0.0,-0.009925336164338066,0.0,1.8163735654123219,0.0,6.384191769991039,0.0,-0.5874381439966422,0.0,86.40360888410486,-2.1016296579160887,0.0,-6.296051958657703,0.0,-0.5874381439966422,0.0
sim_raptor_glider_3dof,raptor_glider_3dof,0.018000000000000002,-14.785228980353017,0.0,-0.0037015830411170117,11.85672610659401,0.0,-0.5672861473199093,0.0,0.0,0.0,-100.9439030519409,-1.7618034680703212,-0.07421063745087285,0.0,0.0,0.0,0.0,0.0,-0.01729633813126294,-0.9910071759525597,0.0,0.0,11.870289277845297,0.0037015830411170117,0.0348828624933007,-0.04780863347697576,-2.7392329225185694,0.0,0.0,0.03051229534571282,1.7482257465660098,-8.461806632795378,0.0,-33.280250693621056,11.864764085876567,0.0,-0.3621335751109435,0.0,-77.46430523905586,0.0,0.0,-1.7618034680703212,0.0,0.4363323129985824,0.3490658503988659,1.0,0.14,0.14,0.75,0.08726646259971647,5.0,0.184,0.175,0.174,0.0,0.0,0.0,-0.05971695399068482,0.0,0.054352096215917606,0.0,6.014266393116946,0.0,-0.5382515946399524,0.0,0.14329598638450283,0.0,-3.415699942267002,0.0,-0.021130946910068813,0.0,-0.023386583706208414,0.5753993719282383,-0.3803685039659145,0.14936337717191786,0.0,0.0,0.0,0.5129142159316784,0.14936337717191786,0.0,0.0,-0.3448811261579984,0.0,0.0,-0.0103894892431222,0.0,1.804683047378219,0.0,6.197286160621336,0.0,-0.5833836827553297,0.0,86.30357347050061,-2.098791917259586,0.0,-6.1039584816878385,0.0,-0.5833836827553297,0.0
sim_raptor_glider_3dof,raptor_glider_3dof,0.019000000000000003,-14.773367833169523,0.0,-0.004069861181795121,11.848227209008655,0.0,-0.6006668657629672,0.0,0.0,0.0,-105.36673387109744,-1.8389964281232807,-0.07750685741911655,0.0,0.0,0.0,0.0,0.0,-0.019096783334696596,-1.094165087353881,0.0,0.0,11.863443373654992,0.004069861181795121,0.034862744640321464,-0.050653405226654846,-2.902226337453228,0.0,0.0,0.03155662189195825,1.8080612500993467,-8.536261844611923,0.0,-33.47954759587729,11.857536934450179,0.0,-0.3743080657271297,0.0,-76.92054289062024,0.0,0.0,-1.8389964281232807,0.0,0.4363323129985824,0.3490658503988659,1.0,0.14,0.14,0.75,0.08726646259971647,5.0,0.184,0.175,0.174,0.0,0.0,0.0,-0.060187659541828926,0.0,0.05415741222212069,0.0,6.013582704318037,0.0,-0.538826863171208,0.0,0.13987984254785485,0.0,-3.413338965614315,0.0,-0.020083192504182338,0.0,-0.02307773215362346,0.5632228589314436,-0.37989358382651417,0.14858534005741658,0.0,0.0,0.0,0.4979697133176136,0.14858534005741658,0.0,0.0,-0.34285557911217646,0.0,0.0,-0.010850960038676315,0.0,1.7932122388429563,0.0,6.009781208221497,0.0,-0.579288608509261,0.0,86.20405515058697,-2.095197970704529,0.0,-5.91127953727313,0.0,-0.579288608509261,0.0
sim_raptor_glider_3dof,raptor_glider_3dof,0.02,-14.761513892868118,0.0,-0.004449969683304853,11.83965305518761,0.0,-0.6342419930475215,0.0,0.0,0.0,-109.75820554836703,-1.915642067899713,-0.0807835892593124,0.0,0.0,0.0,0.0,0.0,-0.020974148460384312,-1.2017301856608347,0.0,0.0,11.85662883677136,0.004449969683304853,0.03484271896550401,-0.05351815159123752,-3.0663642135192606,0.0,0.0,0.032544003130853205,1.8646340278584261,-8.612296689923383,0.0,-33.66909978833054,11.850350641141189,0.0,-0.3857940577080206,0.0,-76.36928195413664,0.0,0.0,-1.915642067899713,0.0,0.4363323129985824,0.3490658503988659,1.0,0.14,0.14,0.75,0.08726646259971647,5.0,0.184,0.175,0.174,0.0,0.0,0.0,-0.0606783969899005,0.0,0.05389543021940284,0.0,6.012919658345578,0.0,-0.5393789765222771,0.0,0.13640058357168533,0.0,-3.4109818326786834,0.0,-0.01899226279458098,0.0,-0.02277319970100799,0.5509482003990238,-0.37936704737629956,0.14782212098699402,0.0,0.0,0.0,0.482943867928959,0.14782212098699402,0.0,0.0,-0.34078985762840674,0.0,0.0,-0.011309702496303737,0.0,1.781952353137675,0.0,5.821746813963903,0.0,-0.575137062396603,0.0,86.10504983188825,-2.090821452338071,0.0,-5.718090223946687,0.0,-0.575137062396603,0.0
sim_raptor_glider_3dof,raptor_glider_3dof,0.02,-14.761513892868118,0.0,-0.004449969683304853,11.83965305518761,0.0,-0.6342419930475215,0.0,0.0,0.0,-109.75820554836703,-1.915642067899713,-0.0807835892593124,0.0,0.0,0.0,0.0,0.0,-0.020974148460384312,-1.2017301856608347,0.0,0.0,11.85662883677136,0.004449969683304853,0.03484271896550401,-0.05351815159123752,-3.0663642135192606,0.0,0.0,0.032544003130853205,1.8646340278584261,-8.211140391439912,0.0,-21.071882401331017,11.850350641141189,0.0,-0.3857940577080206,0.0,70.00999829696984,0.0,0.0,-1.915642067899713,0.0,-0.4363323129985824,0.3490658503988659,1.0,0.14,0.14,0.75,0.08726646259971647,5.0,0.184,0.175,0.174,0.0,0.0,0.0,-0.7820230045565777,0.0,0.1241465122609324,0.0,5.882478684089538,0.0,-0.6312948080369224,0.0,0.14103842402520628,0.0,-3.1159661272223635,0.0,0.1973243778647616,0.0,-0.04359725454054602,0.262018760573081,0.27717157583595065,0.15405627648327702,0.0,0.0,0.0,0.19548967671518003,0.15405627648327702,0.0,0.0,0.3124122257233953,0.0,0.0,-0.011309702496303737,0.0,1.8571032708910813,0.0,2.3565707697252423,0.0,0.5272452971744799,0.0,86.10504983188825,-1.9805034702551163,0.0,-2.2538554425218167,0.0,0.5272452971744799,0.0
sim_raptor_glider_3dof,raptor_glider_3dof,0.021,-14.7496670561503,0.0,-0.004834980174767251,11.831462894829732,0.0,-0.6547803501407591,0.0,0.0,0.0,-105.75830527263237,-1.845830638336714,-0.07788599152709648,0.0,0.0,0.0,0.0,0.0,-0.022854815763813034,-1.3094844848155498,0.0,0.0,11.84956756758082,0.004834980174767251,0.03482196822586858,-0.055285901767112094,-3.167648837830383,0.0,0.0,0.03243108600329906,1.858164353014833,-8.169199752299992,0.0,-20.007162479041988,11.843336572268685,0.0,-0.3842269832095146,0.0,69.61364340036496,0.0,0.0,-1.845830638336714,0.0,-0.4363323129985824,0.3490658503988659,1.0,0.14,0.14,0.75,0.08726646259971647,5.0,0.184,0.175,0.174,0.0,0.0,0.0,-0.7863359906931356,0.0,0.12316365089316712,0.0,5.876703004626871,0.0,-0.6325290359411131,0.0,0.13893344416350692,0.0,-3.1016807167276044,0.0,0.19889166849806583,0.0,-0.043117429988411775,0.25495718501421144,0.2771930280628794,0.1537849736692914,0.0,0.0,0.0,0.1908773873546231,0.1537849736692914,0.0,0.0,0.311013874986072,0.0,0.0,-0.01090403881379351,0.0,1.8516253354007477,0.0,2.298231081672305,0.0,0.5242603484481486,0.0,86.00251986454968,-1.9757913417309767,0.0,-2.1924030335236013,0.0,0.5242603484481486,0.0
sim_raptor_glider_3dof,raptor_glider_3dof,0.022,-14.737827213198969,0.0,-0.0052183235652347205,11.8233164843175,0.0,-0.6742658870154288,0.0,0.0,0.0,-101.78101890427509,-1.7764138959141915,-0.07500147083743267,0.0,0.0,0.0,0.0,0.0,-0.024665935501424825,-1.4132540019735464,0.0,0.0,11.842527060333307,0.0052183235652347205,0.034801278498731394,-0.056966786844274586,-3.2639564585983156,0.0,0.0,0.03230085134284976,1.850702456624769,-8.12357539531468,0.0,-18.96419012774848,11.836349676773594,0.0,-0.38245719220358126,0.0,69.21987626916294,0.0,0.0,-1.7764138959141915,0.0,-0.4363323129985824,0.3490658503988659,1.0,0.14,0.14,0.75,0.08726646259971647,5.0,0.184,0.175,0.174,0.0,0.0,0.0,-0.7904277803826814,0.0,0.12222809627482045,0.0,5.87122250926563,0.0,-0.6336973385509127,0.0,0.13691771811980954,0.0,-3.0880925783120854,0.0,0.20038110206509127,0.0,-0.04267699127729931,0.24824983659175218,0.27719684754139357,0.15352795952648846,0.0,0.0,0.0,0.18660079125852513,0.15352795952648846,0.0,0.0,0.3096224555051728,0.0,0.0,-0.010500205917240575,0.0,1.8463348108390947,0.0,2.2440703158781474,0.0,0.5212948881830661,0.0,85.90035217287213,-1.9711080876319897,0.0,-2.135307173030017,0.0,0.5212948881830661,0.0
sim_raptor_glider_3dof,raptor_glider_3dof,0.023,-14.725994344094023,0.0,-0.005599803218520669,11.815217343983356,0.0,-0.6927191108341368,0.0,0.0,0.0,-97.8262094796905,-1.707389450166288,-0.0721299680037278,0.0,0.0,0.0,0.0,0.0,-0.02640783454220698,-1.5130574653482503,0.0,0.0,11.835506776310002,0.005599803218520669,0.03478064820097564,-0.05856236111428443,-3.355376130169547,0.0,0.0,0.03215452657207745,1.8423186648212964,-8.07466371652088,0.0,-17.942544112392582,11.829388857868203,0.0,-0.38049954194918717,0.0,68.82905746202228,0.0,0.0,-1.707389450166288,0.0,-0.4363323129985824,0.3490658503988659,1.0,0.14,0.14,0.75,0.08726646259971647,5.0,0.184,0.175,0.174,0.0,0.0,0.0,-0.7943043890328806,0.0,0.12133866438347995,0.0,5.866029535028146,0.0,-0.6348015958447769,0.0,0.1349921996696047,0.0,-3.0751894207046457,0.0,0.20179416074007972,0.0,-0.04227235737390493,0.241889333569583,0.27718579032710533,0.1532853571016323,0.0,0.0,0.0,0.18265302039571266,0.1532853571016323,0.0,0.0,0.3082396543600213,0.0,0.0,-0.010098195520521894,0.0,1.841232343836102,0.0,2.1939907060330692,0.0,0.5183516317464898,0.0,85.79853840904971,-1.9664877942398817,0.0,-2.0824642895505403,0.0,0.5183516317464898,0.0
sim_raptor_glider_3dof,raptor_glider_3dof,0.024,-14.714168426469504,0.0,-0.0059792586533242535,11.807168219239943,0.0,-0.7101586898514138,0.0,0.0,0.0,-93.8937203332879,-1.6387545667626215,-0.06927141138992104,0.0,0.0,0.0,0.0,0.0,-0.02808085821342774,-1.6089146607346827,0.0,0.0,11.828505684244362,0.0059792586533242535,0.03476007430204932,-0.06007403099521933,-3.44198843436416,0.0,0.0,0.03199317278179159,1.8330737736294775,-8.022833022828634,0.0,-16.941829913513907,11.82245258958041,0.0,-0.3783668713360829,0.0,68.44148975160401,0.0,0.0,-1.6387545667626215,0.0,-0.4363323129985824,0.3490658503988659,1.0,0.14,0.14,0.75,0.08726646259971647,5.0,0.184,0.175,0.174,0.0,0.0,0.0,-0.7979711173305395,0.0,0.12049438350895274,0.0,5.861117292877239,0.0,-0.6358435250532283,0.0,0.1331576573839064,0.0,-3.062960226636052,0.0,0.20313219294110477,0.0,-0.04190040005765888,0.23586899219546958,0.2771623513903366,0.15305716976461756,0.0,0.0,0.0,0.17902789078754244,0.15305716976461756,0.0,0.0,0.30686693230057466,0.0,0.0,-0.009697997594588947,0.0,1.836316991110751,0.0,2.147903023696719,0.0,0.5154328593193298,0.0,85.69706310835976,-1.9619600509675081,0.0,-2.0337797937473776,0.0,0.5154328593193298,0.0
sim_raptor_glider_3dof,raptor_glider_3dof,0.025,-14.702349431970912,0.0,-0.006356493347389644,11.79917237239488,0.0,-0.7266086846305829,0.0,0.0,0.0,-89.98333118384447,-1.570505401070573,-0.06642567429233326,0.0,0.0,0.0,0.0,0.0,-0.0296854560533714,-1.7008513447792626,0.0,0.0,11.821523964957613,0.006356493347389644,0.034739557333326315,-0.06150365887516392,-3.5239000781592207,0.0,0.0,0.03181820282179253,1.8230487333799583,-7.968432295048019,0.0,-15.961568437264454,11.815540426001784,0.0,-0.37607618321930797,0.0,68.05742547861647,0.0,0.0,-1.570505401070573,0.0,-0.4363323129985824,0.3490658503988659,1.0,0.14,0.14,0.75,0.08726646259971647,5.0,0.184,0.175,0.174,0.0,0.0,0.0,-0.8014340593354848,0.0,0.11969413519757434,0.0,5.85647785910409,0.0,-0.6368250992063619,0.0,0.13141397982096614,0.0,-3.0513903491362036,0.0,0.20439694710918324,0.0,-0.041558251404975204,0.2301804145271614,0.2771287740096394,0.15284321394969103,0.0,0.0,0.0,0.17571754581948607,0.15284321394969103,0.0,0.0,0.3055054666155081,0.0,0.0,-0.009299594400926658,0.0,1.83158595157771,0.0,2.1056989057729365,0.0,0.5125404712794607,0.0,85.59592839555104,-1.95754942749101,0.0,-1.9891393160660682,0.0,0.5125404712794607,0.0
sim_raptor_glider_3dof,raptor_glider_3dof,0.026000000000000002,-14.69053733813694,0.0,-0.006731364403095673,11.791232065485172,0.0,-0.7420884607307126,0.0,0.0,0.0,-86.09484162877197,-1.5026384554051484,-0.06359264935996456,0.0,0.0,0.0,0.0,0.0,-0.031221995986844935,-1.7888885980206084,0.0,0.0,11.814560885012842,0.006731364403095673,0.03471909513947762,-0.06285271981304417,-3.6011955762057197,0.0,0.0,0.03163072382619924,1.8123069781851113,-7.911783710259102,0.0,-15.001355991755336,11.808651127792874,0.0,-0.3736408004373719,0.0,67.67707123101246,0.0,0.0,-1.5026384554051484,0.0,-0.4363323129985824,0.3490658503988659,1.0,0.14,0.14,0.75,0.08726646259971647,5.0,0.184,0.175,0.174,0.0,0.0,0.0,-0.8046980966208698,0.0,0.11893710556190493,0.0,5.852104873211937,0.0,-0.6377479682314835,0.0,0.12976123393414254,0.0,-3.0404683169958067,0.0,0.20558982467396378,0.0,-0.041243470865898024,0.22481683996858426,0.27708708052752007,0.1526432680084819,0.0,0.0,0.0,0.17271572051779732,0.1526432680084819,0.0,0.0,0.3041562815077115,0.0,0.0,-0.008902970910395039,0.0,1.8270356996812502,0.0,2.0672892515944468,0.0,0.5096760234407549,0.0,85.49512315864499,-1.9532772863985695,0.0,-1.9484486495946265,0.0,0.5096760234407549,0.0
sim_raptor_glider_3dof,raptor_glider_3dof,0.027,-14.67873212250318,0.0,-0.007103732429555718,11.783349428343723,0.0,-0.7566179090148469,0.0,0.0,0.0,-82.22803524551571,-1.435149952480193,-0.060772215094867486,0.0,0.0,0.0,0.0,0.0,-0.03269085880286206,-1.8730482380620908,0.0,0.0,11.807615949491682,0.007103732429555718,0.03469868626610151,-0.06412273755699842,-3.6739622328410246,0.0,0.0,0.03143187875413636,1.8009139947789337,-7.8531893915317825,0.0,-14.060782747492345,11.80178368583708,0.0,-0.3710744445527137,0.0,67.30059321109236,0.0,0.0,-1.435149952480193,0.0,-0.4363323129985824,0.3490658503988659,1.0,0.14,0.14,0.75,0.08726646259971647,5.0,0.184,0.175,0.174,0.0,0.0,0.0,-0.8077679934483425,0.0,0.11822252492945379,0.0,5.8479920803693215,0.0,-0.6386137632366659,0.0,0.12819917101416634,0.0,-3.0301822943988324,0.0,0.20671226573830323,0.0,-0.04095389762993525,0.21977140036147338,0.2770390863670498,0.15245702485596507,0.0,0.0,0.0,0.17001603980009333,0.15245702485596507,0.0,0.0,0.3028202109911109,0.0,0.0,-0.00850811011328145,0.0,1.822661780346804,0.0,2.0325841861489446,0.0,0.5068407674727367,0.0,85.39463976200962,-1.9491614855007982,0.0,-1.9116129165602722,0.0,0.5068407674727367,0.0
sim_raptor_glider_3dof,raptor_glider_3dof,0.028,-14.66693376380221,0.0,-0.0074734738366287546,11.77552624717933,0.0,-0.7702164463060907,0.0,0.0,0.0,-78.38268549488339,-1.368035938440916,-0.057964241882489914,0.0,0.0,0.0,0.0,0.0,-0.03409242078290031,-1.9533518242442818,0.0,0.0,11.800688614321187,0.0074734738366287546,0.03467832911434714,-0.06531520132169877,-3.7422853737806356,0.0,0.0,0.031222780538798456,1.788933549536354,-7.79293190000971,0.0,-13.139447704164535,11.79493705999466,0.0,-0.368390449026913,0.0,66.92812007112836,0.0,0.0,-1.368035938440916,0.0,-0.4363323129985824,0.3490658503988659,1.0,0.14,0.14,0.75,0.08726646259971647,5.0,0.184,0.175,0.174,0.0,0.0,0.0,-0.8106482275889,0.0,0.11754969915727254,0.0,5.844133566577637,0.0,-0.6394240419764893,0.0,0.1267273576617455,0.0,-3.0205207420339875,0.0,0.20776567510546434,0.0,-0.0406876365845388,0.21503744461053712,0.27698641824458436,0.15228412112814535,0.0,0.0,0.0,0.16761233658000127,0.15228412112814535,0.0,0.0,0.30149792553091137,0.0,0.0,-0.008114993863548588,0.0,1.81845907353441,0.0,2.0014967550932266,0.0,0.5040356722556677,0.0,85.29446987751632,-1.9452168443771252,0.0,-1.8785404150882248,0.0,0.5040356722556677,0.0
sim_raptor_glider_3dof,raptor_glider_3dof,0.029,-14.65514224175229,0.0,-0.007840478060017477,11.767764039891778,0.0,-0.7829030979913004,0.0,0.0,0.0,-74.55855965974513,-1.3012923516071755,-0.055168594534917695,0.0,0.0,0.0,0.0,0.0,-0.0354270542547986,-2.0298206893809456,0.0,0.0,11.79377834959664,0.007840478060017477,0.034658022126999435,-0.06643157236699543,-3.8062487230467426,0.0,0.0,0.03100451811219683,1.776428033665797,-7.731275820649845,0.0,-12.236958219688443,11.788110241200418,0.0,-0.36560183358440124,0.0,66.55974723739232,0.0,0.0,-1.3012923516071755,0.0,-0.4363323129985824,0.3490658503988659,1.0,0.14,0.14,0.75,0.08726646259971647,5.0,0.184,0.175,0.174,0.0,0.0,0.0,-0.8133430355349526,0.0,0.11691799259101966,0.0,5.840523705674737,0.0,-0.6401802960922288,0.0,0.1253451948537054,0.0,-3.01147235332038,0.0,0.20875142786150694,0.0,-0.04044302556606048,0.21060850618649582,0.2769305296742471,0.15212415078992506,0.0,0.0,0.0,0.1654986183999036,0.15212415078992506,0.0,0.0,0.30018994728412957,0.0,0.0,-0.0077236032348884775,0.0,1.8144219797990606,0.0,1.9739425284670162,0.0,0.5012614564448016,0.0,85.19460540136042,-1.9414554665295491,0.0,-1.8491422059839613,0.0,0.5012614564448016,0.0
sim_raptor_glider_3dof,raptor_glider_3dof,0.03,-14.64335753702995,0.0,-0.00820464676737252,11.760064081878053,0.0,-0.7946965196427817,0.0,0.0,0.0,-70.75542086456197,-1.2349150577208992,-0.05238513374484648,0.0,0.0,0.0,0.0,0.0,-0.036695127607686465,-2.1024759406144238,0.0,0.0,11.78688465067045,0.00820464676737252,0.034637763821065704,-0.06747328566765957,-3.8659344986374404,0.0,0.0,0.03077815805997311,1.7634585580230169,-7.668469093742698,0.0,-11.352929915291577,11.78130226284448,0.0,-0.3627213251328796,0.0,66.19554032167208,0.0,0.0,-1.2349150577208992,0.0,-0.4363323129985824,0.3490658503988659,1.0,0.14,0.14,0.75,0.08726646259971647,5.0,0.184,0.175,0.174,0.0,0.0,0.0,-0.8158564426201902,0.0,0.11632681539574737,0.0,5.837157125686712,0.0,-0.6408839548218821,0.0,0.12405194020953841,0.0,-3.0030260317634623,0.0,0.20967087066957157,0.0,-0.04021860700862803,0.20647829070640802,0.27687271523891493,0.1519766776753551,0.0,0.0,0.0,0.16366905476577853,0.1519766776753551,0.0,0.0,0.2988966640827608,0.0,0.0,-0.007333918724278507,0.0,1.8105445757181478,0.0,1.9498394349171273,0.0,0.4985186141625125,0.0,85.09503861345947,-1.9378870264106438,0.0,-1.8233319378241752,0.0,0.4985186141625125,0.0
sim_raptor_glider_3dof,raptor_glider_3dof,0.03,-14.64335753702995,0.0,-0.00820464676737252,11.760064081878053,0.0,-0.7946965196427817,0.0,0.0,0.0,-70.75542086456197,-1.2349150577208992,-0.05238513374484648,0.0,0.0,0.0,0.0,0.0,-0.036695127607686465,-2.1024759406144238,0.0,0.0,11.78688465067045,0.00820464676737252,0.034637763821065704,-0.06747328566765957,-3.8659344986374404,0.0,0.0,0.03077815805997311,1.7634585580230169,-7.668469093742698,0.0,-11.352929915291577,11.78130226284448,0.0,-0.3627213251328796,0.0,66.19554032167208,0.0,0.0,-1.2349150577208992,0.0,-0.4363323129985824,0.3490658503988659,1.0,0.14,0.14,0.75,0.08726646259971647,5.0,0.184,0.175,0.174,0.0,0.0,0.0,-0.8158564426201902,0.0,0.11632681539574737,0.0,5.837157125686712,0.0,-0.6408839548218821,0.0,0.12405194020953841,0.0,-3.0030260317634623,0.0,0.20967087066957157,0.0,-0.04021860700862803,0.20647829070640802,0.27687271523891493,0.1519766776753551,0.0,0.0,0.0,0.16366905476577853,0.1519766776753551,0.0,0.0,0.2988966640827608,0.0,0.0,-0.007333918724278507,0.0,1.8105445757181478,0.0,1.9498394349171273,0.0,0.4985186141625125,0.0,85.09503861345947,-1.9378870264106438,0.0,-1.8233319378241752,0.0,0.4985186141625125,0.0
sim_raptor_glider_3dof,raptor_glider_3dof,0.031,-14.631579647152714,0.0,-0.008565881136201887,11.752427631825533,0.0,-0.8056142308385037,0.0,0.0,0.0,-66.97306222134978,-1.168900445905581,-0.04961374074263896,0.0,0.0,0.0,0.0,0.0,-0.03789686583982828,-2.1713304693956625,0.0,0.0,11.780007195678015,0.008565881136201887,0.0346175532506921,-0.06844168369071879,-3.9214196182475463,0.0,0.0,0.030544817850890513,1.750089148851884,-7.604746004667143,0.0,-10.48700469451536,11.774512332623823,0.0,-0.35976222580382716,0.0,65.83554382703261,0.0,0.0,-1.168900445905581,0.0,-0.4363323129985824,0.3490658503988659,1.0,0.14,0.14,0.75,0.08726646259971647,5.0,0.184,0.175,0.174,0.0,0.0,0.0,-0.8181921264933508,0.0,0.11577565106794266,0.0,5.83402889756707,0.0,-0.6415363428884479,0.0,0.12284681230273804,0.0,-2.995171420360629,0.0,0.21052526322644108,0.0,-0.040013116833857526,0.20264093296721103,0.2768141279073714,0.1518412558171463,0.0,0.0,0.0,0.16211821335795712,0.1518412558171463,0.0,0.0,0.29761836007350617,0.0,0.0,-0.0069459237039694545,0.0,1.8068209058401874,0.0,1.9291106065756058,0.0,0.4958074805613826,0.0,84.99576444945887,-1.934519267987886,0.0,-1.8010287948745491,0.0,0.4958074805613826,0.0
sim_raptor_glider_3dof,raptor_glider_3dof,0.032,-14.619808521314233,0.0,-0.008924130297195229,11.744855097124494,0.0,-0.8156771089820241,0.0,0.0,0.0,-63.21115594477833,-1.1032427952279689,-0.046854207883438415,0.0,0.0,0.0,0.0,0.0,-0.03903293745422343,-2.2364225781251186,0.0,0.0,11.773145306101021,0.008924130297195229,0.034597388421937235,-0.06933840180541267,-3.972797781632434,0.0,0.0,0.03030546435118924,1.7363752035073152,-7.540320934960006,0.0,-9.63875400325049,11.767739366923498,0.0,-0.3567360238711901,0.0,65.47975743078554,0.0,0.0,-1.1032427952279689,0.0,-0.4363323129985824,0.3490658503988659,1.0,0.14,0.14,0.75,0.08726646259971647,5.0,0.184,0.175,0.174,0.0,0.0,0.0,-0.8203543670374601,0.0,0.11526382780868454,0.0,5.831133268203704,0.0,-0.6421389420460791,0.0,0.12172852987712539,0.0,-2.9878957682666996,0.0,0.21131611813705245,0.0,-0.03982538098700843,0.19908946537889594,0.276755766630183,0.15171738558803763,0.0,0.0,0.0,0.16083962713067293,0.15171738558803763,0.0,0.0,0.2963551351546409,0.0,0.0,-0.006559589103681378,0.0,1.8032442961258335,0.0,1.9116671374889542,0.0,0.493128053211246,0.0,84.89677271313576,-1.9313569564943576,0.0,-1.7821395968516094,0.0,0.493128053211246,0.0
sim_raptor_glider_3dof,raptor_glider_3dof,0.033,-14.608044160390783,0.0,-0.009279325518286394,11.737347235268597,0.0,-0.8249004127917963,0.0,0.0,0.0,-59.46951412067062,-1.0379388259669626,-0.044106429238902886,0.0,0.0,0.0,0.0,0.0,-0.040103528194412444,-2.297762909123736,0.0,0.0,11.76629851789812,0.009279325518286394,0.034577267971136735,-0.07016460113361864,-4.02013551617518,0.0,0.0,0.030061072939206193,1.7223726070514436,-7.475400289398069,0.0,-8.807862725037033,11.760982503892576,0.0,-0.35365428800480453,0.0,65.12818276026833,0.0,0.0,-1.0379388259669626,0.0,-0.4363323129985824,0.3490658503988659,1.0,0.14,0.14,0.75,0.08726646259971647,5.0,0.184,0.175,0.174,0.0,0.0,0.0,-0.8223462144181471,0.0,0.11479094807409194,0.0,5.828466118388412,0.0,-0.6426928770708722,0.0,0.12069628489380886,0.0,-2.981190148487206,0.0,0.21204452415722844,0.0,-0.039654457217774344,0.19581885266375687,0.2766985354474563,0.1516046286432181,0.0,0.0,0.0,0.15982865668467106,0.1516046286432181,0.0,0.0,0.2951070867739315,0.0,0.0,-0.006174900093446404,0.0,1.7998088974007893,0.0,1.8974423204298079,0.0,0.4904803443675808,0.0,84.79805632340867,-1.9284044939685439,0.0,-1.7665943320873139,0.0,0.4904803443675808,0.0
sim_raptor_glider_3dof,raptor_glider_3dof,0.034,-14.596286550618858,0.0,-0.009631422141808043,11.729904403440422,0.0,-0.8332992724050107,0.0,0.0,0.0,-55.74792513581457,-0.9729848447752713,-0.04137028115668019,0.0,0.0,0.0,0.0,0.0,-0.04110894744292399,-2.355369188704662,0.0,0.0,11.759466186491704,0.009631422141808043,0.03455719000408976,-0.07092143734126573,-4.063499036656045,0.0,0.0,0.02981248989834174,1.7081298479513822,-7.410176957996072,0.0,-7.994015488153369,11.754240757577719,0.0,-0.35052703767397136,0.0,64.78079785906874,0.0,0.0,-0.9729848447752713,0.0,-0.4363323129985824,0.3490658503988659,1.0,0.14,0.14,0.75,0.08726646259971647,5.0,0.184,0.175,0.174,0.0,0.0,0.0,-0.8241706357766053,0.0,0.1143566162027224,0.0,5.826023430708259,0.0,-0.6431992345432122,0.0,0.11974917583738429,0.0,-2.9750456524695825,0.0,0.21271155997352933,0.0,-0.039499516562830586,0.1928241290923384,0.2766432275847567,0.15150254838008212,0.0,0.0,0.0,0.1590807372628054,0.15150254838008212,0.0,0.0,0.2938742140982843,0.0,0.0,-0.0057918393619352275,0.0,1.7965088536430167,0.0,1.886370598992914,0.0,0.4878641886766467,0.0,84.69960561493205,-1.9256646519215623,0.0,-1.7543242990685732,0.0,0.4878641886766467,0.0
sim_raptor_glider_3dof,raptor_glider_3dof,0.034999999999999996,-14.584535674708667,0.0,-0.009980372235904296,11.722526888595695,0.0,-0.8408932827895201,0.0,0.0,0.0,-52.04611212852209,-0.9083760195048646,-0.038645589025149835,0.0,0.0,0.0,0.0,0.0,-0.042049598691848177,-2.409264535261728,0.0,0.0,11.752648134224456,0.009980372235904296,0.03453715399872008,-0.07161044853372334,-4.102976470021142,0.0,0.0,0.02956084984187516,1.6937119347594136,-7.344831254657732,0.0,-7.196822117706059,11.747513518537438,0.0,-0.3473676707319936,0.0,64.43755274696002,0.0,0.0,-0.9083760195048646,0.0,-0.4363323129985824,0.3490658503988659,1.0,0.14,0.14,0.75,0.08726646259971647,5.0,0.184,0.175,0.174,0.0,0.0,0.0,-0.8258314637462918,0.0,0.11396020924067218,0.0,5.823800023175681,0.0,-0.64365932325653,0.0,0.11888573429508834,0.0,-2.969450235409646,0.0,0.21331863588934474,0.0,-0.03935975009113531,0.19009886124796926,0.27659050335079227,0.15141066464876196,0.0,0.0,0.0,0.1585898757315265,0.15141066464876196,0.0,0.0,0.29265636483075086,0.0,0.0,-0.005410382463520977,0.0,1.7933379630859152,0.0,1.8783699640324485,0.0,0.48527920973735594,0.0,84.601417666981,-1.9231377405185992,0.0,-1.7452438232572025,0.0,0.48527920973735594,0.0
sim_raptor_glider_3dof,raptor_glider_3dof,0.036,-14.572791519111016,0.0,-0.010326151224346734,11.715214710349523,0.0,-0.8476983128511586,0.0,0.0,0.0,-48.36384811863934,-0.8441083886047216,-0.03593221560704496,0.0,0.0,0.0,0.0,0.0,-0.042925812465568446,-2.4594678864471304,0.0,0.0,11.745843866627913,0.010326151224346734,0.03451715850194808,-0.07223286193620233,-4.138638131095566,0.0,0.0,0.029307049470633888,1.6791702446484353,-7.279533225705364,0.0,-6.415958970183532,11.740799956522165,0.0,-0.3441867518218434,0.0,64.0983892996602,0.0,0.0,-0.8441083886047216,0.0,-0.4363323129985824,0.3490658503988659,1.0,0.14,0.14,0.75,0.08726646259971647,5.0,0.184,0.175,0.174,0.0,0.0,0.0,-0.8273317370858011,0.0,0.11360126985220156,0.0,5.821791773882667,0.0,-0.6440742118710676,0.0,0.11810480414533367,0.0,-2.964394341517578,0.0,0.21386688275653662,0.0,-0.03923449758017469,0.1876378884641682,0.2765409482570002,0.15132855257556804,0.0,0.0,0.0,0.158351305650782,0.15132855257556804,0.0,0.0,0.2914533641843201,0.0,0.0,-0.005030510184986295,0.0,1.790290610318773,0.0,1.8733732056066945,0.0,0.482724969815741,0.0,84.503485007033,-1.9208236083949974,0.0,-1.739282697640924,0.0,0.482724969815741,0.0
sim_raptor_glider_3dof,raptor_glider_3dof,0.037,-14.561054070551185,0.0,-0.010668743025676497,11.707967739694153,0.0,-0.853730508646057,0.0,0.0,0.0,-44.70090156322374,-0.7801779108881344,-0.03323001921920077,0.0,0.0,0.0,0.0,0.0,-0.04373792751879183,-2.5059986514758728,0.0,0.0,11.739052959038565,0.010668743025676497,0.034497202265827864,-0.07278993247567407,-4.170555921898372,0.0,0.0,0.02905200495688224,1.6645572704224996,-7.214442720750664,0.0,-5.651100008284658,11.734099315644514,0.0,-0.34099505231462085,0.0,63.763234269051345,0.0,0.0,-0.7801779108881344,0.0,-0.4363323129985824,0.3490658503988659,1.0,0.14,0.14,0.75,0.08726646259971647,5.0,0.184,0.175,0.174,0.0,0.0,0.0,-0.8286745272071228,0.0,0.11327930868782284,0.0,5.819994516680199,0.0,-0.6444449575826582,0.0,0.11740512892759508,0.0,-2.959868153608879,0.0,0.2143574505450203,0.0,-0.039123165595198135,0.18543597954919352,0.2764950569148934,0.15125580044892073,0.0,0.0,0.0,0.15836018539890387,0.15125580044892073,0.0,0.0,0.2902649635031947,0.0,0.0,-0.004652202690688108,0.0,1.7873613828778077,0.0,1.871312565384599,0.0,0.4802009172802257,0.0,84.40580118358605,-1.918720881214491,0.0,-1.7363702400008603,0.0,0.4802009172802257,0.0
sim_raptor_glider_3dof,raptor_glider_3dof,0.038,-14.549323316427193,0.0,-0.011008141495866288,11.700785702284037,0.0,-0.8590057340584657,0.0,0.0,0.0,-41.05704490094594,-0.7165806146606558,-0.0305388602837734,0.0,0.0,0.0,0.0,0.0,-0.044486279256206046,-2.5488760476209893,0.0,0.0,11.732275009644116,0.011008141495866288,0.03447728410956571,-0.07328289528510168,-4.198800610335486,0.0,0.0,0.028796616028895633,1.6499245627144965,-7.149710137173493,0.0,-4.901926495092095,11.727410880036887,0.0,-0.3378031271499671,0.0,63.432002129879116,0.0,0.0,-0.7165806146606558,0.0,-0.4363323129985824,0.3490658503988659,1.0,0.14,0.14,0.75,0.08726646259971647,5.0,0.184,0.175,0.174,0.0,0.0,0.0,-0.8298628324370418,0.0,0.11299382863512353,0.0,5.818404184748906,0.0,-0.6447725759969457,0.0,0.11678542044277944,0.0,-2.9558619770778494,0.0,0.21479146658531145,0.0,-0.03902522676417439,0.18348801793350444,0.2764532433922109,0.15119201931706733,0.0,0.0,0.0,0.15861177738734472,0.15119201931706733,0.0,0.0,0.2890908552232647,0.0,0.0,-0.0042754404397282765,0.0,1.7845451689896927,0.0,1.8721218379117348,0.0,0.47770640804011966,0.0,84.30836008835762,-1.9168272115621903,0.0,-1.7364374671047564,0.0,0.47770640804011966,0.0
sim_raptor_glider_3dof,raptor_glider_3dof,0.039,-14.537599244940528,0.0,-0.011344352339161761,11.693668157432704,0.0,-0.8635394955354013,0.0,0.0,0.0,-37.432056384576875,-0.6533126297030313,-0.027858602817912904,0.0,0.0,0.0,0.0,0.0,-0.045171198627508076,-2.5881190369033495,0.0,0.0,11.72550960242262,0.011344352339161761,0.034457402810610424,-0.07371295937550483,-4.223441467635719,0.0,0.0,0.028541760747996754,1.6353224307323697,-7.085477005950585,0.0,-4.168128238570798,11.720733938342436,0.0,-0.33462125319968455,0.0,63.10459633354942,0.0,0.0,-0.6533126297030313,0.0,-0.4363323129985824,0.3490658503988659,1.0,0.14,0.14,0.75,0.08726646259971647,5.0,0.184,0.175,0.174,0.0,0.0,0.0,-0.8308995701450663,0.0,0.11274432621034372,0.0,5.8170168227483865,0.0,-0.6450580385376068,0.0,0.11624437471684743,0.0,-2.9523662903528383,0.0,0.21517003012999625,0.0,-0.0389402119264071,0.18178902406897368,0.27641584813863374,0.15113684621067555,0.0,0.0,0.0,0.1591014694939646,0.15113684621067555,0.0,0.0,0.28793068011846457,0.0,0.0,-0.0039002043945078066,0.0,1.781837182493148,0.0,1.8757366005803344,0.0,0.4752407149879607,0.0,84.21115542293634,-1.9151393945242687,0.0,-1.7394173275016565,0.0,0.4752407149879607,0.0
sim_raptor_glider_3dof,raptor_glider_3dof,0.04,-14.52588184493602,0.0,-0.011677390614013195,11.686614538971044,0.0,-0.8673470175203487,0.0,0.0,0.0,-33.82571976432235,-0.5903701817443454,-0.02518911411990045,0.0,0.0,0.0,0.0,0.0,-0.045793013063548826,-2.623746379728792,0.0,0.0,11.718756343200026,0.011677390614013195,0.03443755721061455,-0.07408131372312154,-4.244546617119452,0.0,0.0,0.028288300659572718,1.6208002373906598,-7.021876543720002,0.0,-3.4494024173699156,11.714067817662789,0.0,-0.33145949147339476,0.0,62.78091072944843,0.0,0.0,-0.5903701817443454,0.0,-0.4363323129985824,0.3490658503988659,1.0,0.14,0.14,0.75,0.08726646259971647,5.0,0.184,0.175,0.174,0.0,0.0,0.0,-0.831787597550927,0.0,0.11253028638097608,0.0,5.815828560248947,0.0,-0.6453022780330963,0.0,0.1157806712584432,0.0,-2.9493716949851723,0.0,0.2154942178649339,0.0,-0.038867701084198195,0.18033412897818793,0.27638314330606745,0.1510899450945368,0.0,0.0,0.0,0.15982474927536375,0.1510899450945368,0.0,0.0,0.28678403173504546,0.0,0.0,-0.003526475976786063,0.0,1.7792329830433062,0.0,1.882093909289773,0.0,0.4728030387034761,0.0,84.11418121693019,-1.9136534569028067,0.0,-1.7452443777932019,0.0,0.4728030387034761,0.0
sim_raptor_glider_3dof,raptor_glider_3dof,0.04,-14.52588184493602,0.0,-0.011677390614013195,11.686614538971044,0.0,-0.8673470175203487,0.0,0.0,0.0,-33.82571976432235,-0.5903701817443454,-0.02518911411990045,0.0,0.0,0.0,0.0,0.0,-0.045793013063548826,-2.623746379728792,0.0,0.0,11.718756343200026,0.011677390614013195,0.03443755721061455,-0.07408131372312154,-4.244546617119452,0.0,0.0,0.028288300659572718,1.6208002373906598,-7.021876543720002,0.0,-3.4494024173699156,11.714067817662789,0.0,-0.33145949147339476,0.0,62.78091072944843,0.0,0.0,-0.5903701817443454,0.0,-0.4363323129985824,0.3490658503988659,1.0,0.14,0.14,0.75,0.08726646259971647,5.0,0.184,0.175,0.174,0.0,0.0,0.0,-0.831787597550927,0.0,0.11253028638097608,0.0,5.815828560248947,0.0,-0.6453022780330963,0.0,0.1157806712584432,0.0,-2.9493716949851723,0.0,0.2154942178649339,0.0,-0.038867701084198195,0.18033412897818793,0.27638314330606745,0.1510899450945368,0.0,0.0,0.0,0.15982474927536375,0.1510899450945368,0.0,0.0,0.28678403173504546,0.0,0.0,-0.003526475976786063,0.0,1.7792329830433062,0.0,1.882093909289773,0.0,0.4728030387034761,0.0,84.11418121693019,-1.9136534569028067,0.0,-1.7452443777932019,0.0,0.4728030387034761,0.0
sim_raptor_glider_3dof,raptor_glider_3dof,0.041,-14.514171110694392,0.0,-0.012007282000926286,11.679624136356868,0.0,-0.8704438370566571,0.0,0.0,0.0,-30.237823808583347,-0.527749584097711,-0.022530264421418374,0.0,0.0,0.0,0.0,0.0,-0.04635202006576523,-2.655775121674052,0.0,0.0,11.712014875333784,0.012007282000926286,0.03441774626152336,-0.07438917795048047,-4.262185938010174,0.0,0.0,0.028037157884715246,1.6064108163361224,-6.959034134241616,0.0,-2.7454445269690275,11.707411873533664,0.0,-0.3283285907178984,0.0,62.46082950822868,0.0,0.0,-0.527749584097711,0.0,-0.4363323129985824,0.3490658503988659,1.0,0.14,0.14,0.75,0.08726646259971647,5.0,0.184,0.175,0.174,0.0,0.0,0.0,-0.8325298389285576,0.0,0.11235115193849912,0.0,5.814835442521233,0.0,-0.6455062237308505,0.0,0.11539291510430795,0.0,-2.946868503536299,0.0,0.21576512866866765,0.0,-0.038807306809007173,0.1791183719454158,0.27635533341696783,0.1510510016474285,0.0,0.0,0.0,0.16077700273323037,0.1510510016474285,0.0,0.0,0.28565045514094295,0.0,0.0,-0.0031542370189985725,0.0,1.7767284174222886,0.0,1.8911299263732781,0.0,0.4703925070264702,0.0,84.01743205201785,-1.9123645876280717,0.0,-1.7538523175246616,0.0,0.4703925070264702,0.0
sim_raptor_glider_3dof,raptor_glider_3dof,0.042,-14.502467022031103,0.0,-0.012334064924803276,11.672696085486985,0.0,-0.8728445409949874,0.0,0.0,0.0,-26.668151852353432,-0.4654470552453921,-0.01988191934138479,0.0,0.0,0.0,0.0,0.0,-0.046848618377736795,-2.6842281090633437,0.0,0.0,11.705284767868227,0.012334064924803276,0.034397968696900365,-0.07463769487751695,-4.276424909066925,0.0,0.0,0.027789076499780158,1.5921968000035813,-6.89706668374614,0.0,-2.055965123617728,11.70076545645366,0.0,-0.32523719029151016,0.0,62.14422912881865,0.0,0.0,-0.4654470552453921,0.0,-0.4363323129985824,0.3490658503988659,1.0,0.14,0.14,0.75,0.08726646259971647,5.0,0.184,0.175,0.174,0.0,0.0,0.0,-0.8331290305642666,0.0,0.1122063853431572,0.0,5.814033772511218,0.0,-0.6456707314677405,0.0,0.11507977710490215,0.0,-2.9448476135602375,0.0,0.2159837892313091,0.0,-0.03875868973320309,0.17813712286464536,0.27633256978847315,0.1510197375545307,0.0,0.0,0.0,0.16195394179280365,0.1510197375545307,0.0,0.0,0.2845294609700395,0.0,0.0,-0.0027834687077938707,0.0,1.7743197518642861,0.0,1.902784910558398,0.0,0.46800818956913326,0.0,83.92090145660639,-1.9112675246713722,0.0,-1.7651791543186313,0.0,0.46800818956913326,0.0
sim_raptor_glider_3dof,raptor_glider_3dof,0.043000000000000003,-14.490769575320693,0.0,-0.012657780908529315,11.665829508648022,0.0,-0.874562869879551,0.0,0.0,0.0,-23.116523674704343,-0.40345944973880943,-0.017243970829636173,0.0,0.0,0.0,0.0,0.0,-0.04728307160933984,-2.7091204456300177,0.0,0.0,11.698565653028362,0.012657780908529315,0.03437822343597626,-0.07482793825616416,-4.28732505174372,0.0,0.0,0.027544866646824318,1.5782046061137014,-6.836086215521362,0.0,-1.380695893948623,11.69412796763282,0.0,-0.32219468469047247,0.0,61.83098317119511,0.0,0.0,-0.40345944973880943,0.0,-0.4363323129985824,0.3490658503988659,1.0,0.14,0.14,0.75,0.08726646259971647,5.0,0.184,0.175,0.174,0.0,0.0,0.0,-0.8335877424587746,0.0,0.11209546421859588,0.0,5.813420082224829,0.0,-0.6457965902536312,0.0,0.11483998850336473,0.0,-2.9433004457531373,0.0,0.21615116108024013,0.0,-0.038721552197133385,0.17738604968192023,0.276314954562753,0.1509959095235895,0.0,0.0,0.0,0.1633515471973574,0.1509959095235895,0.0,0.0,0.2834205407468721,0.0,0.0,-0.002414155916149064,0.0,1.7720036996592496,0.0,1.9170025657785035,0.0,0.4656491342622704,0.0,83.82458387922736,-1.9103566178326143,0.0,-1.7791665300107709,0.0,0.4656491342622704,0.0
sim_raptor_glider_3dof,raptor_glider_3dof,0.044,-14.479078762967537,0.0,-0.012978476070644179,11.659023497403679,0.0,-0.8756111755937751,0.0,0.0,0.0,-19.582773910951314,-0.3417838814197473,-0.014616321288826685,0.0,0.0,0.0,0.0,0.0,-0.04765565453330984,-2.7304678746921427,0.0,0.0,11.691857159743092,0.012978476070644179,0.034358509388295544,-0.07496086640264668,-4.294941273515665,0.0,0.0,0.02730521186933684,1.564473398823522,-6.77619894217478,0.0,-0.7193936920588406,11.687498854705304,0.0,-0.319208967759447,0.0,61.52096195991236,0.0,0.0,-0.3417838814197473,0.0,-0.4363323129985824,0.3490658503988659,1.0,0.14,0.14,0.75,0.08726646259971647,5.0,0.184,0.175,0.174,0.0,0.0,0.0,-0.8339082687807047,0.0,0.11201790867530866,0.0,5.812991279520594,0.0,-0.6458844929211135,0.0,0.11467240288277772,0.0,-2.9422193222591404,0.0,0.21626810000031085,0.0,-0.038695643397853294,0.1768612996716812,0.2763025491428204,0.15097931477879373,0.0,0.0,0.0,0.1649662629249943,0.15097931477879373,0.0,0.0,0.28232316835110705,0.0,0.0,-0.002046284980435736,0.0,1.7697774628517602,0.0,1.9337322777182193,0.0,0.46331436452010005,0.0,83.72847373376644,-1.9096260168501076,0.0,-1.7957620292445484,0.0,0.46331436452010005,0.0
