name,vehicle,t,north,east,down,u,v,w,p_rad,p_deg,p_hat_div_b,q_deg,q_rad,q_hat_div_c,r_rad,r_deg,r_hat_div_b,phi_rad,phi_deg,theta_rad,theta_deg,psi_rad,psi_deg,speed,altitude,mach,alpha_rad,alpha_deg,beta_rad,beta_deg,gamma_rad,gamma_deg,u_dot,v_dot,w_dot,north_dot,east_dot,down_dot,p_rad_dot,q_rad_dot,r_rad_dot,phi_rad_dot,theta_rad_dot,psi_rad_dot,del_tail_alt_rad,del_tail_splay_rad,DIM_b,DIM_c_bar,DIM_S,DIM_wing_position,DIM_wing_incidence_rad,DIM_wing_incidence_deg,DIM_empennage_length,DIM_nose_length,DIM_tail_length,CDp,CDq,CDr,CYp,CYq,CYr,CLp,CLq,CLr,Clp,Clq,Clr,Cmp,Cmq,Cmr,Cnp,Cnq,Cnr,CL_0,Cm_0,CD_0,Cl_0,CY_0,Cn_0,CL,CD,CY,Cl,Cm,Cn,p_hat,q_hat,r_hat,drag_force_wind,side_force_wind,lift_force_wind,roll_moment_wind,pitch_moment_wind,yaw_moment_wind,qbar,X_total,Y_total,Z_total,L_total,M_total,N_total
sim_raptor_glider_3dof,raptor_glider_3dof,0.0,-15.0,0.0,0.0,12.0,0.0,0.0,0.0,0.0,0.0,0.0,0.0,0.0,0.0,0.0,0.0,0.0,0.0,0.0,0.0,0.0,0.0,12.0,-0.0,0.035264039495724236,0.0,0.0,0.0,0.0,0.0,0.0,-7.487178041450953,0.0,-25.024054441263395,12.0,0.0,0.0,0.0,-89.41363838472799,0.0,0.0,0.0,0.0,0.4363323129985824,0.3490658503988659,1.0,0.14,0.14,0.75,0.08726646259971647,5.0,0.184,0.175,0.174,0.0,0.0,0.0,-0.053153656886407115,0.0,0.055671173493162154,0.0,6.024209384397437,0.0,-0.5269202128147928,0.0,0.19813275846416445,0.0,-3.4552995296441478,0.0,-0.03588346466142729,0.0,-0.029845922084054996,0.7757079658211316,-0.38952171953159265,0.1667455120831285,0.0,0.0,0.0,0.7757079658211316,0.1667455120831285,0.0,0.0,-0.38952171953159265,0.0,0.0,0.0,0.0,2.0589739613990123,0.0,9.578443721347433,0.0,-0.6733741106753866,0.0,88.20001620075907,-2.0589739613990123,0.0,-9.578443721347433,0.0,-0.6733741106753866,0.0
sim_raptor_glider_3dof,raptor_glider_3dof,0.001,-14.988003746590733,0.0,-0.000012415174634177188,11.992502827180262,0.0,-0.02526770405029525,0.0,0.0,0.0,-5.103039651887635,-0.0890648437852645,-0.0037133468875430262,0.0,0.0,0.0,0.0,0.0,-0.000044590487564095195,-0.0025548467438532376,0.0,0.0,11.992529446150822,0.000012415174634177188,0.03524208600355821,-0.002106955238988487,-0.12071964281701804,0.0,0.0,0.002062364751424392,0.1181647960731648,-7.507675599275719,0.0,-25.508550485583747,11.99250394195709,0.0,-0.024732952477174667,0.0,-88.71856693472195,0.0,0.0,-0.0890648437852645,0.0,0.4363323129985824,0.3490658503988659,1.0,0.14,0.14,0.75,0.08726646259971647,5.0,0.184,0.175,0.174,0.0,0.0,0.0,-0.053430186057496054,0.0,0.0554080780660455,0.0,6.0240249874908525,0.0,-0.5274002219771142,0.0,0.1957017793236076,0.0,-3.453669819760639,0.0,-0.03525814560644711,0.0,-0.029499655008724115,0.7671435812705255,-0.38877083359862435,0.165760584735996,0.0,0.0,0.0,0.7640118800492363,0.165760584735996,0.0,0.0,-0.386975379228011,0.0,0.0,-0.0005198685642560238,0.0,2.0442643995802876,0.0,9.422277857722193,0.0,-0.6681395275853911,0.0,88.09023322213056,-2.064112165078258,0.0,-9.417949773357746,0.0,-0.6681395275853911,0.0
sim_raptor_glider_3dof,raptor_glider_3dof,0.002,-14.976014997218163,0.0,-0.000049270492086499364,11.984983638081903,0.0,-0.051011581957007696,0.0,0.0,0.0,-10.166686259086081,-0.1774421492383174,-0.0074026192836820276,0.0,0.0,0.0,0.0,0.0,-0.00017790069037163533,-0.010192958730758345,0.0,0.0,11.985092197667264,0.000049270492086499364,0.03522023038486956,-0.004256265628603735,-0.24386605700559036,0.0,0.0,0.0040783649382321,0.233673098274832,-7.5312069778045,0.0,-25.97647568606275,11.984992523423195,0.0,-0.04887944429772272,0.0,-88.03854836579413,0.0,0.0,-0.1774421492383174,0.0,0.4363323129985824,0.3490658503988659,1.0,0.14,0.14,0.75,0.08726646259971647,5.0,0.184,0.175,0.174,0.0,0.0,0.0,-0.05371000072613438,0.0,0.05518325282971427,0.0,6.023796383437123,0.0,-0.5278990096560925,0.0,0.1932332307470952,0.0,-3.4519868033346692,0.0,-0.03462545852853912,0.0,-0.029153229463314653,0.758374006898808,-0.388063512765844,0.16478068235403653,0.0,0.0,0.0,0.7521311449211472,0.16478068235403653,0.0,0.0,-0.38448598859501065,0.0,0.0,-0.001036366699715484,0.0,2.0296598650783366,0.0,9.264255835778041,0.0,-0.6630183077427956,0.0,87.98100758981425,-2.069072495287059,0.0,-9.25553317577674,0.0,-0.6630183077427956,0.0
sim_raptor_glider_3dof,raptor_glider_3dof,0.003,-14.964033765483153,0.0,-0.00010997650410396534,11.977439408842296,0.0,-0.07721526894416839,0.0,0.0,0.0,-15.191799193026208,-0.2651469152201249,-0.011068367643203196,0.0,0.0,0.0,0.0,0.0,-0.0003992506169425001,-0.022875375318799577,0.0,0.0,11.97768829909372,0.00010997650410396534,0.035198472770559576,-0.006446636600632963,-0.3693650692708328,0.0,0.0,0.006047385983690463,0.3464896939520332,-7.557751963901034,0.0,-26.428240508352538,11.977469282477013,0.0,-0.07243326284374174,0.0,-87.37346069275941,0.0,0.0,-0.2651469152201249,0.0,0.4363323129985824,0.3490658503988659,1.0,0.14,0.14,0.75,0.08726646259971647,5.0,0.184,0.175,0.174,0.0,0.0,0.0,-0.0539933342342998,0.0,0.0549956890768542,0.0,6.023523849844041,0.0,-0.5284156910211553,0.0,0.1907277346999606,0.0,-3.450251759098094,0.0,-0.033984927296559594,0.0,-0.028807107836358457,0.7494038488665931,-0.387399686775176,0.16380724554970857,0.0,0.0,0.0,0.7400699681597184,0.16380724554970857,0.0,0.0,-0.38205327508479314,0.0,0.0,-0.0015495714700484477,0.0,2.015177614704102,0.0,9.104435082498677,0.0,-0.6580095324771711,0.0,87.87233904709669,-2.0738283182350847,0.0,-9.09125486919839,0.0,-0.6580095324771711,0.0
sim_raptor_glider_3dof,raptor_glider_3dof,0.004,-14.95206006146447,0.0,-0.00019393750269191865,11.969867139046595,0.0,-0.10386280993339823,0.0,0.0,0.0,-20.179227607931264,-0.35219396226773997,-0.01471113674262299,0.0,0.0,0.0,0.0,0.0,-0.0007079751977142588,-0.040563990828967035,0.0,0.0,11.970317740549529,0.00019393750269191865,0.03517681313159225,-0.008676805031272569,-0.49714430794979647,0.0,0.0,0.00796882983355831,0.4565803171208294,-7.587282867422961,0.0,-26.864252771312174,11.96993767151242,0.0,-0.09538841555743248,0.0,-86.72306067972036,0.0,0.0,-0.35219396226773997,0.0,0.4363323129985824,0.3490658503988659,1.0,0.14,0.14,0.75,0.08726646259971647,5.0,0.184,0.175,0.174,0.0,0.0,0.0,-0.054280487125545326,0.0,0.054843901706905056,0.0,6.023207997132767,0.0,-0.5289492506950555,0.0,0.18818569052618506,0.0,-3.4484661334741316,0.0,-0.033335929119057396,0.0,-0.028461722112779208,0.7402377623774763,-0.38677875516894367,0.16284159593212236,0.0,0.0,0.0,0.727832609270965,0.16284159593212236,0.0,0.0,-0.37967643521108574,0.0,0.0,-0.0020595591439672187,0.0,2.000833340210975,0.0,8.942873240625298,0.0,-0.6531113699789741,0.0,87.76422654166264,-2.078352616244555,0.0,-8.925175978978858,0.0,-0.6531113699789741,0.0
sim_raptor_glider_3dof,raptor_glider_3dof,0.005,-14.94009389182307,0.0,-0.0003005518855746,11.962263859629724,0.0,-0.13093865674169305,0.0,0.0,0.0,-25.12980322664479,-0.4385978066832464,-0.01833146045868009,0.0,0.0,0.0,0.0,0.0,-0.0011034240774344013,-0.06322154265010774,0.0,0.0,11.962980463882431,0.0003005518855746,0.035155251297077285,-0.010945539172903748,-0.6271331991024985,0.0,0.0,0.009842115095469346,0.5639116564523908,-7.619764933048298,0.0,-27.284916404279006,11.96240105817221,0.0,-0.11773912974501546,0.0,-86.08698535636344,0.0,0.0,-0.4385978066832464,0.0,0.4363323129985824,0.3490658503988659,1.0,0.14,0.14,0.75,0.08726646259971647,5.0,0.184,0.175,0.174,0.0,0.0,0.0,-0.05457182683161292,0.0,0.05472593032343835,0.0,6.022849768199583,0.0,-0.529498543215881,0.0,0.18560727572066893,0.0,-3.446631540314975,0.0,-0.03267769521599154,0.0,-0.028117473742245224,0.7308804509402165,-0.3861995880247053,0.16188493539638366,0.0,0.0,0.0,0.7154233824078116,0.16188493539638366,0.0,0.0,-0.37735413745313595,0.0,0.0,-0.002566404464215213,0.0,1.9866411722863777,0.0,8.779628219436473,0.0,-0.6483210867187731,0.0,87.65666831823584,-2.0826180146542357,0.0,-8.757357879177162,0.0,-0.6483210867187731,0.0
sim_raptor_glider_3dof,raptor_glider_3dof,0.006,-14.92813525992473,0.0,-0.0004292124397594923,11.954626639550906,0.0,-0.15842765930436845,0.0,0.0,0.0,-30.04433358782197,-0.5243725426750143,-0.02192985685369944,0.0,0.0,0.0,0.0,0.0,-0.0015849610904613313,-0.09081158117588696,0.0,0.0,11.955676367913814,0.0004292124397594923,0.03513378696968413,-0.01325163807797221,-0.7592629335026617,0.0,0.0,0.01166667698751088,0.6684513523267749,-7.65515672930522,0.0,-27.690630360815796,11.954862725505864,0.0,-0.13947985016959272,0.0,-85.46475387002384,0.0,0.0,-0.5243725426750143,0.0,0.4363323129985824,0.3490658503988659,1.0,0.14,0.14,0.75,0.08726646259971647,5.0,0.184,0.175,0.174,0.0,0.0,0.0,-0.05486778710977721,0.0,0.05463934182373924,0.0,6.022450437086101,0.0,-0.5300622937916623,0.0,0.18299244783751023,0.0,-3.444749760445701,0.0,-0.03200931203935526,0.0,-0.02777473367758559,0.7213366671206888,-0.3856605284654083,0.16093834608201854,0.0,0.0,0.0,0.7028466604815571,0.16093834608201854,0.0,0.0,-0.37508452678533377,0.0,0.0,-0.003070179959517922,0.0,1.9726136922696764,0.0,8.61475825857789,0.0,-0.6436350613951496,0.0,87.54966199755503,-2.0865968109073574,0.0,-8.58786227075033,0.0,-0.6436350613951496,0.0
sim_raptor_glider_3dof,raptor_glider_3dof,0.007,-14.916184165882276,0.0,-0.0005793064854676666,11.946952592434664,0.0,-0.18631506489291877,0.0,0.0,0.0,-34.923595341205655,-0.6095317253381911,-0.025506823267053384,0.0,0.0,0.0,0.0,0.0,-0.00215196395569408,-0.12329845232554847,0.0,0.0,11.94840531406963,0.0005793064854676666,0.03511241974218939,-0.015593931681301612,-0.8934664713539263,0.0,0.0,0.013441967725607532,0.7701680190283778,-7.693410528399182,0.0,-28.081787400130356,11.947325872576652,0.0,-0.1606052419691676,0.0,-84.85576962259707,0.0,0.0,-0.6095317253381911,0.0,0.4363323129985824,0.3490658503988659,1.0,0.14,0.14,0.75,0.08726646259971647,5.0,0.184,0.175,0.174,0.0,0.0,0.0,-0.05516886739682447,0.0,0.05458123429015566,0.0,6.022011606567932,0.0,-0.5306390995932566,0.0,0.18034094615955698,0.0,-3.442822740123928,0.0,-0.031329722669104235,0.0,-0.027433842397851762,0.7116112100401488,-0.3851593965008954,0.16000279048359145,0.0,0.0,0.0,0.6901068760336266,0.16000279048359145,0.0,0.0,-0.3728652305367967,0.0,0.0,-0.0035709552573874744,0.0,1.9587619456352325,0.0,8.448321951825605,0.0,-0.6390488010277785,0.0,87.4432046606849,-2.090261009781001,0.0,-8.416751218395161,0.0,-0.6390488010277785,0.0
sim_raptor_glider_3dof,raptor_glider_3dof,0.008,-14.904240606651282,0.0,-0.0007502161182813057,11.939238882633015,0.0,-0.21458650998107728,0.0,0.0,0.0,-39.768327695755914,-0.6940882563029905,-0.02906283149078703,0.0,0.0,0.0,0.0,0.0,-0.0028038236298313884,-0.16064726048838937,0.0,0.0,11.941167131685324,0.0007502161182813057,0.035091149113066274,-0.017971280258754233,-1.0296785112733915,0.0,0.0,0.015167456628922844,0.8690312507850021,-7.734472659743328,0.0,-28.458772998507442,11.939793614875626,0.0,-0.18111019026309105,0.0,-84.25932271685393,0.0,0.0,-0.6940882563029905,0.0,0.4363323129985824,0.3490658503988659,1.0,0.14,0.14,0.75,0.08726646259971647,5.0,0.184,0.175,0.174,0.0,0.0,0.0,-0.05547563193059443,0.0,0.054548242134604644,0.0,6.021535204946049,0.0,-0.5312274312413525,0.0,0.17765229454057654,0.0,-3.440852589499303,0.0,-0.030637728722487007,0.0,-0.027095110104628704,0.7017089249620452,-0.38469349440195466,0.1590791122370665,0.0,0.0,0.0,0.6772085241452388,0.1590791122370665,0.0,0.0,-0.37069336574289874,0.0,0.0,-0.004068796408710184,0.0,1.9450954633896698,0.0,8.280378294547667,0.0,-0.634556959380627,0.0,87.33729292823296,-2.0935823601488033,0.0,-8.244087212286694,0.0,-0.634556959380627,0.0
sim_raptor_glider_3dof,raptor_glider_3dof,0.009000000000000001,-14.892304576113405,0.0,-0.0009413184291606596,11.931482731000013,0.0,-0.24322801242629782,0.0,0.0,0.0,-44.57922600410458,-0.7780542717623,-0.03259832301805841,0.0,0.0,0.0,0.0,0.0,-0.0035399435977275817,-0.2028238278641469,0.0,0.0,11.933961623290918,0.0009413184291606596,0.03506997450201568,-0.020382573901800104,-1.1678354601866447,0.0,0.0,0.01684263030407252,0.9650116323224979,-7.778283843616755,0.0,-28.821964269395146,11.932268984822977,0.0,-0.20098980076623565,0.0,-83.67459264387269,0.0,0.0,-0.7780542717623,0.0,0.4363323129985824,0.3490658503988659,1.0,0.14,0.14,0.75,0.08726646259971647,5.0,0.184,0.175,0.174,0.0,0.0,0.0,-0.055788708736007504,0.0,0.0545365423304085,0.0,6.021023482042527,0.0,-0.531825634606743,0.0,0.17492580464570248,0.0,-3.4388415806117196,0.0,-0.029931992558805562,0.0,-0.02675881698380161,0.6916347024036031,-0.3842596132891834,0.15816803727685969,0.0,0.0,0.0,0.6641561648322319,0.15816803727685969,0.0,0.0,-0.3685655476778038,0.0,0.0,-0.004563765222528177,0.0,1.9316222876944662,0.0,8.110986723910683,0.0,-0.6301533572010052,0.0,87.23192303897322,-2.096532395351765,0.0,-8.0699332223392,0.0,-0.6301533572010052,0.0
sim_raptor_glider_3dof,raptor_glider_3dof,0.01,-14.88037606515921,0.0,-0.0011519857253842968,11.923681420343334,0.0,-0.27222596258209436,0.0,0.0,0.0,-49.356935507178044,-0.8614410332947542,-0.03611370438294382,0.0,0.0,0.0,0.0,0.0,-0.004359739052099519,-0.24979464746366856,0.0,0.0,11.926788569792983,0.0011519857253842968,0.03504889526519434,-0.022826731891997996,-1.3078753974881616,0.0,0.0,0.01846699283989848,1.058080750024493,-7.824779502619,0.0,-29.171728920063018,11.924754932281528,0.0,-0.22023940058925584,0.0,-83.10065118556057,0.0,0.0,-0.8614410332947542,0.0,0.4363323129985824,0.3490658503988659,1.0,0.14,0.14,0.75,0.08726646259971647,5.0,0.184,0.175,0.174,0.0,0.0,0.0,-0.05610878847395166,0.0,0.05454186162840115,0.0,6.020479004498773,0.0,-0.5324319328652451,0.0,0.17216057968112747,0.0,-3.4367921450673697,0.0,-0.02921103978427371,0.0,-0.02642521354291394,0.6813934773072167,-0.3838540408424605,0.15727017538811427,0.0,0.0,0.0,0.6509544254455103,0.15727017538811427,0.0,0.0,-0.3664778994650984,0.0,0.0,-0.0050559186136121355,0.0,1.9183490019530007,0.0,7.940207158086878,0.0,-0.6258310040784566,0.0,87.12709092666549,-2.099082476605616,0.0,-7.894352751368246,0.0,-0.6258310040784566,0.0
sim_raptor_glider_3dof,raptor_glider_3dof,0.01,-14.88037606515921,0.0,-0.0011519857253842968,11.923681420343334,0.0,-0.27222596258209436,0.0,0.0,0.0,-49.356935507178044,-0.8614410332947542,-0.03611370438294382,0.0,0.0,0.0,0.0,0.0,-0.004359739052099519,-0.24979464746366856,0.0,0.0,11.926788569792983,0.0011519857253842968,0.03504889526519434,-0.022826731891997996,-1.3078753974881616,0.0,0.0,0.01846699283989848,1.058080750024493,-5.653465685526542,0.0,-20.13014015485878,11.924754932281528,0.0,-0.22023940058925584,0.0,21.255189323427874,0.0,0.0,-0.8614410332947542,0.0,-0.21790456582197693,0.3490658503988659,1.0,0.14,0.14,0.75,0.08726646259971647,5.0,0.184,0.175,0.174,0.0,0.0,0.0,-0.004928933079613822,0.0,0.012468803276661241,0.0,6.028924646023222,0.0,-0.5183479078349555,0.0,0.16521927822400304,0.0,-3.5802297531532137,0.0,-0.0363439431727998,0.0,-0.012800853376692008,0.47652877209015754,0.07563506486654469,0.11298319222277543,0.0,0.0,0.0,0.4460470197522638,0.11298319222277543,0.0,0.0,0.09373641511652,0.0,0.0,-0.0050559186136121355,0.0,1.3781455606770152,0.0,5.4407890946533115,0.0,0.16007283079473533,0.0,87.12709092666549,-1.5019711769051898,0.0,-5.40791584093708,0.0,0.16007283079473533,0.0
sim_raptor_glider_3dof,raptor_glider_3dof,0.011,-14.868453998157047,0.0,-0.0013771103337021707,11.918022049961229,0.0,-0.29207530527351144,0.0,0.0,0.0,-48.139310317537074,-0.8401894646802989,-0.035238115359710685,0.0,0.0,0.0,0.0,0.0,-0.005210549214506854,-0.29854247893644903,0.0,0.0,11.92160046165416,0.0013771103337021707,0.03503364912766804,-0.02450212394106693,-1.4038682909295865,0.0,0.0,0.019291574726560075,1.1053258119931375,-5.665025116541204,0.0,-19.56979999165472,11.919382130098036,0.0,-0.2299721809528994,0.0,21.247585998851896,0.0,0.0,-0.8401894646802989,0.0,-0.21790456582197693,0.3490658503988659,1.0,0.14,0.14,0.75,0.08726646259971647,5.0,0.184,0.175,0.174,0.0,0.0,0.0,-0.0049815794529576626,0.0,0.012469979288360555,0.0,6.028874589269603,0.0,-0.5185562633454212,0.0,0.16328798557714794,0.0,-3.5785905258745565,0.0,-0.03583886965831909,0.0,-0.012634869903385217,0.46955396770103724,0.07613006810453517,0.11270378674879751,0.0,0.0,0.0,0.43981150274380976,0.11270378674879751,0.0,0.0,0.09378445811316612,0.0,0.0,-0.004933336150359496,0.0,1.3735416795316717,0.0,5.360063291418434,0.0,0.16001557015735363,0.0,87.05130749974091,-1.5044491889335658,0.0,-5.324803082869753,0.0,0.16001557015735363,0.0
sim_raptor_glider_3dof,raptor_glider_3dof,0.012,-14.85653729974342,0.0,-0.0016118223358267726,11.912352162641575,0.0,-0.31136880098015757,0.0,0.0,0.0,-46.922210550543596,-0.8189470664210069,-0.03436212435220818,0.0,0.0,0.0,0.0,0.0,-0.006040116760110852,-0.3460731981205845,0.0,0.0,11.91642079556673,0.0016118223358267726,0.03501842779854456,-0.02613236374644489,-1.4972741513719723,0.0,0.0,0.02009224698633404,1.1512009532513878,-5.674461580114202,0.0,-19.01843387632249,11.914015556545621,0.0,-0.2394115607153486,0.0,21.23676950238673,0.0,0.0,-0.8189470664210069,0.0,-0.21790456582197693,0.3490658503988659,1.0,0.14,0.14,0.75,0.08726646259971647,5.0,0.184,0.175,0.174,0.0,0.0,0.0,-0.005032795432779035,0.0,0.012470888288084356,0.0,6.02881359325054,0.0,-0.5187557694326368,0.0,0.16140781058517947,0.0,-3.5769859194312796,0.0,-0.035347857187679424,0.0,-0.012475135588562542,0.46275622583348464,0.07661042450241029,0.11243733495447926,0.0,0.0,0.0,0.4337534278992265,0.11243733495447926,0.0,0.0,0.09381822139815364,0.0,0.0,-0.004810697409309146,0.0,1.3691039175039086,0.0,5.28163992510143,0.0,0.15993411112247446,0.0,86.97568027929235,-1.5066424903294664,0.0,-5.244062761035933,0.0,0.15993411112247446,0.0
sim_raptor_glider_3dof,raptor_glider_3dof,0.013000000000000001,-14.844625964960823,0.0,-0.001855840402160018,11.906673780835096,0.0,-0.3301150950686196,0.0,0.0,0.0,-45.705814277997206,-0.7977169464560862,-0.03348586432404661,0.0,0.0,0.0,0.0,0.0,-0.006848447549724076,-0.39238714081589954,0.0,0.0,11.911249157801128,0.001855840402160018,0.03500323006200925,-0.02771811464818557,-1.588130985400778,0.0,0.0,0.020869667098461494,1.1957438445848783,-5.681884839975483,0.0,-18.475987897207396,11.908655321322565,0.0,-0.24856576022022978,0.0,21.22282547185817,0.0,0.0,-0.7977169464560862,0.0,-0.21790456582197693,0.3490658503988659,1.0,0.14,0.14,0.75,0.08726646259971647,5.0,0.184,0.175,0.174,0.0,0.0,0.0,-0.005082593552972709,0.0,0.012471558868623686,0.0,6.028742635985764,0.0,-0.5189467602397871,0.0,0.15957806930228802,0.0,-3.575416073635487,0.0,-0.03487066607899304,0.0,-0.012321454833728637,0.4561341821418349,0.07707642719670542,0.11218331966404634,0.0,0.0,0.0,0.42787131002838485,0.11218331966404634,0.0,0.0,0.0938380528528337,0.0,0.0,-0.004688021005366526,0.0,1.3648254563472282,0.0,5.205494521967987,0.0,0.15982909862856387,0.0,86.90020306777781,-1.5085692153233095,0.0,-5.165669430684754,0.0,0.15982909862856387,0.0
sim_raptor_glider_3dof,raptor_glider_3dof,0.014,-14.832719987012752,0.0,-0.0021088681144374494,11.900988978461637,0.0,-0.3483235480748698,0.0,0.0,0.0,-44.49030793848462,-0.7765023587527274,-0.032609473938191684,0.0,0.0,0.0,0.0,0.0,-0.007635555906714922,-0.43748512769095155,0.0,0.0,11.906085333123093,0.0021088681144374494,0.03498805528555965,-0.02926010072691058,-1.6764802797796485,0.0,0.0,0.021624544820195657,1.2389951520886968,-5.687402232101477,0.0,-17.942393269281375,11.903301674200653,0.0,-0.2574436104873828,0.0,21.205843659939536,0.0,0.0,-0.7765023587527274,0.0,-0.21790456582197693,0.3490658503988659,1.0,0.14,0.14,0.75,0.08726646259971647,5.0,0.184,0.175,0.174,0.0,0.0,0.0,-0.005130989708392258,0.0,0.012472017274487018,0.0,6.0286626451030445,0.0,-0.5191295664562142,0.0,0.15779800325754073,0.0,-3.5738810290172762,0.0,-0.034407040638418276,0.0,-0.012173630723100093,0.4496860924643963,0.07752838355233646,0.1119412297190187,0.0,0.0,0.0,0.42216328002732706,0.1119412297190187,0.0,0.0,0.09384431679068758,0.0,0.0,-0.004565326351346836,0.0,1.3606996208493638,0.0,5.131598219097564,0.0,0.15970120860300466,0.0,86.82487257343027,-1.5102468348409959,0.0,-5.089593130917014,0.0,0.15970120860300466,0.0
sim_raptor_glider_3dof,raptor_glider_3dof,0.015,-14.820819359389532,0.0,-0.002370638965967134,11.895299567708365,0.0,-0.366002803465627,0.0,0.0,0.0,-43.275859580927396,-0.7553062363179165,-0.031733078969380005,0.0,0.0,0.0,0.0,0.0,-0.008401458698613974,-0.4813681251840538,0.0,0.0,11.900928949358008,0.002370638965967134,0.03497290237549739,-0.030758987375692545,-1.7623601587233626,0.0,0.0,0.02235752867707857,1.2809920335393088,-5.691116325639973,0.0,-17.417583233239796,11.89795467950535,0.0,-0.2660531941253061,0.0,21.185906768384488,0.0,0.0,-0.7553062363179165,0.0,-0.21790456582197693,0.3490658503988659,1.0,0.14,0.14,0.75,0.08726646259971647,5.0,0.184,0.175,0.174,0.0,0.0,0.0,-0.005177999265735568,0.0,0.012472287514560504,0.0,6.028574504575661,0.0,-0.519304501133953,0.0,0.15606691744148438,0.0,-3.5723808463324906,0.0,-0.033956744999134335,0.0,-0.012031476613181552,0.44341034082035197,0.0779665800793894,0.11171057895665579,0.0,0.0,0.0,0.4166276085046433,0.11171057895665579,0.0,0.0,0.09383735017014114,0.0,0.0,-0.0044426310557132,0.0,1.3567200271878748,0.0,5.05992382831493,0.0,0.1595510638727036,0.0,86.74968322218028,-1.5116918633789083,0.0,-5.015805627286198,0.0,0.1595510638727036,0.0
sim_raptor_glider_3dof,raptor_glider_3dof,0.016,-14.808924075399855,0.0,-0.0026408884093895323,11.88960730630264,0.0,-0.38316161287101996,0.0,0.0,0.0,-42.06263636263179,-0.7341314965970164,-0.030856804471194592,0.0,0.0,0.0,0.0,0.0,-0.009146175725410342,-0.5240372677510168,0.0,0.0,11.895779702048246,0.0026408884093895323,0.034957770437122,-0.03221545009505811,-1.8458093255611563,0.0,0.0,0.023069274369647765,1.3217720578101395,-5.693126431306113,0.0,-16.901484480323546,11.892614426484213,0.0,-0.2744026651521605,0.0,21.163097161816573,0.0,0.0,-0.7341314965970164,0.0,-0.21790456582197693,0.3490658503988659,1.0,0.14,0.14,0.75,0.08726646259971647,5.0,0.184,0.175,0.174,0.0,0.0,0.0,-0.005223639095641072,0.0,0.012472391551728973,0.0,6.028479053409035,0.0,-0.5194718682838317,0.0,0.15438410113145457,0.0,-3.570915540010246,0.0,-0.03351954230930524,0.0,-0.01189480941180429,0.4373051611198422,0.07839130271195402,0.11149089484409244,0.0,0.0,0.0,0.4112624172024793,0.11149089484409244,0.0,0.0,0.09381748867612852,0.0,0.0,-0.0043199526259672435,0.0,1.3528804950684152,0.0,4.990442523274846,0.0,0.1593792847256406,0.0,86.67463043636671,-1.5129200670872414,0.0,-4.944277003025935,0.0,0.1593792847256406,0.0
sim_raptor_glider_3dof,raptor_glider_3dof,0.017,-14.797034128268338,0.0,-0.002919360286120985,11.883913850839626,0.0,-0.39980865002765115,0.0,0.0,0.0,-40.850800603615625,-0.7129809726087796,-0.029980772043343203,0.0,0.0,0.0,0.0,0.0,-0.009869729767089884,-0.5654938605888873,0.0,0.0,11.890637298766405,0.002919360286120985,0.03494265861108585,-0.03363015900908018,-1.9268661755741572,0.0,0.0,0.023760429241990295,1.3613723149852697,-5.693528337360083,0.0,-16.394019558702702,11.887280979481176,0.0,-0.28250006315029036,0.0,21.137495372688452,0.0,0.0,-0.7129809726087796,0.0,-0.21790456582197693,0.3490658503988659,1.0,0.14,0.14,0.75,0.08726646259971647,5.0,0.184,0.175,0.174,0.0,0.0,0.0,-0.005267926966508029,0.0,0.012472349443065186,0.0,6.028377087818262,0.0,-0.51963196125736,0.0,0.1527488459373054,0.0,-3.5694850948041372,0.0,-0.03309519929488813,0.0,-0.011763451052056862,0.43136871004970867,0.07880283229856519,0.1112817207112041,0.0,0.0,0.0,0.4060657541531417,0.1112817207112041,0.0,0.0,0.09378506095008597,0.0,0.0,-0.004197308086068049,0.0,1.3491750610828444,0.0,4.923124706931828,0.0,0.15918647765171673,0.0,86.59970982143561,-1.5139464425908944,0.0,-4.874976553217141,0.0,0.15918647765171673,0.0
sim_raptor_glider_3dof,raptor_glider_3dof,0.018000000000000002,-14.785149511162563,0.0,-0.003205806939148202,11.878220757607727,0.0,-0.4159525045565909,0.0,0.0,0.0,-39.640509762556775,-0.6918574125255713,-0.029105099818740394,0.0,0.0,0.0,0.0,0.0,-0.010572146580874141,-0.6057393794777519,0.0,0.0,11.885501455660588,0.003205806939148202,0.034927566063241905,-0.035003778361842285,-2.0055687671449176,0.0,0.0,0.024431631780968143,1.3998293876671655,-5.692414370983191,0.0,-15.89510732791161,11.881954376671667,0.0,-0.29035330754617067,0.0,21.109180083368468,0.0,0.0,-0.6918574125255713,0.0,-0.21790456582197693,0.3490658503988659,1.0,0.14,0.14,0.75,0.08726646259971647,5.0,0.184,0.175,0.174,0.0,0.0,0.0,-0.005310881417367311,0.0,0.012472179478666408,0.0,6.028269362770827,0.0,-0.5197850629524003,0.0,0.15116044655978236,0.0,-3.568089467629054,0.0,-0.032683486316183494,0.0,-0.011637228495995581,0.42559907692093857,0.07920144450696746,0.11108261554247947,0.0,0.0,0.0,0.40103560350566064,0.11108261554247947,0.0,0.0,0.09374038852342305,0.0,0.0,-0.004074713974623656,0.0,1.3455979743859299,0.0,4.85794012950202,0.0,0.15897323520784795,0.0,86.5249171152358,-1.5147852382806803,0.0,-4.807872907262063,0.0,0.15897323520784795,0.0
sim_raptor_glider_3dof,raptor_glider_3dof,0.019000000000000003,-14.773270217225853,0.0,-0.003499988067276538,11.872529498470852,0.0,-0.4316016877419995,0.0,0.0,0.0,-38.43191713397445,-0.6707634918414769,-0.028229902941969538,0.0,0.0,0.0,0.0,0.0,-0.011253454451709752,-0.6447754450256767,0.0,0.0,11.88037190953727,0.003499988067276538,0.03491249202015125,-0.03633696697550551,-2.0819548480027175,0.0,0.0,0.025083512523795756,1.4371794029770408,-5.689873499642112,0.0,-15.404663392412695,11.876634643848655,0.0,-0.2979702090079581,0.0,21.078228281108142,0.0,0.0,-0.6707634918414769,0.0,-0.21790456582197693,0.3490658503988659,1.0,0.14,0.14,0.75,0.08726646259971647,5.0,0.184,0.175,0.174,0.0,0.0,0.0,-0.005352521668857702,0.0,0.012471898311959273,0.0,6.028156593425138,0.0,-0.5199314461280081,0.0,0.14961820043030874,0.0,-3.5667285883874382,0.0,-0.03228417714003644,0.0,-0.011515973641667648,0.4199942889731299,0.07958741001265313,0.11089315361786244,0.0,0.0,0.0,0.396169890395936,0.11089315361786244,0.0,0.0,0.09368378627452668,0.0,0.0,-0.003952186411875736,0.0,1.3421436940917688,0.0,4.794857958645744,0.0,0.15874013718502542,0.0,86.45024836357301,-1.5154499811805193,0.0,-4.742934101768514,0.0,0.15874013718502542,0.0
sim_raptor_glider_3dof,raptor_glider_3dof,0.02,-14.761396239582771,0.0,-0.0038016711359760854,11.866841457819964,0.0,-0.44676462489940194,0.0,0.0,0.0,-37.225171643018165,-0.6497018097906941,-0.027355293435671963,0.0,0.0,0.0,0.0,0.0,-0.011913684307793894,-0.6826038292878277,0.0,0.0,11.87524841066898,0.0038016711359760854,0.03489743574794728,-0.03763037763031764,-2.1560618197007044,0.0,0.0,0.025716693322523743,1.4734579904128768,-5.6859913909887725,0.0,-14.92260047992772,11.871321789315562,0.0,-0.30535846085820023,0.0,21.04471520599135,0.0,0.0,-0.6497018097906941,0.0,-0.21790456582197693,0.3490658503988659,1.0,0.14,0.14,0.75,0.08726646259971647,5.0,0.184,0.175,0.174,0.0,0.0,0.0,-0.005392867508040645,0.0,0.01247152108199572,0.0,6.028039456614714,0.0,-0.5200713735978887,0.0,0.14812140859026732,0.0,-3.5654023618501562,0.0,-0.031897049039234696,0.0,-0.01139952332306466,0.41455232072515463,0.0799609943777523,0.11071292430385887,0.0,0.0,0.0,0.39146649038030407,0.11071292430385887,0.0,0.0,0.09361556227320314,0.0,0.0,-0.003829741080994075,0.0,1.3388068841421554,0.0,4.73384688849604,0.0,0.15848775021632086,0.0,86.37569981491129,-1.5159534978695146,0.0,-4.680127693668973,0.0,0.15848775021632086,0.0
sim_raptor_glider_3dof,raptor_glider_3dof,0.02,-14.761396239582771,0.0,-0.0038016711359760854,11.866841457819964,0.0,-0.44676462489940194,0.0,0.0,0.0,-37.225171643018165,-0.6497018097906941,-0.027355293435671963,0.0,0.0,0.0,0.0,0.0,-0.011913684307793894,-0.6826038292878277,0.0,0.0,11.87524841066898,0.0038016711359760854,0.03489743574794728,-0.03763037763031764,-2.1560618197007044,0.0,0.0,0.025716693322523743,1.4734579904128768,-5.697958182237461,0.0,-14.895692304430955,11.871321789315562,0.0,-0.30535846085820023,0.0,21.3452674378738,0.0,0.0,-0.6497018097906941,0.0,-0.21988039845986443,0.3490658503988659,1.0,0.14,0.14,0.75,0.08726646259971647,5.0,0.184,0.175,0.174,0.0,0.0,0.0,-0.006354527084338239,0.0,0.012800728666481707,0.0,6.0272150336169865,0.0,-0.5201970039044429,0.0,0.14812396628329288,0.0,-3.5622599658992766,0.0,-0.031606988805441286,0.0,-0.011520242776251329,0.4139479111002264,0.08131000907576064,0.11100789214085212,0.0,0.0,0.0,0.3908652380819983,0.11100789214085212,0.0,0.0,0.09495254240834565,0.0,0.0,-0.003829741080994075,0.0,1.3423738116102009,0.0,4.726576186171633,0.0,0.16075120907462762,0.0,86.37569981491129,-1.519244365462904,0.0,-4.672727945407362,0.0,0.16075120907462762,0.0
sim_raptor_glider_3dof,raptor_glider_3dof,0.021,-14.749527583358967,0.0,-0.004110612621671956,11.861146142865136,0.0,-0.46142139037978647,0.0,0.0,0.0,-36.003266685067416,-0.6283755451280107,-0.02646879978902957,0.0,0.0,0.0,0.0,0.0,-0.012552696881426588,-0.7192165528127739,0.0,0.0,11.870117839427902,0.004110612621671956,0.03488235869237386,-0.038882316300300944,-2.2277926216999697,0.0,0.0,0.026329619418874357,1.5085760688871959,-5.6926382871560435,0.0,-14.419278550332523,11.866003604295878,0.0,-0.31249957558648683,0.0,21.307262753612974,0.0,0.0,-0.6283755451280107,0.0,-0.21988039845986443,0.3490658503988659,1.0,0.14,0.14,0.75,0.08726646259971647,5.0,0.184,0.175,0.174,0.0,0.0,0.0,-0.006397783066841423,0.0,0.012799402213297627,0.0,6.027087730801796,0.0,-0.5203314617200134,0.0,0.14667485486842777,0.0,-3.56095455077682,0.0,-0.031231445706759193,0.0,-0.011408247491638173,0.4086773945962138,0.08166984832955142,0.11083727899419407,0.0,0.0,0.0,0.3863432256121625,0.11083727899419407,0.0,0.0,0.09486543535827976,0.0,0.0,-0.0037056319704641405,0.0,1.3391527724684358,0.0,4.667857298536055,0.0,0.16046499579745932,0.0,86.30108058412522,-1.51959198642003,0.0,-4.6122729865343235,0.0,0.16046499579745932,0.0
sim_raptor_glider_3dof,raptor_glider_3dof,0.022,-14.737664236172995,0.0,-0.0044265997033727114,11.855456630589305,0.0,-0.4756056727688894,0.0,0.0,0.0,-34.78359311713619,-0.6070882255680642,-0.025583168863532405,0.0,0.0,0.0,0.0,0.0,-0.013170424269572318,-0.7546097250431638,0.0,0.0,11.864992738124785,0.0044265997033727114,0.0348672977111428,-0.04009552655026402,-2.2973044486848657,0.0,0.0,0.026925102280691705,1.542694723641702,-5.686135293924162,0.0,-13.951130616333455,11.860692168658145,0.0,-0.31942754434333603,0.0,21.266843271065248,0.0,0.0,-0.6070882255680642,0.0,-0.21988039845986443,0.3490658503988659,1.0,0.14,0.14,0.75,0.08726646259971647,5.0,0.184,0.175,0.174,0.0,0.0,0.0,-0.0064396380924007296,0.0,0.012798028191422858,0.0,6.02695757578102,0.0,-0.5204599142507819,0.0,0.14527007487671056,0.0,-3.559684304810681,0.0,-0.030867755844211406,0.0,-0.011300777310399163,0.4035665182429493,0.082017773464533,0.11067512197160309,0.0,0.0,0.0,0.3819801039677121,0.11067512197160309,0.0,0.0,0.09476729411845027,0.0,0.0,-0.003581643640894537,0.0,1.3360391093386772,0.0,4.61115695016862,0.0,0.1601605966743924,0.0,86.22657310217225,-1.5198025417345256,0.0,-4.553896041293447,0.0,0.1601605966743924,0.0
sim_raptor_glider_3dof,raptor_glider_3dof,0.023,-14.725806195635776,0.0,-0.004749374694878833,11.84977438000951,0.0,-0.4893273933249784,0.0,0.0,0.0,-33.56632706652597,-0.585842925112168,-0.02469853224446425,0.0,0.0,0.0,0.0,0.0,-0.013766892942045415,-0.7887848625876434,0.0,0.0,11.859873277357899,0.004749374694878833,0.03485225330558611,-0.04127078928990706,-2.3646420434853943,0.0,0.0,0.027503896347861642,1.5758571808977508,-5.678528425252834,0.0,-13.491134789422667,11.855387774675517,0.0,-0.3261516013486487,0.0,21.224092974652017,0.0,0.0,-0.585842925112168,0.0,-0.21988039845986443,0.3490658503988659,1.0,0.14,0.14,0.75,0.08726646259971647,5.0,0.184,0.175,0.174,0.0,0.0,0.0,-0.006480120970369378,0.0,0.012796618384868019,0.0,6.026825120534606,0.0,-0.5205826119238585,0.0,0.1439087702980618,0.0,-3.5584489030136233,0.0,-0.030515661584271665,0.0,-0.011197670447355524,0.3986125167006818,0.08235407730305383,0.11052103385041405,0.0,0.0,0.0,0.37777299386070384,0.11052103385041405,0.0,0.0,0.0946584623990443,0.0,0.0,-0.0034577945142249956,0.0,1.3330279163366323,0.0,4.5564353617607685,0.0,0.15983864419210433,0.0,86.15217974453843,-1.5198871242309877,0.0,-4.497555976442497,0.0,0.15983864419210433,0.0
sim_raptor_glider_3dof,raptor_glider_3dof,0.024,-14.713953457594181,0.0,-0.005078812409589152,11.844100046164879,0.0,-0.5025916138125549,0.0,0.0,0.0,-32.351550620521415,-0.5646410764537133,-0.02381495439687626,0.0,0.0,0.0,0.0,0.0,-0.014342129837059155,-0.8217435088921407,0.0,0.0,11.854758716812317,0.005078812409589152,0.034837223300162555,-0.042408479795190114,-2.4298269078302193,0.0,0.0,0.02806634995813096,1.6080833989380787,-5.669888294809621,0.0,-13.039232324443352,11.850089908032519,0.0,-0.33267612686130293,0.0,21.17905844580853,0.0,0.0,-0.5646410764537133,0.0,-0.21988039845986443,0.3490658503988659,1.0,0.14,0.14,0.75,0.08726646259971647,5.0,0.184,0.175,0.174,0.0,0.0,0.0,-0.006519246972992591,0.0,0.012795183809585975,0.0,6.026690929004632,0.0,-0.5206997545879545,0.0,0.14259055217840252,0.0,-3.557248420034052,0.0,-0.030175028258856942,0.0,-0.01109880473066758,0.3938142789784224,0.08267893352334453,0.11037469370946151,0.0,0.0,0.0,0.3737207272290586,0.11037469370946151,0.0,0.0,0.09453913276955048,0.0,0.0,-0.0033340936155626766,0.0,1.3301148988032965,0.0,4.5036728127868155,0.0,0.15949948915538403,0.0,86.07788965418806,-1.5198556589625631,0.0,-4.443232294689654,0.0,0.15949948915538403,0.0
sim_raptor_glider_3dof,raptor_glider_3dof,0.025,-14.702106013810823,0.0,-0.005414671353450985,11.838434878002047,0.0,-0.5154082167561593,0.0,0.0,0.0,-31.13942271081276,-0.5434854534739807,-0.022932554569115523,0.0,0.0,0.0,0.0,0.0,-0.014896189248461011,-0.8534887747649695,0.0,0.0,11.849649192722758,0.005414671353450985,0.03482220809522101,-0.04350937831620947,-2.4929037467568227,0.0,0.0,0.028613189067748457,1.6394149719918532,-5.660287982058675,0.0,-12.595302237680752,11.844798783329287,0.0,-0.3390099895816455,0.0,21.131820273327158,0.0,0.0,-0.5434854534739807,0.0,-0.21988039845986443,0.3490658503988659,1.0,0.14,0.14,0.75,0.08726646259971647,5.0,0.184,0.175,0.174,0.0,0.0,0.0,-0.0065570456890489915,0.0,0.012793733841222664,0.0,6.026555486846163,0.0,-0.5208115763428804,0.0,0.14131455980890859,0.0,-3.5560824790081087,0.0,-0.029845601250268278,0.0,-0.011004026444344252,0.38916893620524273,0.08299262865821719,0.1102357404011841,0.0,0.0,0.0,0.3698203324460164,0.1102357404011841,0.0,0.0,0.09440963642851526,0.0,0.0,-0.0032105576396761737,0.0,1.3272954893347129,0.0,4.4528286137822235,0.0,0.15914373847842683,0.0,86.0037047165756,-1.5197180420129663,0.0,-4.390882946800822,0.0,0.15914373847842683,0.0
sim_raptor_glider_3dof,raptor_glider_3dof,0.026000000000000002,-14.690263857833855,0.0,-0.0057567717638091,11.832779760663984,0.0,-0.5277848340838388,0.0,0.0,0.0,-29.93006289421723,-0.5223781428330739,-0.02205142393478963,0.0,0.0,0.0,0.0,0.0,-0.015429117059806086,-0.8840232891401866,0.0,0.0,11.844544469732389,0.0057567717638091,0.034807206999125415,-0.04457407774209868,-2.553906530310276,0.0,0.0,0.02914496068229259,1.6698832411700897,-5.649795352255502,0.0,-12.159249090341921,11.839514277611357,0.0,-0.34515991323577416,0.0,21.08244182246814,0.0,0.0,-0.5223781428330739,0.0,-0.21988039845986443,0.3490658503988659,1.0,0.14,0.14,0.75,0.08726646259971647,5.0,0.184,0.175,0.174,0.0,0.0,0.0,-0.0065935405602359585,0.0,0.012792277022438013,0.0,6.026419269537062,0.0,-0.520918283975293,0.0,0.14008014695665796,0.0,-3.554950875324594,0.0,-0.029527183374294077,0.0,-0.010913202204180798,0.38467436292674684,0.08329539267339925,0.11010384983014287,0.0,0.0,0.0,0.36606960526975824,0.11010384983014287,0.0,0.0,0.09427023470807802,0.0,0.0,-0.0030871993508705484,0.0,1.3245654986243705,0.0,4.403871163300763,0.0,0.1587718693650076,0.0,85.92962142220254,-1.51948336054938,0.0,-4.340475238969992,0.0,0.1587718693650076,0.0
sim_raptor_glider_3dof,raptor_glider_3dof,0.027,-14.678426983083266,0.0,-0.006104932711043324,11.82713555765971,0.0,-0.539729299303471,0.0,0.0,0.0,-28.723592195092404,-0.5013212568045079,-0.021171654713443806,0.0,0.0,0.0,0.0,0.0,-0.015940962510172383,-0.9133498732091482,0.0,0.0,11.839444379521586,0.006104932711043324,0.03479221951723996,-0.045603188979492656,-2.612870260862437,0.0,0.0,0.029662226469320273,1.6995203876532887,-5.638475839729442,0.0,-11.730972934053263,11.834236307567876,0.0,-0.35113278460941727,0.0,21.03098709559663,0.0,0.0,-0.5013212568045079,0.0,-0.21988039845986443,0.3490658503988659,1.0,0.14,0.14,0.75,0.08726646259971647,5.0,0.184,0.175,0.174,0.0,0.0,0.0,-0.006628755898670853,0.0,0.012790820904284995,0.0,6.026282720344769,0.0,-0.5210200786179202,0.0,0.1388866440854098,0.0,-3.553853361667477,0.0,-0.029219573288393665,0.0,-0.010826200877781383,0.38032831544507123,0.08358745779168843,0.1099787077383154,0.0,0.0,0.0,0.3624662226705687,0.1099787077383154,0.0,0.0,0.09412119167024938,0.0,0.0,-0.0029640316598821327,0.0,1.3219208849957023,0.0,4.356767593540256,0.0,0.1583843638169382,0.0,85.85563723980722,-1.519160194286246,0.0,-4.291975185669943,0.0,0.1583843638169382,0.0
sim_raptor_glider_3dof,raptor_glider_3dof,0.028,-14.666595383072275,0.0,-0.0064589805527830325,11.821503063921622,0.0,-0.5512493388962411,0.0,0.0,0.0,-27.520127766687857,-0.48031684009821696,-0.02029333636872126,0.0,0.0,0.0,0.0,0.0,-0.016431777057895475,-0.9414714753173037,0.0,0.0,11.83434875791405,0.0064589805527830325,0.034777245167104676,-0.04659731511798609,-2.6698294929017488,0.0,0.0,0.03016553806009062,1.728358017584445,-5.626392186422452,0.0,-11.310373233650868,11.828964776057257,0.0,-0.3569353593279037,0.0,20.97751847547973,0.0,0.0,-0.48031684009821696,0.0,-0.21988039845986443,0.3490658503988659,1.0,0.14,0.14,0.75,0.08726646259971647,5.0,0.184,0.175,0.174,0.0,0.0,0.0,-0.006662715947243312,0.0,0.012789372161091436,0.0,6.026146254522454,0.0,-0.5211171533236554,0.0,0.13773338840007276,0.0,-3.5527896762278024,0.0,-0.028922573164528165,0.0,-0.010742895753087588,0.37612854456279454,0.08386905118086599,0.10986001270656544,0.0,0.0,0.0,0.3590078587497758,0.10986001270656544,0.0,0.0,0.09396276501344754,0.0,0.0,-0.0028410670916209765,0.0,1.3193577757228416,0.0,4.311485119269584,0.0,0.15798169163883785,0.0,85.78174970248129,-1.5187566022807306,0.0,-4.245348896977971,0.0,0.15798169163883785,0.0
sim_raptor_glider_3dof,raptor_glider_3dof,0.029,-14.65476905141937,0.0,-0.006818748682974286,11.815883009833584,0.0,-0.5623525735997154,0.0,0.0,0.0,-26.31978305196629,-0.45936687266741355,-0.019416555720932392,0.0,0.0,0.0,0.0,0.0,-0.01690161428069887,-0.9683911652420859,0.0,0.0,11.82925744580395,0.006818748682974286,0.03476228348116004,-0.047557051523222954,-2.724818338366878,0.0,0.0,0.030655437242524085,1.7564271731247922,-5.6136045296444586,0.0,-10.8973490467655,11.823699574238322,0.0,-0.3625742644820651,0.0,20.922096774386347,0.0,0.0,-0.45936687266741355,0.0,-0.21988039845986443,0.3490658503988659,1.0,0.14,0.14,0.75,0.08726646259971647,5.0,0.184,0.175,0.174,0.0,0.0,0.0,-0.0066954448369621646,0.0,0.012787936667453106,0.0,6.026010260473036,0.0,-0.5212096933228237,0.0,0.13661972384909918,0.0,-3.551759543571258,0.0,-0.02863598859998681,0.0,-0.010663164441244759,0.3720727987194676,0.08414039505356181,0.10974747579239003,0.0,0.0,0.0,0.3556921877598337,0.10974747579239003,0.0,0.0,0.09379520624547648,0.0,0.0,-0.002718317800930535,0.0,1.3168724621535293,0.0,4.2679910738917135,0.0,0.1575643108079036,0.0,85.7079564209662,-1.5182801455176718,0.0,-4.200562615665248,0.0,0.1575643108079036,0.0
sim_raptor_glider_3dof,raptor_glider_3dof,0.03,-14.642947981850908,0.0,-0.007184076646782153,11.810276070854254,0.0,-0.5730465290475873,0.0,0.0,0.0,-25.122668273390637,-0.43847327825698557,-0.018541397293507796,0.0,0.0,0.0,0.0,0.0,-0.01735052957834437,-0.9941121171560322,0.0,0.0,11.824170296229925,0.007184076646782153,0.03474733402753511,-0.04848298669550944,-2.7778705158416126,0.0,0.0,0.03113245711716507,1.7837583986855805,-5.600170503944073,0.0,-10.491799122330642,11.818440589420915,0.0,-0.3680560128218481,0.0,20.86478137796706,0.0,0.0,-0.43847327825698557,0.0,-0.21988039845986443,0.3490658503988659,1.0,0.14,0.14,0.75,0.08726646259971647,5.0,0.184,0.175,0.174,0.0,0.0,0.0,-0.006726966574641255,0.0,0.012786519568443172,0.0,6.025875100760274,0.0,-0.5212978763480404,0.0,0.1355450002333307,0.0,-3.550762674644726,0.0,-0.028359628302844633,0.0,-0.010586888715084527,0.36815882362473745,0.08440170698351507,0.10964082008358685,0.0,0.0,0.0,0.3525168834249421,0.10964082008358685,0.0,0.0,0.09361876118589155,0.0,0.0,-0.0025957956210910915,0.0,1.3144613952168678,0.0,4.226252905359447,0.0,0.15713266855746993,0.0,85.63425518595055,-1.5177379106259123,0.0,-4.157582712854133,0.0,0.15713266855746993,0.0
sim_raptor_glider_3dof,raptor_glider_3dof,0.03,-14.642947981850908,0.0,-0.007184076646782153,11.810276070854254,0.0,-0.5730465290475873,0.0,0.0,0.0,-25.122668273390637,-0.43847327825698557,-0.018541397293507796,0.0,0.0,0.0,0.0,0.0,-0.01735052957834437,-0.9941121171560322,0.0,0.0,11.824170296229925,0.007184076646782153,0.03474733402753511,-0.04848298669550944,-2.7778705158416126,0.0,0.0,0.03113245711716507,1.7837583986855805,-5.595001091790666,0.0,-10.503448242141966,11.818440589420915,0.0,-0.3680560128218481,0.0,20.73435262080186,0.0,0.0,-0.43847327825698557,0.0,-0.219013065113144,0.3490658503988659,1.0,0.14,0.14,0.75,0.08726646259971647,5.0,0.184,0.175,0.174,0.0,0.0,0.0,-0.006281238616794653,0.0,0.012644350767769832,0.0,6.02626277888651,0.0,-0.521237951368918,0.0,0.1355430735622617,0.0,-3.5522049598064838,0.0,-0.028493176705059062,0.0,-0.010535050216841596,0.36842097776826305,0.08381273872969512,0.10950943301973573,0.0,0.0,0.0,0.3527780312352852,0.10950943301973573,0.0,0.0,0.09303353680957885,0.0,0.0,-0.0025957956210910915,0.0,1.3128862225473132,0.0,4.229383753111952,0.0,0.15615040958725881,0.0,85.63425518595055,-1.5163163222837253,0.0,-4.1607862208022475,0.0,0.15615040958725881,0.0
sim_raptor_glider_3dof,raptor_glider_3dof,0.031,-14.631132179626213,0.0,-0.007554819122130122,11.804688075653493,0.0,-0.5833503418294222,0.0,0.0,0.0,-23.93635685083555,-0.41776823797938156,-0.01767344751880562,0.0,0.0,0.0,0.0,0.0,-0.017778592579941556,-1.0186383205132528,0.0,0.0,11.819092951017362,0.007554819122130122,0.034732413385692676,-0.049376669747448115,-2.8290747829400695,0.0,0.0,0.03159807716750656,1.8104364624268166,-5.581061756604361,0.0,-10.106424435500765,11.813193123321915,0.0,-0.37339846797770593,0.0,20.676043261997457,0.0,0.0,-0.41776823797938156,0.0,-0.219013065113144,0.3490658503988659,1.0,0.14,0.14,0.75,0.08726646259971647,5.0,0.184,0.175,0.174,0.0,0.0,0.0,-0.006310281030921693,0.0,0.012643237891394996,0.0,6.026130711309747,0.0,-0.521321725164867,0.0,0.13450548120418115,0.0,-3.5512450853624373,0.0,-0.028226897279004598,0.0,-0.01046214739724833,0.3646421186498515,0.08406484742510308,0.10940815650890287,0.0,0.0,0.0,0.34973176796836014,0.10940815650890287,0.0,0.0,0.09285163153506279,0.0,0.0,-0.0024742826526327867,0.0,1.310545806742293,0.0,4.189262634712308,0.0,0.15571128180610286,0.0,85.56072760415196,-1.5157163347191591,0.0,-4.119472748645393,0.0,0.15571128180610286,0.0
sim_raptor_glider_3dof,raptor_glider_3dof,0.032,-14.619321607257385,0.0,-0.007930816600950168,11.799114252463458,0.0,-0.5932618661429346,0.0,0.0,0.0,-22.75342813289077,-0.39712223703484983,-0.016807244857713777,0.0,0.0,0.0,0.0,0.0,-0.01818603782612553,-1.0419832135022633,0.0,0.0,11.814019501613569,0.007930816600950168,0.034717504192346434,-0.05023789658133216,-2.8784194457250396,0.0,0.0,0.03205185875520663,1.8364362322227763,-5.566584026751903,0.0,-9.716624615608701,11.807951622110473,0.0,-0.3785964532379618,0.0,20.615958284895108,0.0,0.0,-0.39712223703484983,0.0,-0.219013065113144,0.3490658503988659,1.0,0.14,0.14,0.75,0.08726646259971647,5.0,0.184,0.175,0.174,0.0,0.0,0.0,-0.006338220689815989,0.0,0.01264214085702285,0.0,6.026000013237031,0.0,-0.5214015029603821,0.0,0.13350533156596311,0.0,-3.550317462193124,0.0,-0.02797039999443093,0.0,-0.01039245572391561,0.36099973384888356,0.08430738954169645,0.1093122312976235,0.0,0.0,0.0,0.34682046976597497,0.1093122312976235,0.0,0.0,0.09266133722905401,0.0,0.0,-0.002353014280079929,0.0,1.3082728675804316,0.0,4.150823792819138,0.0,0.15525878184354505,0.0,85.48728798298936,-1.515063226778424,0.0,-4.079889639922179,0.0,0.15525878184354505,0.0
sim_raptor_glider_3dof,raptor_glider_3dof,0.033,-14.60751627347561,0.0,-0.008311942708330237,11.793555150941705,0.0,-0.6027871606979283,0.0,0.0,0.0,-21.57399145361796,-0.3765371836627509,-0.015942873410897625,0.0,0.0,0.0,0.0,0.0,-0.018572867536910908,-1.0641469233205318,0.0,0.0,11.808949803407833,0.008311942708330237,0.03470260602253323,-0.051067135276155584,-2.9259313231473585,0.0,0.0,0.03249426773924467,1.8617843998268269,-5.551618239595001,0.0,-9.33396788285599,11.802715950132606,0.0,-0.3836556527555402,0.0,20.55414732839544,0.0,0.0,-0.3765371836627509,0.0,-0.219013065113144,0.3490658503988659,1.0,0.14,0.14,0.75,0.08726646259971647,5.0,0.184,0.175,0.174,0.0,0.0,0.0,-0.006365076684723118,0.0,0.012641063228369923,0.0,6.025870991816034,0.0,-0.5214774316344282,0.0,0.13254210821027348,0.0,-3.5494218757610607,0.0,-0.02772353263578241,0.0,-0.010325877379577152,0.3574920004518221,0.084540540773838,0.10922142603146454,0.0,0.0,0.0,0.3440422426740129,0.10922142603146454,0.0,0.0,0.09246285848443611,0.0,0.0,-0.0022320022775256672,0.0,1.3060644368355605,0.0,4.114040204860826,0.0,0.15479328353014607,0.0,85.41393415789193,-1.5143627399811868,0.0,-4.042008982193702,0.0,0.15479328353014607,0.0
sim_raptor_glider_3dof,raptor_glider_3dof,0.034,-14.59571617323463,0.0,-0.008698077569985661,11.788011180901504,0.0,-0.6119324706119882,0.0,0.0,0.0,-20.398132648690687,-0.3560145759782043,-0.015080400098957999,0.0,0.0,0.0,0.0,0.0,-0.018939135932497814,-1.0851325565566896,0.0,0.0,11.803883638432232,0.008698077569985661,0.03468771823571728,-0.05186487105653612,-2.9716382165297386,0.0,0.0,0.032925735124038305,1.886505659973049,-5.536212081224438,0.0,-8.958365063287479,11.797485897516845,0.0,-0.388581326802224,0.0,20.490658301145007,0.0,0.0,-0.3560145759782043,0.0,-0.219013065113144,0.3490658503988659,1.0,0.14,0.14,0.75,0.08726646259971647,5.0,0.184,0.175,0.174,0.0,0.0,0.0,-0.006390868670669482,0.0,0.012640008074509879,0.0,6.0257439302046905,0.0,-0.5215496540809387,0.0,0.13161527314312346,0.0,-3.5485580763995763,0.0,-0.02748613868673791,0.0,-0.010262316180487013,0.35411700223253106,0.08476447940078824,0.10913551670566597,0.0,0.0,0.0,0.34139511412194146,0.10913551670566597,0.0,0.0,0.09225639398009745,0.0,0.0,-0.0021112560138541203,0.0,1.3039176279334892,0.0,4.078883949342716,0.0,0.15431514766592305,0.0,85.3406629072067,-1.5136202335427642,0.0,-4.005801947332303,0.0,0.15431514766592305,0.0
sim_raptor_glider_3dof,raptor_glider_3dof,0.034999999999999996,-14.58392130004684,0.0,-0.009089069157312167,11.782482835311008,0.0,-0.620705916378936,0.0,0.0,0.0,-19.225961739832776,-0.3355563342225394,-0.014219909493015947,0.0,0.0,0.0,0.0,0.0,-0.01928491594474195,-1.1049442918982606,0.0,0.0,11.79882102580704,0.009089069157312167,0.034672840888086746,-0.05263174831906377,-3.0155770470771186,0.0,0.0,0.033346832374321816,1.9106327551788582,-5.5204122485047105,0.0,-8.589701407594548,11.792261422966314,0.0,-0.3933803902672739,0.0,20.42555107679059,0.0,0.0,-0.3355563342225394,0.0,-0.219013065113144,0.3490658503988659,1.0,0.14,0.14,0.75,0.08726646259971647,5.0,0.184,0.175,0.174,0.0,0.0,0.0,-0.006415621435744835,0.0,0.012638977808695783,0.0,6.025619064596828,0.0,-0.5216183219317517,0.0,0.13072410180810415,0.0,-3.5477256252769744,0.0,-0.02725801505486965,0.0,-0.010201666362616754,0.35087213066010103,0.08497942608448336,0.10905427168583039,0.0,0.0,0.0,0.33887640457678686,0.10905427168583039,0.0,0.0,0.09204219330613224,0.0,0.0,-0.001990787329022233,0.0,1.3018295253192247,0.0,4.045318923251354,0.0,0.15382482515930995,0.0,85.2674744415074,-1.5128407649234341,0.0,-3.9712313107894195,0.0,0.15382482515930995,0.0
sim_raptor_glider_3dof,raptor_glider_3dof,0.036,-14.57213164860774,0.0,-0.009484798631092077,11.776970468753793,0.0,-0.629114137276474,0.0,0.0,0.0,-18.057566510275876,-0.3151639905021765,-0.013361470035569372,0.0,0.0,0.0,0.0,0.0,-0.01961027061194222,-1.1235857411737196,0.0,0.0,11.793761826475048,0.009484798631092077,0.0346579735709984,-0.053368287707449724,-3.057777645476781,0.0,0.0,0.033758017095507506,1.9341919043030618,-5.504262583227699,0.0,-8.227880744590212,11.78704235722446,0.0,-0.39805839850017016,0.0,20.35887500207763,0.0,0.0,-0.3151639905021765,0.0,-0.219013065113144,0.3490658503988659,1.0,0.14,0.14,0.75,0.08726646259971647,5.0,0.184,0.175,0.174,0.0,0.0,0.0,-0.0064393566364008255,0.0,0.012637974158887127,0.0,6.025496630057642,0.0,-0.5216835705221151,0.0,0.1298680124064425,0.0,-3.5469242002149546,0.0,-0.027038995829981993,0.0,-0.010143834319080815,0.34775528366443936,0.08518556494534658,0.10897748207870284,0.0,0.0,0.0,0.33648395469036785,0.10897748207870284,0.0,0.0,0.0918204619440917,0.0,0.0,-0.0018706058049797122,0.0,1.2997974596175093,0.0,4.01331523876404,0.0,0.15332268764064666,0.0,85.19436668569251,-1.512028978853815,0.0,-3.9382662440254195,0.0,0.15332268764064666,0.0
sim_raptor_glider_3dof,raptor_glider_3dof,0.037,-14.560347213592854,0.0,-0.009885147953308722,11.771474409262549,0.0,-0.637163917760621,0.0,0.0,0.0,-16.89303528930772,-0.2948390864540125,-0.012505150610903229,0.0,0.0,0.0,0.0,0.0,-0.019915266530586593,-1.1410607200807574,0.0,0.0,11.788705935174528,0.009885147953308722,0.03464311597512277,-0.0540750231561377,-3.0982706039188868,0.0,0.0,0.03415975662555111,1.9572098838381295,-5.4878051059070545,0.0,-7.872804266879971,11.781828548496593,0.0,-0.40262101267794476,0.0,20.29067992307077,0.0,0.0,-0.2948390864540125,0.0,-0.219013065113144,0.3490658503988659,1.0,0.14,0.14,0.75,0.08726646259971647,5.0,0.184,0.175,0.174,0.0,0.0,0.0,-0.006462097332758232,0.0,0.0126369979702977,0.0,6.025376839999891,0.0,-0.5217455316756057,0.0,0.12904640685075325,0.0,-3.5461534481761934,0.0,-0.02682891139733006,0.0,-0.010088727421270163,0.34476428771334805,0.08538308221421423,0.10890494647202169,0.0,0.0,0.0,0.3342155334313175,0.10890494647202169,0.0,0.0,0.09159140782844863,0.0,0.0,-0.0017507210855264522,0.0,1.2978188670491935,0.0,3.9828422766775566,0.0,0.15280911050064597,0.0,85.1213380561979,-1.511189189731405,0.0,-3.9068751765826684,0.0,0.15280911050064597,0.0
sim_raptor_glider_3dof,raptor_glider_3dof,0.038,-14.548567989812772,0.0,-0.010290004175176462,11.765994946861468,0.0,-0.644861958791249,0.0,0.0,0.0,-15.732453881206887,-0.27458311964522103,-0.011651018309085636,0.0,0.0,0.0,0.0,0.0,-0.02019997179836085,-1.1573731303293644,0.0,0.0,11.783653255059132,0.010290004175176462,0.03462826781586039,-0.05475248259360607,-3.137086170477131,0.0,0.0,0.034552510795245225,1.9797130401477672,-5.471079952088457,0.0,-7.5243736409994835,11.776619844432528,0.0,-0.40707379574676167,0.0,20.221014509651074,0.0,0.0,-0.27458311964522103,0.0,-0.219013065113144,0.3490658503988659,1.0,0.14,0.14,0.75,0.08726646259971647,5.0,0.184,0.175,0.174,0.0,0.0,0.0,-0.006483865893657151,0.0,0.012636049973748571,0.0,6.025259889605176,0.0,-0.5218043313680324,0.0,0.12825869236291412,0.0,-3.5454130083222397,0.0,-0.026627594794872828,0.0,-0.010036256717152475,0.34189698131859103,0.0855721601229636,0.1088364727126982,0.0,0.0,0.0,0.3320689234578805,0.1088364727126982,0.0,0.0,0.0913552341852162,0.0,0.0,-0.0016311425632719893,0.0,1.2958913045637808,0.0,3.953869688159381,0.0,0.15228446027218223,0.0,85.04838709358411,-1.5103253895772968,0.0,-3.8770268250023454,0.0,0.15228446027218223,0.0
sim_raptor_glider_3dof,raptor_glider_3dof,0.039,-14.536793972252827,0.0,-0.010699260594873724,11.760532326977494,0.0,-0.6522148504157744,0.0,0.0,0.0,-14.575904966734697,-0.254397533127315,-0.01079913799117434,0.0,0.0,0.0,0.0,0.0,-0.020464456187940763,-1.1725269695993872,0.0,0.0,11.77860368740648,0.010699260594873724,0.03461342880309877,-0.05540118564238879,-3.17425411732965,0.0,0.0,0.03493672945444802,2.0017271477302625,-5.454125413103156,0.0,-7.182491373330718,11.771416083554742,0.0,-0.411422183181979,0.0,20.14992604819323,0.0,0.0,-0.254397533127315,0.0,-0.219013065113144,0.3490658503988659,1.0,0.14,0.14,0.75,0.08726646259971647,5.0,0.184,0.175,0.174,0.0,0.0,0.0,-0.006504683858107592,0.0,0.012635130846066843,0.0,6.025145957029709,0.0,-0.5218600896986522,0.0,0.12750428418744303,0.0,-3.544702515239444,0.0,-0.02643488238341,0.0,-0.00998633705858521,0.3391512263016788,0.08575297630835488,0.10877187783421313,0.0,0.0,0.0,0.3300419327367086,0.10877187783421313,0.0,0.0,0.09111213873231758,0.0,0.0,-0.0015118793187644077,0.0,1.29401244620117,0.0,3.9263675247064365,0.0,0.1517490930689432,0.0,84.97551231377925,-1.5094412618596738,0.0,-3.848690326200376,0.0,0.1517490930689432,0.0
sim_raptor_glider_3dof,raptor_glider_3dof,0.04,-14.525025156050573,0.0,-0.011112815472196816,11.755086760721246,0.0,-0.6592290928732656,0.0,0.0,0.0,-13.423468763569781,-0.23428372696290495,-0.009949572765478336,0.0,0.0,0.0,0.0,0.0,-0.020708790777630093,-1.1865263103776464,0.0,0.0,11.773557140854859,0.011112815472196816,0.03459859866835598,-0.05602164535019917,-3.209803839945105,0.0,0.0,0.03531285457256908,2.023277529567459,-5.436978025324526,0.0,-6.847060686620862,11.766217104326808,0.0,-0.41567150831120164,0.0,20.07746066213868,0.0,0.0,-0.23428372696290495,0.0,-0.219013065113144,0.3490658503988659,1.0,0.14,0.14,0.75,0.08726646259971647,5.0,0.184,0.175,0.174,0.0,0.0,0.0,-0.0065245720415919835,0.0,0.012634241207155538,0.0,6.025035203933762,0.0,-0.5219129212703422,0.0,0.12678260368479938,0.0,-3.544021597625978,0.0,-0.02625061326954644,0.0,-0.009938886818077117,0.33652490185051254,0.08592570440063686,0.10871098757665212,0.0,0.0,0.0,0.3281323881858575,0.10871098757665212,0.0,0.0,0.09086231450815777,0.0,0.0,-0.0013929401871669669,0.0,1.2921800789190458,0.0,3.900306166963386,0.0,0.15120335624656642,0.0,84.9027123413504,-1.5085401991988547,0.0,-3.8218351638720542,0.0,0.15120335624656642,0.0
sim_raptor_glider_3dof,raptor_glider_3dof,0.04,-14.525025156050573,0.0,-0.011112815472196816,11.755086760721246,0.0,-0.6592290928732656,0.0,0.0,0.0,-13.423468763569781,-0.23428372696290495,-0.009949572765478336,0.0,0.0,0.0,0.0,0.0,-0.020708790777630093,-1.1865263103776464,0.0,0.0,11.773557140854859,0.011112815472196816,0.03459859866835598,-0.05602164535019917,-3.209803839945105,0.0,0.0,0.03531285457256908,2.023277529567459,-5.417381715037667,0.0,-6.891429211769397,11.766217104326808,0.0,-0.41567150831120164,0.0,19.579311893873673,0.0,0.0,-0.23428372696290495,0.0,-0.21565067140371078,0.3490658503988659,1.0,0.14,0.14,0.75,0.08726646259971647,5.0,0.184,0.175,0.174,0.0,0.0,0.0,-0.004866555003671211,0.0,0.012106502909678567,0.0,6.026592649126055,0.0,-0.5216862355038862,0.0,0.12677585341917147,0.0,-3.549747870569733,0.0,-0.02674657720086142,0.0,-0.009745265256014235,0.33752657333544944,0.08366331197032725,0.1082008479779689,0.0,0.0,0.0,0.3291318902427967,0.1082008479779689,0.0,0.0,0.0886078984335542,0.0,0.0,-0.0013929401871669669,0.0,1.286116365934915,0.0,3.9121866279508715,0.0,0.14745179787276264,0.0,84.9027123413504,-1.5031512138699685,0.0,-3.8340365082879013,0.0,0.14745179787276264,0.0
sim_raptor_glider_3dof,raptor_glider_3dof,0.041,-14.513261532705219,0.0,-0.011530592147592559,11.749677882805463,0.0,-0.6659577207928823,0.0,0.0,0.0,-12.303686925484262,-0.2147398469842786,-0.00912347357335203,0.0,0.0,0.0,0.0,0.0,-0.02093327667316044,-1.19938840475175,0.0,0.0,11.768535594353763,0.011530592147592559,0.03458384200051063,-0.056618230045218564,-3.243985625091816,0.0,0.0,0.035684953372058126,2.0445972203400657,-5.400417796519375,0.0,-6.566700044962369,11.761043269318767,0.0,-0.4198705190689672,0.0,19.50863145173823,0.0,0.0,-0.2147398469842786,0.0,-0.21565067140371078,0.3490658503988659,1.0,0.14,0.14,0.75,0.08726646259971647,5.0,0.184,0.175,0.174,0.0,0.0,0.0,-0.004882477584884129,0.0,0.012106309604338021,0.0,6.026489518994263,0.0,-0.5217358269451993,0.0,0.12608177580773627,0.0,-3.54910447629404,0.0,-0.026570247663248513,0.0,-0.0097001292890305,0.3350003689596229,0.0838301651112503,0.10814282288684227,0.0,0.0,0.0,0.32730281645829506,0.10814282288684227,0.0,0.0,0.08836338763704507,0.0,0.0,-0.0012772863002692844,0.0,1.2843303954031255,0.0,3.887127637848859,0.0,0.1469195034630406,0.0,84.83030397859096,-1.5022371272512214,0.0,-3.808221297534165,0.0,0.1469195034630406,0.0
sim_raptor_glider_3dof,raptor_glider_3dof,0.042,-14.501503074141297,0.0,-0.011952517123009132,11.744286011321472,0.0,-0.6723651301511738,0.0,0.0,0.0,-11.187986511141425,-0.1952672012881311,-0.008299694883122665,0.0,0.0,0.0,0.0,0.0,-0.02113828020444132,-1.2111342418794226,0.0,0.0,11.763516854408993,0.011952517123009132,0.034569093580208037,-0.05718797953590895,-3.2766298662881033,0.0,0.0,0.03604969933146763,2.0654956244086806,-5.383324870211991,0.0,-6.248119085708588,11.75587386173569,0.0,-0.4239793991740633,0.0,19.43665968190997,0.0,0.0,-0.1952672012881311,0.0,-0.21565067140371078,0.3490658503988659,1.0,0.14,0.14,0.75,0.08726646259971647,5.0,0.184,0.175,0.174,0.0,0.0,0.0,-0.004897668830806997,0.0,0.012106115206780654,0.0,6.026389518309313,0.0,-0.5217827675988019,0.0,0.12541882473080834,0.0,-3.5484888724322645,0.0,-0.026401892267430317,0.0,-0.009657269294194287,0.33258774288512893,0.0839893384216648,0.10808816703251899,0.0,0.0,0.0,0.3255853356902947,0.10808816703251899,0.0,0.0,0.08811253091289292,0.0,0.0,-0.0011619572836371733,0.0,1.2825866604442122,0.0,3.8634331569984712,0.0,0.146377484064464,0.0,84.75796694869464,-1.5013114301254946,0.0,-3.783808701549162,0.0,0.146377484064464,0.0
sim_raptor_glider_3dof,raptor_glider_3dof,0.043000000000000003,-14.489749782851863,0.0,-0.01237850833322053,11.738911281703349,0.0,-0.6784569900955211,0.0,0.0,0.0,-10.076445606810042,-0.1758671527369532,-0.007478298260707203,0.0,0.0,0.0,0.0,0.0,-0.021323847386701504,-1.2217664582390662,0.0,0.0,11.758500838419481,0.01237850833322053,0.03455435316471092,-0.05773133994113043,-3.3077621242618123,0.0,0.0,0.036407492554428926,2.085995666022746,-5.36613405788602,0.0,-5.935602126013384,11.750708720335043,0.0,-0.42800296372059576,0.0,19.363436913789688,0.0,0.0,-0.1758671527369532,0.0,-0.21565067140371078,0.3490658503988659,1.0,0.14,0.14,0.75,0.08726646259971647,5.0,0.184,0.175,0.174,0.0,0.0,0.0,-0.004912143221226434,0.0,0.012105920880225041,0.0,6.026292776039732,0.0,-0.5218271518387924,0.0,0.12478649473774714,0.0,-3.547900734101606,0.0,-0.026241372769257167,0.0,-0.00961661787942728,0.3302868338757762,0.08414098051879691,0.10803673514003227,0.0,0.0,0.0,0.32397753580579636,0.10803673514003227,0.0,0.0,0.08785549690325606,0.0,0.0,-0.0010469617564990085,0.0,1.2808833158994886,0.0,3.841077017016471,0.0,0.14582604339775015,0.0,84.68570001009816,-1.5003767403412926,0.0,-3.7607717767294333,0.0,0.14582604339775015,0.0
sim_raptor_glider_3dof,raptor_glider_3dof,0.044,-14.478001655173502,0.0,-0.012808492699619329,11.73355376780781,0.0,-0.6842385855514482,0.0,0.0,0.0,-8.969126212780328,-0.15654078343994624,-0.00665933343375854,0.0,0.0,0.0,0.0,0.0,-0.02149004233933409,-1.2312887276012898,0.0,0.0,11.75348741710282,0.012808492699619329,0.03453962037410097,-0.05824872581142712,-3.3374061510095157,0.0,0.0,0.03675868347209303,2.1061174234082256,-5.348874685919313,0.0,-5.629067949101765,11.745547650318807,0.0,-0.4319454341518895,0.0,19.288999645533664,0.0,0.0,-0.15654078343994624,0.0,-0.21565067140371078,0.3490658503988659,1.0,0.14,0.14,0.75,0.08726646259971647,5.0,0.184,0.175,0.174,0.0,0.0,0.0,-0.004925914114273267,0.0,0.012105727715936869,0.0,6.026199412728324,0.0,-0.5218690675693067,0.0,0.12418431603843248,0.0,-3.5473397601090064,0.0,-0.02608856080401792,0.0,-0.009578112327023942,0.3280959082342484,0.08428522958111054,0.10798839150411617,0.0,0.0,0.0,0.3224776422623735,0.10798839150411617,0.0,0.0,0.08759243813826582,0.0,0.0,-0.0009323066807261957,0.0,1.2792186259504608,0.0,3.8200347341861627,0.0,0.14526545633051402,0.0,84.6135012511772,-1.499435449771557,0.0,-3.739085315332575,0.0,0.14526545633051402,0.0
