name,vehicle,t,north,east,down,u,v,w,p_rad,p_deg,p_hat_div_b,q_deg,q_rad,q_hat_div_c,r_rad,r_deg,r_hat_div_b,phi_rad,phi_deg,theta_rad,theta_deg,psi_rad,psi_deg,speed,altitude,mach,alpha_rad,alpha_deg,beta_rad,beta_deg,gamma_rad,gamma_deg,u_dot,v_dot,w_dot,north_dot,east_dot,down_dot,p_rad_dot,q_rad_dot,r_rad_dot,phi_rad_dot,theta_rad_dot,psi_rad_dot,del_tail_alt_rad,del_tail_splay_rad,DIM_b,DIM_c_bar,DIM_S,DIM_wing_position,DIM_wing_incidence_rad,DIM_wing_incidence_deg,DIM_empennage_length,DIM_nose_length,DIM_tail_length,CDp,CDq,CDr,CYp,CYq,CYr,CLp,CLq,CLr,Clp,Clq,Clr,Cmp,Cmq,Cmr,Cnp,Cnq,Cnr,CL_0,Cm_0,CD_0,Cl_0,CY_0,Cn_0,CL,CD,CY,Cl,Cm,Cn,p_hat,q_hat,r_hat,drag_force_wind,side_force_wind,lift_force_wind,roll_moment_wind,pitch_moment_wind,yaw_moment_wind,qbar,X_total,Y_total,Z_total,L_total,M_total,N_total
sim_raptor_glider_3dof,raptor_glider_3dof,0.0,-15.0,0.0,0.0,12.0,0.0,0.0,0.0,0.0,0.0,0.0,0.0,0.0,0.0,0.0,0.0,0.0,0.0,0.0,0.0,0.0,0.0,12.0,-0.0,0.035264039495724236,0.0,0.0,0.0,0.0,0.0,0.0,-5.674221088393608,0.0,-20.456888262237356,12.0,0.0,0.0,0.0,-38.084083572678765,0.0,0.0,0.0,0.0,0.16466545376771186,0.3490658503988659,1.0,0.14,0.14,0.75,0.08726646259971647,5.0,0.184,0.175,0.174,0.0,0.0,0.0,0.00043821707313881426,0.0,0.00782622974724789,0.0,6.084325851747259,0.0,-0.5142263257707973,0.0,0.19394555605168864,0.0,-3.770033664613666,0.0,-0.046206492083356206,0.0,-0.012997673945070677,0.673993480193265,-0.16590956355209102,0.126369494062909,0.0,0.0,0.0,0.673993480193265,0.126369494062909,0.0,0.0,-0.16590956355209102,0.0,0.0,0.0,0.0,1.5604107993082423,0.0,8.322473022115274,0.0,-0.2868112333858438,0.0,88.20001620075907,-1.5604107993082423,0.0,-8.322473022115274,0.0,-0.2868112333858438,0.0
sim_raptor_glider_3dof,raptor_glider_3dof,0.001,-14.988002840813042,0.0,-0.000010161249675019376,11.994314131484545,0.0,-0.020480322433484643,0.0,0.0,0.0,-2.1717631704192235,-0.03790441789736617,-0.0015800971287549866,0.0,0.0,0.0,0.0,0.0,-0.00001898293875304314,-0.0010876422733047057,0.0,0.0,11.99433161657359,0.000010161249675019376,0.03524738198763874,-0.0017075009296159075,-0.09783259678165614,0.0,0.0,0.0016885179908628645,0.09674495450835144,-5.6975471830146915,0.0,-20.502797036670454,11.994314518100165,0.0,-0.020252635099265524,0.0,-37.72501636530057,0.0,0.0,-0.03790441789736617,0.0,0.16466545376771186,0.3490658503988659,1.0,0.14,0.14,0.75,0.08726646259971647,5.0,0.184,0.175,0.174,0.0,0.0,0.0,0.00040993711036319236,0.0,0.007811562608790246,0.0,6.085381042509838,0.0,-0.5144729397265014,0.0,0.1919863268579201,0.0,-3.7710532491351105,0.0,-0.04569304968249574,0.0,-0.01278710165942791,0.6670813930402862,-0.16533490297446327,0.1258592312451542,0.0,0.0,0.0,0.6657352240045152,0.1258592312451542,0.0,0.0,-0.1645006947168756,0.0,0.0,-0.00022121359802569813,0.0,1.5526422043475916,0.0,8.212735732485301,0.0,-0.2841070982470786,0.0,88.11671062906362,-1.5666631880214732,0.0,-8.210072623409651,0.0,-0.2841070982470786,0.0
sim_raptor_glider_3dof,raptor_glider_3dof,0.002,-14.976011377876011,0.0,-0.00004036985584954488,11.98860485236655,0.0,-0.04100377079125176,0.0,0.0,0.0,-4.322998206404249,-0.07545055225956357,-0.0031467427562931645,0.0,0.0,0.0,0.0,0.0,-0.00007569027015558283,-0.004336733030119909,0.0,0.0,11.988674973299004,0.00004036985584954488,0.035230758979984726,-0.003420215397072963,-0.1959639072779418,0.0,0.0,0.00334452512691738,0.19162717424782189,-5.72103726925523,0.0,-20.543184104767015,11.988607921611575,0.0,-0.040096349934598395,0.0,-37.36751475604358,0.0,0.0,-0.07545055225956357,0.0,0.16466545376771186,0.3490658503988659,1.0,0.14,0.14,0.75,0.08726646259971647,5.0,0.184,0.175,0.174,0.0,0.0,0.0,0.00038159874264858236,0.0,0.0077965451773458665,0.0,6.086425975244187,0.0,-0.5147163924932198,0.0,0.19001984499214383,0.0,-3.772064915119623,0.0,-0.04517845463883298,0.0,-0.0125778127256539,0.6601238072992505,-0.1647573609152721,0.12535263427266505,0.0,0.0,0.0,0.6574424689403465,0.12535263427266505,0.0,0.0,-0.16309560040256327,0.0,0.0,-0.00044054398588104304,0.0,1.5449344084679928,0.0,8.102785376211118,0.0,-0.28141475362776425,0.0,88.03361683463058,-1.5726385895251398,0.0,-8.097453985429338,0.0,-0.28141475362776425,0.0
sim_raptor_glider_3dof,raptor_glider_3dof,0.003,-14.96402563121252,0.0,-0.00009021746970189433,11.982872012611278,0.0,-0.061564899647093906,0.0,0.0,0.0,-6.453795498083542,-0.1126399806919452,-0.004699979018322546,0.0,0.0,0.0,0.0,0.0,-0.00016976523954591452,-0.009726831734008321,0.0,0.0,11.983030163839663,0.00009021746970189433,0.03521417074800806,-0.005137696363098822,-0.294368318025275,0.0,0.0,0.004967931123552907,0.2846414862912667,-5.744664304397648,0.0,-20.57817850736232,11.982882291516562,0.0,-0.059530623632038815,0.0,-37.01160892622741,0.0,0.0,-0.1126399806919452,0.0,0.16466545376771186,0.3490658503988659,1.0,0.14,0.14,0.75,0.08726646259971647,5.0,0.184,0.175,0.174,0.0,0.0,0.0,0.00035321487331889227,0.0,0.0077811940661539365,0.0,6.087460228406497,0.0,-0.514956602858111,0.0,0.18804663041533604,0.0,-3.773068294594176,0.0,-0.04466284539416663,0.0,-0.012369889097600064,0.6531229777226571,-0.16417709908768943,0.124849937034254,0.0,0.0,0.0,0.6491174467738835,0.124849937034254,0.0,0.0,-0.16169443123298874,0.0,0.0,-0.0006579970625651565,0.0,1.5372901383367774,0.0,7.992650002491062,0.0,-0.27873442682341865,0.0,87.95073594830913,-1.5783334774813358,0.0,-7.984646420826007,0.0,-0.27873442682341865,0.0
sim_raptor_glider_3dof,raptor_glider_3dof,0.004,-14.952045618884945,0.0,-0.00015929446758394106,11.977115487897471,0.0,-0.08215837785266498,0.0,0.0,0.0,-8.564247277462286,-0.14947431294667723,-0.006239849507916935,0.0,0.0,0.0,0.0,0.0,-0.00030085192458970106,-0.017237545537377982,0.0,0.0,11.977397271923682,0.00015929446758394106,0.03519761753775803,-0.006859505474194739,-0.393020713218243,0.0,0.0,0.006558653549605038,0.375783167680865,-5.768401804860823,0.0,-20.607909056994544,11.977139663367579,0.0,-0.0785550359433008,0.0,-36.65732839471517,0.0,0.0,-0.14947431294667723,0.0,0.16466545376771186,0.3490658503988659,1.0,0.14,0.14,0.75,0.08726646259971647,5.0,0.184,0.175,0.174,0.0,0.0,0.0,0.00032479831621991104,0.0,0.007765526362067566,0.0,6.088483398897534,0.0,-0.5151934950603656,0.0,0.186067194679408,0.0,-3.7740630357541463,0.0,-0.04414635736870404,0.0,-0.0121634098842808,0.646081156829021,-0.16359427774178759,0.12435136667782393,0.0,0.0,0.0,0.640762386009341,0.12435136667782393,0.0,0.0,-0.16029733578907787,0.0,0.0,-0.0008735789311083708,0.0,1.529712024632222,0.0,7.882357492298653,0.0,-0.2760663401406,0.0,87.86806895309577,-1.5837446864965699,0.0,-7.871679063750948,0.0,-0.2760663401406,0.0
sim_raptor_glider_3dof,raptor_glider_3dof,0.005,-14.940071356894332,0.0,-0.00024719082179148853,11.971335180723898,0.0,-0.1027790055593931,0.0,0.0,0.0,-10.654447493068947,-0.18595518873490885,-0.007766399193232486,0.0,0.0,0.0,0.0,0.0,-0.0004685960440194,-0.02684857561883816,0.0,0.0,11.971776373338315,0.00024719082179148853,0.03518109957194838,-0.008585214502430506,-0.491896557203775,0.0,0.0,0.008116618458411107,0.46504798158493693,-5.792223891318774,0.0,-20.63250396220161,11.9713820282112,0.0,-0.09716927417315221,0.0,-36.30470191210793,0.0,0.0,-0.18595518873490885,0.0,0.16466545376771186,0.3490658503988659,1.0,0.14,0.14,0.75,0.08726646259971647,5.0,0.184,0.175,0.174,0.0,0.0,0.0,0.0002963617597553932,0.0,0.00774955956910442,0.0,6.089495102724348,0.0,-0.5154269988710796,0.0,0.18408203920349187,0.0,-3.775048803593164,0.0,-0.043629122536242675,0.0,-0.01195845119022014,0.6390005869349509,-0.16300905510421798,0.12385714317099321,0.0,0.0,0.0,0.6323795039555321,0.12385714317099321,0.0,0.0,-0.1589044600666485,0.0,0.0,-0.0010872958870525482,0.0,1.5222025976734594,0.0,7.771935465261108,0.0,-0.27341071010008483,0.0,87.7856167137395,-1.588869413771447,0.0,-7.758580772958982,0.0,-0.27341071010008483,0.0
sim_raptor_glider_3dof,raptor_glider_3dof,0.006,-14.928102859217434,0.0,-0.0003534962339072749,11.96553101987815,0.0,-0.1234217142765293,0.0,0.0,0.0,-12.724491764337952,-0.22208427693059962,-0.009279674392681226,0.0,0.0,0.0,0.0,0.0,-0.0006726450146271086,-0.03853972044864885,0.0,0.0,11.966167536317599,0.0003534962339072749,0.035164617051096414,-0.010314405371579745,-0.590971895978585,0.0,0.0,0.009641760356952637,0.5524321755299362,-5.816105313251509,0.0,-20.652090724085397,11.96561133196267,0.0,-0.11537313217441464,0.0,-35.95375744703652,0.0,0.0,-0.22208427693059962,0.0,0.16466545376771186,0.3490658503988659,1.0,0.14,0.14,0.75,0.08726646259971647,5.0,0.184,0.175,0.174,0.0,0.0,0.0,0.00026791775465085456,0.0,0.007733311564528319,0.0,6.090494974768274,0.0,-0.5156570494644549,0.0,0.18209165517148876,0.0,-3.77602527967331,0.0,-0.043111269425031275,0.0,-0.01175508613332141,0.631883497921366,-0.16242158729320638,0.12336747929311963,0.0,0.0,0.0,0.6239710044855105,0.12336747929311963,0.0,0.0,-0.1575159473800602,0.0,0.0,-0.0012991544149753718,0.0,1.514764287953482,0.0,7.661411254641939,0.0,-0.27076774733363207,0.0,87.70337998270888,-1.5937052133238885,0.0,-7.645380105255568,0.0,-0.27076774733363207,0.0
sim_raptor_glider_3dof,raptor_glider_3dof,0.007,-14.91614013796372,0.0,-0.0004778002631249519,11.95970295836001,0.0,-0.14408155920249716,0.0,0.0,0.0,-14.774477245474186,-0.257863273194507,-0.010779722684991071,0.0,0.0,0.0,0.0,0.0,-0.0009126478933258487,-0.052290872469076904,0.0,0.0,11.960570820320719,0.0004778002631249519,0.03514817014993305,-0.012046669538823936,-0.6902233217634214,0.0,0.0,0.011134021645498088,0.6379324492943445,-5.840021460010931,0.0,-20.66679613276882,11.959829473298742,0.0,-0.13316650300333113,0.0,-35.60452222110127,0.0,0.0,-0.257863273194507,0.0,0.16466545376771186,0.3490658503988659,1.0,0.14,0.14,0.75,0.08726646259971647,5.0,0.184,0.175,0.174,0.0,0.0,0.0,0.00023947871262021333,0.0,0.007716800561739488,0.0,6.091482668174102,0.0,-0.5158835872028841,0.0,0.1800965241719547,0.0,-3.7769921615273154,0.0,-0.04259292331178966,0.0,-0.011553384939755187,0.6247321076904917,-0.161832028453267,0.12288258081351258,0.0,0.0,0.0,0.6155390785440232,0.12288258081351258,0.0,0.0,-0.15613193852141607,0.0,0.0,-0.00150916117589875,0.0,1.5073994285444765,0.0,7.5508119141164975,0.0,-0.26813765684711366,0.0,87.6213593825635,-1.5982499870613762,0.0,-7.532105321780769,0.0,-0.26813765684711366,0.0
sim_raptor_glider_3dof,raptor_glider_3dof,0.008,-14.904183203376466,0.0,-0.0006196924127190342,11.953850973338435,0.0,-0.16475372137665822,0.0,0.0,0.0,-16.804502621405838,-0.29329389990355,-0.01226659291402224,0.0,0.0,0.0,0.0,0.0,-0.001188255438907348,-0.06808202163285627,0.0,0.0,11.954986276926114,0.0006196924127190342,0.03513175902003031,-0.013781608195074417,-0.7896279844806723,0.0,0.0,0.012593352756167069,0.7215459628478159,-5.863948383776305,0.0,-20.676746145531155,11.954038303673016,0.0,-0.15054937997223694,0.0,-35.257022682119356,0.0,0.0,-0.29329389990355,0.0,0.16466545376771186,0.3490658503988659,1.0,0.14,0.14,0.75,0.08726646259971647,5.0,0.184,0.175,0.174,0.0,0.0,0.0,0.00021105689185661741,0.0,0.007700045066405812,0.0,6.092457854213851,0.0,-0.5161065575327458,0.0,0.17809711789700233,0.0,-3.7779491625250845,0.0,-0.04207420617050679,0.0,-0.01135341494273118,0.6175486193054457,-0.16124053061322674,0.12240264643863401,0.0,0.0,0.0,0.6070859012573586,0.12240264643863401,0.0,0.0,-0.15475257159350744,0.0,0.0,-0.0017173230079631139,0.0,1.5001102551947232,0.0,7.440164185640118,0.0,-0.2655206378190409,0.0,87.53955541935794,-1.6025019793111683,0.0,-7.418784354146307,0.0,-0.2655206378190409,0.0
sim_raptor_glider_3dof,raptor_glider_3dof,0.009000000000000001,-14.892232063860694,0.0,-0.0007787622269592001,11.947975065727602,0.0,-0.1854335079988966,0.0,0.0,0.0,-18.814668078594845,-0.3283779056413553,-0.013740335174821329,0.0,0.0,0.0,0.0,0.0,-0.001499120153903383,-0.08589325780166626,0.0,0.0,11.94941395036331,0.0007787622269592001,0.035115383791364155,-0.015518832312508928,-0.889163594478009,0.0,0.0,0.014019712158605546,0.8032703366763427,-5.887862817378756,0.0,-20.68206578912893,11.94823962702704,0.0,-0.16752185612044515,0.0,-34.91128448942662,0.0,0.0,-0.3283779056413553,0.0,0.16466545376771186,0.3490658503988659,1.0,0.14,0.14,0.75,0.08726646259971647,5.0,0.184,0.175,0.174,0.0,0.0,0.0,0.00018266438541615334,0.0,0.00768306383471138,0.0,6.093420222045272,0.0,-0.5163259108566565,0.0,0.17609389801684508,0.0,-3.778896011641255,0.0,-0.04155523666748464,0.0,-0.01115524060205772,0.61033521878416,-0.16064724359629393,0.12192786781084783,0.0,0.0,0.0,0.598613629714489,0.12192786781084783,0.0,0.0,-0.15337798190558943,0.0,0.0,-0.0019236469244749861,0.0,1.492898906959593,0.0,7.329494475194669,0.0,-0.2629168834898719,0.0,87.4579684907048,-1.606459770172699,0.0,-7.305444778733667,0.0,-0.2629168834898719,0.0
sim_raptor_glider_3dof,raptor_glider_3dof,0.01,-14.88028672604149,0.0,-0.000954599392280716,11.942075259362891,0.0,-0.2061163507990502,0.0,0.0,0.0,-20.80507525097072,-0.36311706425462464,-0.01520100078143506,0.0,0.0,0.0,0.0,0.0,-0.0018448963022000258,-0.10570477175535357,0.0,0.0,11.943853877637402,0.000954599392280716,0.035099044572680364,-0.017257962529364956,-0.9888084159275311,0.0,0.0,0.01541306622716493,0.8831036441721775,-5.911742187006589,0.0,-20.682879088694847,11.94243519916971,0.0,-0.18408412203749525,0.0,-34.567332511946695,0.0,0.0,-0.36311706425462464,0.0,0.16466545376771186,0.3490658503988659,1.0,0.14,0.14,0.75,0.08726646259971647,5.0,0.184,0.175,0.174,0.0,0.0,0.0,0.0001543131126461684,0.0,0.007665875834053424,0.0,6.094369478368808,0.0,-0.5165416023836341,0.0,0.17408731624236556,0.0,-3.7798324531259984,0.0,-0.04103613020531935,0.0,-0.010958923544318383,0.6030940736061606,-0.1600523149863778,0.12145842955793801,0.0,0.0,0.0,0.5901244014777353,0.12145842955793801,0.0,0.0,-0.15200830193606515,0.0,0.0,-0.0021281401094009086,0.0,1.4857674273445656,0.0,7.218828837059692,0.0,-0.2603265811474706,0.0,87.37659888785392,-1.6101222678387752,0.0,-7.192113799817991,0.0,-0.2603265811474706,0.0
sim_raptor_glider_3dof,raptor_glider_3dof,0.01,-14.88028672604149,0.0,-0.000954599392280716,11.942075259362891,0.0,-0.2061163507990502,0.0,0.0,0.0,-20.80507525097072,-0.36311706425462464,-0.01520100078143506,0.0,0.0,0.0,0.0,0.0,-0.0018448963022000258,-0.10570477175535357,0.0,0.0,11.943853877637402,0.000954599392280716,0.035099044572680364,-0.017257962529364956,-0.9888084159275311,0.0,0.0,0.01541306622716493,0.8831036441721775,-4.687462279420724,0.0,-18.27019898400517,11.94243519916971,0.0,-0.18408412203749525,0.0,-6.202265228098562,0.0,0.0,-0.36311706425462464,0.0,-0.03987944404977606,0.3490658503988659,1.0,0.14,0.14,0.75,0.08726646259971647,5.0,0.184,0.175,0.174,0.0,0.0,0.0,-0.008767468063867407,0.0,0.0011616577540030128,0.0,6.079675807683734,0.0,-0.5173984180138995,0.0,0.17290660731429702,0.0,-3.7817751776443647,0.0,-0.0374769271343174,0.0,-0.008536639662826348,0.548357219903554,-0.03532233196564328,0.0948758812556853,0.0,0.0,0.0,0.5354188179650679,0.0948758812556853,0.0,0.0,-0.02727418452536156,0.0,0.0,-0.0021281401094009086,0.0,1.1605904548853543,0.0,6.549630541207966,0.0,-0.04670925943281027,0.0,87.37659888785392,-1.2734452932526623,0.0,-6.528626771028329,0.0,-0.04670925943281027,0.0
sim_raptor_glider_3dof,raptor_glider_3dof,0.011,-14.868346586237626,0.0,-0.0011455978594630833,11.937379318186592,0.0,-0.22426388336930972,0.0,0.0,0.0,-21.156069975086403,-0.36924307784757243,-0.015463106472261791,0.0,0.0,0.0,0.0,0.0,-0.002211086893171667,-0.12668594711543005,0.0,0.0,11.93948572073575,0.0011455978594630833,0.035086208001221746,-0.01878448351949713,-1.0762716260002363,0.0,0.0,0.016573396626325464,0.9495856788848063,-4.704305264565276,0.0,-18.025210349012397,11.937846004369364,0.0,-0.1978687737245978,0.0,-6.050131064124737,0.0,0.0,-0.36924307784757243,0.0,-0.03987944404977606,0.3490658503988659,1.0,0.14,0.14,0.75,0.08726646259971647,5.0,0.184,0.175,0.174,0.0,0.0,0.0,-0.008826153415150736,0.0,0.0011519719752115277,0.0,6.080018254942778,0.0,-0.5175961035053501,0.0,0.1711411180408455,0.0,-3.7813014262696636,0.0,-0.03701203796638985,0.0,-0.008371931891273403,0.5420052092410055,-0.034810545647775165,0.09454149199760054,0.0,0.0,0.0,0.5288429734928789,0.09454149199760054,0.0,0.0,-0.02662465232963792,0.0,0.0,-0.0021648349061166514,0.0,1.1556541979772883,0.0,6.464459037766703,0.0,-0.045563537043923394,0.0,87.31269909411223,-1.276874696799045,0.0,-6.4416114664686575,0.0,-0.045563537043923394,0.0
sim_raptor_glider_3dof,raptor_glider_3dof,0.012,-14.856411036565017,0.0,-0.0013502267975021383,11.932666964872801,0.0,-0.24216741994440077,0.0,0.0,0.0,-21.498418689925586,-0.3752181901114874,-0.015719073748937693,0.0,0.0,0.0,0.0,0.0,-0.0025833292038502185,-0.14801386047350862,0.0,0.0,11.935124044342782,0.0013502267975021383,0.03507339047383932,-0.02029170695823882,-1.1626291678233298,0.0,0.0,0.017708377754388605,1.0146153073498214,-4.720265087211016,0.0,-17.782167071082696,11.933252745505152,0.0,-0.2113406391183428,0.0,-5.900477913331445,0.0,0.0,-0.3752181901114874,0.0,-0.03987944404977606,0.3490658503988659,1.0,0.14,0.14,0.75,0.08726646259971647,5.0,0.184,0.175,0.174,0.0,0.0,0.0,-0.00888400580422732,0.0,0.0011421709182125662,0.0,6.0803455120871845,0.0,-0.5177884772823761,0.0,0.16939699962936605,0.0,-3.7808250723160692,0.0,-0.0365533783234398,0.0,-0.008210845817863409,0.5357211397033754,-0.0343054092030624,0.09421566875570903,0.0,0.0,0.0,0.5223403037700826,0.09421566875570903,0.0,0.0,-0.025985059662962745,0.0,0.0,-0.002200670324851277,0.0,1.1508301144479964,0.0,6.380307644232478,0.0,-0.04443649916529911,0.0,87.24891742279193,-1.2800516419225019,0.0,-6.355643427803615,0.0,-0.04443649916529911,0.0
sim_raptor_glider_3dof,raptor_glider_3dof,0.013000000000000001,-14.844480081747452,0.0,-0.0015681791457356248,11.927939066662635,0.0,-0.25982886128762456,0.0,0.0,0.0,-21.832260423469055,-0.3810448275423865,-0.01596899737152692,0.0,0.0,0.0,0.0,0.0,-0.002961475272327727,-0.1696800342367349,0.0,0.0,11.930768685008301,0.0015681791457356248,0.035060591510206886,-0.02177977054837523,-1.2478889311852313,0.0,0.0,0.018818295276047503,1.0782088969484964,-4.735361853709198,0.0,-17.54110197345411,11.928656236308402,0.0,-0.22450347693382464,0.0,-5.753277811675372,0.0,0.0,-0.3810448275423865,0.0,-0.03987944404977606,0.3490658503988659,1.0,0.14,0.14,0.75,0.08726646259971647,5.0,0.184,0.175,0.174,0.0,0.0,0.0,-0.008941036550984792,0.0,0.001132266870277798,0.0,6.0806580268236665,0.0,-0.5179756708220358,0.0,0.16767413859606548,0.0,-3.7803463917307245,0.0,-0.03610089123334214,0.0,-0.008053313516726342,0.5295053263761097,-0.03380687624665795,0.09389824714561243,0.0,0.0,0.0,0.5159110446894595,0.09389824714561243,0.0,0.0,-0.02535530842363666,0.0,0.0,-0.002235659632013769,0.0,1.1461159194296646,0.0,6.2971767770193985,0.0,-0.043327935199727226,0.0,87.18525138115949,-1.2829843177517137,0.0,-6.27072310839872,0.0,-0.043327935199727226,0.0
sim_raptor_glider_3dof,raptor_glider_3dof,0.014,-14.832553724780395,0.0,-0.0017991369328608975,11.923196507583695,0.0,-0.27725026724003904,0.0,0.0,0.0,-22.1577398479924,-0.3867255151478152,-0.01621297634048906,0.0,0.0,0.0,0.0,0.0,-0.0033453726056349923,-0.19167573120156822,0.0,0.0,11.926419524280567,0.0017991369328608975,0.03504781076223388,-0.023248825369844985,-1.332059572328793,0.0,0.0,0.019903452764209992,1.1403838411272247,-4.74961584143106,0.0,-17.30204454066638,11.924057292031424,0.0,-0.23736125524805418,0.0,-5.60850133306788,0.0,0.0,-0.3867255151478152,0.0,-0.03987944404977606,0.3490658503988659,1.0,0.14,0.14,0.75,0.08726646259971647,5.0,0.184,0.175,0.174,0.0,0.0,0.0,-0.008997257215052385,0.0,0.001122271511994223,0.0,6.080956240016319,0.0,-0.5181578143519305,0.0,0.1659724044131905,0.0,-3.7798656493597624,0.0,-0.035654516083721784,0.0,-0.007899266557589544,0.5233579852381092,-0.033314895564213194,0.09358906151569894,0.0,0.0,0.0,0.5095553292875384,0.09358906151569894,0.0,0.0,-0.024735293436151592,0.0,0.0,-0.0022698166876684686,0.0,1.141509328390966,0.0,6.215065652896686,0.0,-0.04223762353933421,0.0,87.12169913754026,-1.2856808046713695,0.0,-6.186849722202672,0.0,-0.04223762353933421,0.0
sim_raptor_glider_3dof,raptor_glider_3dof,0.015,-14.820631967662848,0.0,-0.002042801565617706,11.91844010750114,0.0,-0.2944336309219785,0.0,0.0,0.0,-22.47499293794886,-0.3922626261296812,-0.016451103518795644,0.0,0.0,0.0,0.0,0.0,-0.0037348786545442136,-0.21399278389888282,0.0,0.0,11.922076403005883,0.002042801565617706,0.03503504776222011,-0.02469901711904508,-1.4151494390426527,0.0,0.0,0.020964138464500865,1.2011566551437698,-4.763046945970399,0.0,-17.065021606192246,11.919456651865543,0.0,-0.24991775328689295,0.0,-5.466120181904488,0.0,0.0,-0.3922626261296812,0.0,-0.03987944404977606,0.3490658503988659,1.0,0.14,0.14,0.75,0.08726646259971647,5.0,0.184,0.175,0.174,0.0,0.0,0.0,-0.009052678885394527,0.0,0.0011121960559196816,0.0,6.081240581753237,0.0,-0.5183350345111591,0.0,0.16429167126229574,0.0,-3.7793831049512123,0.0,-0.03521419432136784,0.0,-0.0077486380112431,0.5172793130577688,-0.03282941741962035,0.09328794903440224,0.0,0.0,0.0,0.5032732764911314,0.09328794903440224,0.0,0.0,-0.024124914242076793,0.0,0.0,-0.0023031544926313905,0.0,1.1370080904525048,0.0,6.133973283815409,0.0,-0.041165351089922704,0.0,87.05825826849333,-1.2881490048044464,0.0,-6.1040222628801875,0.0,-0.041165351089922704,0.0
sim_raptor_glider_3dof,raptor_glider_3dof,0.016,-14.808714811753724,0.0,-0.0022988735433130186,11.913670680059946,0.0,-0.31138099835770405,0.0,0.0,0.0,-22.784156172224478,-0.3976585424939053,-0.016683472277614395,0.0,0.0,0.0,0.0,0.0,-0.00412985095159815,-0.23662302954466083,0.0,0.0,11.917739181533479,0.0022988735433130186,0.035022302099778066,-0.026130496039665562,-1.4971671396561488,0.0,0.0,0.022000645088067414,1.2605441101114883,-4.775674981397154,0.0,-16.830057464281047,11.914855035850104,0.0,-0.2621767986219566,0.0,-5.326105704170421,0.0,0.0,-0.3976585424939053,0.0,-0.03987944404977606,0.3490658503988659,1.0,0.14,0.14,0.75,0.08726646259971647,5.0,0.184,0.175,0.174,0.0,0.0,0.0,-0.009107312570021597,0.0,0.001102051195820544,0.0,6.081511473526347,0.0,-0.5185074556427262,0.0,0.16263180657559484,0.0,-3.7788990099987063,0.0,-0.034779866424487375,0.0,-0.007601361404639363,0.5112694474914987,-0.03235039024841175,0.09299474762049562,0.0,0.0,0.0,0.49706494556105885,0.09299474762049562,0.0,0.0,-0.023524068286161243,0.0,0.0,-0.0023356861188660156,0.0,1.1326099745858003,0.0,6.053897986334494,0.0,-0.04011090205810744,0.0,86.99492663882894,-1.2903966776631557,0.0,-6.022239002045001,0.0,-0.04011090205810744,0.0
sim_raptor_glider_3dof,raptor_glider_3dof,0.017,-14.796802257687387,0.0,-0.00256705729025509,11.908889018660977,0.0,-0.3280944393209055,0.0,0.0,0.0,-23.085364344656128,-0.4029156168367525,-0.01691017491134613,0.0,0.0,0.0,0.0,0.0,-0.004530149461137966,-0.2595584446866696,0.0,0.0,11.913407724907987,0.00256705729025509,0.035009573378318455,-0.027543414513582973,-1.5781214050076817,0.0,0.0,0.023013265052445008,1.318562960321012,-4.787519585161065,0.0,-16.59717394448927,11.91025313201021,0.0,-0.2741422100631114,0.0,-5.188429250461061,0.0,0.0,-0.4029156168367525,0.0,-0.03987944404977606,0.3490658503988659,1.0,0.14,0.14,0.75,0.08726646259971647,5.0,0.184,0.175,0.174,0.0,0.0,0.0,-0.009161169112340547,0.0,0.0010918471371303355,0.0,6.081769327792615,0.0,-0.5186751995261715,0.0,0.16099267386123983,0.0,-3.7784136085341706,0.0,-0.03435147262825704,0.0,-0.00745737098570585,0.5053284786538825,-0.031877761485223276,0.09270929651511836,0.0,0.0,0.0,0.4909303490194019,0.09270929651511836,0.0,0.0,-0.022932652584142007,0.0,0.0,-0.0023674244875884587,0.0,1.128312773620374,0.0,5.974837525233188,0.0,-0.039074060685222255,0.0,86.93170218497966,-1.2924314287561571,0.0,-5.9414976369609755,0.0,-0.039074060685222255,0.0
sim_raptor_glider_3dof,raptor_glider_3dof,0.018000000000000002,-14.784894305384748,0.0,-0.002847061267388622,11.90409589601255,0.0,-0.34457604560152566,0.0,0.0,0.0,-23.37875051250966,-0.40803617144560533,-0.01713130259735436,0.0,0.0,0.0,0.0,0.0,-0.004935636623259847,-0.28279114772299035,0.0,0.0,11.90908190217303,0.002847061267388622,0.0349968612130037,-0.028937926925765106,-1.6580210807043256,0.0,0.0,0.02400229030250526,1.3752299329813353,-4.798600198587326,0.0,-16.36639049929377,11.905651596635204,0.0,-0.2858177954620969,0.0,-5.053062194477307,0.0,0.0,-0.40803617144560533,0.0,-0.03987944404977606,0.3490658503988659,1.0,0.14,0.14,0.75,0.08726646259971647,5.0,0.184,0.175,0.174,0.0,0.0,0.0,-0.009214259194565932,0.0,0.0010815936122530964,0.0,6.08201454802781,0.0,-0.5188383853996464,0.0,0.15937413289627167,0.0,-3.7779271372017837,0.0,-0.033928952958542646,0.0,-0.007316601744787086,0.499456451160725,-0.031411477628592144,0.09243143636117689,0.0,0.0,0.0,0.4848694547333964,0.09243143636117689,0.0,0.0,-0.02235056381164968,0.0,0.0,-0.0023983823636296113,0.0,1.1241143049558746,0.0,5.896789139705477,0.0,-0.0380546113866086,0.0,86.8685829047061,-1.2942607074494545,0.0,-5.861795317981286,0.0,-0.0380546113866086,0.0
sim_raptor_glider_3dof,raptor_glider_3dof,0.019000000000000003,-14.772990954166913,0.0,-0.0031385975179601053,11.899292066625009,0.0,-0.36082792588680795,0.0,0.0,0.0,-23.66444618810563,-0.4130225016434646,-0.01734694552986939,0.0,0.0,0.0,0.0,0.0,-0.005346177049529147,-0.306313381467723,0.0,0.0,11.904761588496623,0.0031385975179601053,0.034984165236993804,-0.030314189237429404,-1.7368751026656084,0.0,0.0,0.024968012187900256,1.4305617211978852,-4.808936052430933,0.0,-16.13772440064949,11.90105105736015,0.0,-0.29720735026501666,0.0,-4.919975954853627,0.0,0.0,-0.4130225016434646,0.0,-0.03987944404977606,0.3490658503988659,1.0,0.14,0.14,0.75,0.08726646259971647,5.0,0.184,0.175,0.174,0.0,0.0,0.0,-0.009266593329880925,0.0,0.0010712998978642991,0.0,6.082247528738384,0.0,-0.5189971299497937,0.0,0.1577760402581879,0.0,-3.7774398254421766,0.0,-0.03351224735383895,0.0,-0.0071789894636668135,0.4936533673659254,-0.0309514844025611,0.09216100933542296,0.0,0.0,0.0,0.47888218904469637,0.09216100933542296,0.0,0.0,-0.021777698397358432,0.0,0.0,-0.0024285723741817146,0.0,1.120012412446139,0.0,5.819749584961258,0.0,-0.03705233891600267,0.0,86.80556688797736,-1.2958918052396107,0.0,-5.783128691703391,0.0,-0.03705233891600267,0.0
sim_raptor_glider_3dof,raptor_glider_3dof,0.02,-14.761092202739638,0.0,-0.003441381884122571,11.894478265835602,0.0,-0.3768522051456833,0.0,0.0,0.0,-23.94258124335435,-0.41787687412277114,-0.01755719284846135,0.0,0.0,0.0,0.0,0.0,-0.005761637639441744,-0.3301175198237303,0.0,0.0,11.900446663926472,0.003441381884122571,0.034971485097788566,-0.0316723589440951,-1.8146924947200735,0.0,0.0,0.025910721304653356,1.4845749748963435,-4.818546150693266,0.0,-15.911190795507963,11.896452112883004,0.0,-0.3083146555715142,0.0,-4.7891420092678345,0.0,0.0,-0.41787687412277114,0.0,-0.03987944404977606,0.3490658503988659,1.0,0.14,0.14,0.75,0.08726646259971647,5.0,0.184,0.175,0.174,0.0,0.0,0.0,-0.009318181869116074,0.0,0.0010609748292615415,0.0,6.082468655552375,0.0,-0.5191515473490831,0.0,0.15619824940991076,0.0,-3.776951895552293,0.0,-0.03310129567036177,0.0,-0.007044470723588336,0.48791918894439773,-0.030497726788788912,0.09189785919751943,0.0,0.0,0.0,0.4729684384191621,0.09189785919751943,0.0,0.0,-0.021213952595448657,0.0,0.0,-0.002458006998784589,0.0,1.1160049666305614,0.0,5.743715152284346,0.0,-0.03606702847179606,0.0,86.74265229865468,-1.2973318545948505,0.0,-5.70549392210511,0.0,-0.03606702847179606,0.0
sim_raptor_glider_3dof,raptor_glider_3dof,0.02,-14.761092202739638,0.0,-0.003441381884122571,11.894478265835602,0.0,-0.3768522051456833,0.0,0.0,0.0,-23.94258124335435,-0.41787687412277114,-0.01755719284846135,0.0,0.0,0.0,0.0,0.0,-0.005761637639441744,-0.3301175198237303,0.0,0.0,11.900446663926472,0.003441381884122571,0.034971485097788566,-0.0316723589440951,-1.8146924947200735,0.0,0.0,0.025910721304653356,1.4845749748963435,-4.821033418494203,0.0,-15.902746737925288,11.896452112883004,0.0,-0.3083146555715142,0.0,-4.692132359827204,0.0,0.0,-0.41787687412277114,0.0,-0.040619480106064476,0.3490658503988659,1.0,0.14,0.14,0.75,0.08726646259971647,5.0,0.184,0.175,0.174,0.0,0.0,0.0,-0.009450535775663828,0.0,0.0010939604071810156,0.0,6.082349207852226,0.0,-0.5191778923295294,0.0,0.1561968715466065,0.0,-3.7765460732936047,0.0,-0.03306175643995838,0.0,-0.007056514232969832,0.4877295593371703,-0.030067015956553034,0.09196021031576739,0.0,0.0,0.0,0.47277910241521764,0.09196021031576739,0.0,0.0,-0.020784239277164898,0.0,0.0,-0.002458006998784589,0.0,1.1167621568224475,0.0,5.741415861282259,0.0,-0.03533644880185867,0.0,86.74265229865468,-1.298015853240108,0.0,-5.703171806269874,0.0,-0.03533644880185867,0.0
sim_raptor_glider_3dof,raptor_glider_3dof,0.021,-14.749198055031211,0.0,-0.0037551272427478353,11.88965277120669,0.0,-0.39264202713679336,0.0,0.0,0.0,-24.20774341123396,-0.4225048270039963,-0.017758072374561576,0.0,0.0,0.0,0.0,0.0,-0.006181837588936465,-0.3541932034813881,0.0,0.0,11.896134278888121,0.0037551272427478353,0.034958812421429133,-0.033011845923959955,-1.891439445379055,0.0,0.0,0.02683000833502349,1.537246241897667,-4.829889386013266,0.0,-15.677504036116227,11.891852823483168,0.0,-0.31913509044359006,0.0,-4.564185450300801,0.0,0.0,-0.4225048270039963,0.0,-0.040619480106064476,0.3490658503988659,1.0,0.14,0.14,0.75,0.08726646259971647,5.0,0.184,0.175,0.174,0.0,0.0,0.0,-0.0095019226482325,0.0,0.0010835500438648457,0.0,6.082555882633861,0.0,-0.5193282261587766,0.0,0.15464011553577503,0.0,-3.776050832929507,0.0,-0.03265661871792931,0.0,-0.0069250695767614275,0.48206753443749595,-0.029619900686286248,0.09170451930302843,0.0,0.0,0.0,0.46694550897543813,0.09170451930302843,0.0,0.0,-0.020232146928920246,0.0,0.0,-0.002486130132438621,0.0,1.112850083145124,0.0,5.666463904253823,0.0,-0.03437288062621534,0.0,86.6797975250911,-1.2992702155773195,0.0,-5.626646016294366,0.0,-0.03437288062621534,0.0
sim_raptor_glider_3dof,raptor_glider_3dof,0.022,-14.737308500643982,0.0,-0.004079549510844651,11.884818763730712,0.0,-0.4082078854270866,0.0,0.0,0.0,-24.465643003906624,-0.4270060240356865,-0.017953760260427703,0.0,0.0,0.0,0.0,0.0,-0.006606599510510208,-0.3785302688854305,0.0,0.0,11.891827055774502,0.004079549510844651,0.03494615491426284,-0.034333504269117146,-1.9671648905148067,0.0,0.0,0.027726904758606938,1.588634621629376,-4.838055576870859,0.0,-15.454437710624871,11.887256241795976,0.0,-0.329681310257403,0.0,-4.438433731321423,0.0,0.0,-0.4270060240356865,0.0,-0.040619480106064476,0.3490658503988659,1.0,0.14,0.14,0.75,0.08726646259971647,5.0,0.184,0.175,0.174,0.0,0.0,0.0,-0.009552573771954192,0.0,0.0010731249289199177,0.0,6.082751489394075,0.0,-0.519474446939976,0.0,0.1531034236930148,0.0,-3.7755555233650044,0.0,-0.03225713263578939,0.0,-0.006796598862889695,0.47647446727161646,-0.02917892757724342,0.09145580350060746,0.0,0.0,0.0,0.4611853105966088,0.09145580350060746,0.0,0.0,-0.019688968956943366,0.0,0.0,-0.002513526436459879,0.0,1.1090283479366005,0.0,5.592510956400791,0.0,-0.033425844430581636,0.0,86.61704072872081,-1.300347534342715,0.0,-5.55114573434338,0.0,-0.033425844430581636,0.0
sim_raptor_glider_3dof,raptor_glider_3dof,0.023,-14.725423541197648,0.0,-0.004414379396599273,11.879976934405583,0.0,-0.4235517962019676,0.0,0.0,0.0,-24.716401170028497,-0.4313825796607761,-0.018144339698001877,0.0,0.0,0.0,0.0,0.0,-0.0070357987875085334,-0.40312157602750087,0.0,0.0,11.887524893184224,0.004414379396599273,0.034933512278304456,-0.03563748275789707,-2.0418773544977435,0.0,0.0,0.028601683970388536,1.6387557784702425,-4.845550199663274,0.0,-15.2335587717434,11.882662892177674,0.0,-0.3399568751155265,0.0,-4.314850158549177,0.0,0.0,-0.4313825796607761,0.0,-0.040619480106064476,0.3490658503988659,1.0,0.14,0.14,0.75,0.08726646259971647,5.0,0.184,0.175,0.174,0.0,0.0,0.0,-0.00960249870746974,0.0,0.0010626928202648212,0.0,6.082936386370677,0.0,-0.5196166603237189,0.0,0.15158665588379963,0.0,-3.77506035065231,0.0,-0.031863241639161,0.0,-0.0066710422936723055,0.47095026192997524,-0.028744043718525417,0.0912139135815195,0.0,0.0,0.0,0.45549834094818487,0.0912139135815195,0.0,0.0,-0.019154606884948314,0.0,0.0,-0.002540207557720263,0.0,1.1052949277239623,0.0,5.519552731248151,0.0,-0.032495136544033854,0.0,86.55438035120599,-1.3012544545329912,0.0,-5.476666511194496,0.0,-0.032495136544033854,0.0
sim_raptor_glider_3dof,raptor_glider_3dof,0.024,-14.713543173511505,0.0,-0.004759367850969079,11.875127896482551,0.0,-0.43867578891253256,0.0,0.0,0.0,-24.960132234496395,-0.4356364892251315,-0.01832988909394957,0.0,0.0,0.0,0.0,0.0,-0.007469320905960672,-0.42796056374037894,0.0,0.0,11.883227634173979,0.004759367850969079,0.0349208840523494,-0.03692393164029108,-2.1155854460182417,0.0,0.0,0.029454610734330405,1.6876248822778628,-4.852391044885236,0.0,-15.014875214861004,11.878073216622058,0.0,-0.3499652356476217,0.0,-4.193408161247101,0.0,0.0,-0.4356364892251315,0.0,-0.040619480106064476,0.3490658503988659,1.0,0.14,0.14,0.75,0.08726646259971647,5.0,0.184,0.175,0.174,0.0,0.0,0.0,-0.009651706878537943,0.0,0.0010522610909344601,0.0,6.083110923605472,0.0,-0.519754969682717,0.0,0.1500896690943053,0.0,-3.774565514148745,0.0,-0.031474889079268015,0.0,-0.0065483408349760845,0.46549478746544215,-0.02831519554618158,0.0909787018286858,0.0,0.0,0.0,0.44988440266481877,0.0909787018286858,0.0,0.0,-0.018628964130874528,0.0,0.0,-0.00256618447315294,0.0,1.1016478142695667,0.0,5.447584532508673,0.0,-0.031580556862351915,0.0,86.49181402792061,-1.3019974547405855,0.0,-5.403203473251926,0.0,-0.031580556862351915,0.0
sim_raptor_glider_3dof,raptor_glider_3dof,0.025,-14.701667393386218,0.0,-0.005114227595374477,11.870272349839674,0.0,-0.4535822391085194,0.0,0.0,0.0,-25.196968174485985,-0.43977005616500553,-0.01851049976994999,0.0,0.0,0.0,0.0,0.0,-0.007907034206075548,-0.4530396884737045,0.0,0.0,11.878935242983816,0.005114227595374477,0.03490827013131099,-0.038193030147126,-2.1882994342462374,0.0,0.0,0.030285995941050456,1.7352597457725332,-4.858596313841823,0.0,-14.798391888223719,11.873487732904978,0.0,-0.3597103884488028,0.0,-4.074077611480594,0.0,0.0,-0.43977005616500553,0.0,-0.040619480106064476,0.3490658503988659,1.0,0.14,0.14,0.75,0.08726646259971647,5.0,0.184,0.175,0.174,0.0,0.0,0.0,-0.009700208630190088,0.0,0.0010418365137663508,0.0,6.0832754465201635,0.0,-0.5198894790445003,0.0,0.14861228543238184,0.0,-3.7740711957810373,0.0,-0.03109200990905354,0.0,-0.006428433631601496,0.4601077622448927,-0.027892319693718665,0.09075001724737318,0.0,0.0,0.0,0.44434313661942315,0.09075001724737318,0.0,0.0,-0.018111927533539497,0.0,0.0,-0.002591469967792999,0.0,1.0980849881463057,0.0,5.376599836643612,0.0,-0.030681878492060357,0.0,86.42934116105718,-1.3025829124206725,0.0,-5.330749872284206,0.0,-0.030681878492060357,0.0
sim_raptor_glider_3dof,raptor_glider_3dof,0.026000000000000002,-14.689796196468642,0.0,-0.0054787024040725395,11.865410908383076,0.0,-0.4682733078640056,0.0,0.0,0.0,-25.427026801794547,-0.4437853366841584,-0.01868625289669766,0.0,0.0,0.0,0.0,0.0,-0.008348821766390858,-0.4783522511211531,0.0,0.0,11.87464761227187,0.0054787024040725395,0.03489567019974689,-0.03944493988651113,-2.260028578644328,0.0,0.0,0.031096118120120267,1.7816763275231748,-4.864183460096656,0.0,-14.584113006695954,11.86890686942361,0.0,-0.3691959379287282,0.0,-3.9568309228520864,0.0,0.0,-0.4437853366841584,0.0,-0.040619480106064476,0.3490658503988659,1.0,0.14,0.14,0.75,0.08726646259971647,5.0,0.184,0.175,0.174,0.0,0.0,0.0,-0.009748013452667646,0.0,0.001031425649280984,0.0,6.083430289569459,0.0,-0.5200202880893703,0.0,0.14715434638034156,0.0,-3.773577577923862,0.0,-0.030714544748376087,0.0,-0.006311262471719378,0.454788952666151,-0.027475358545289926,0.09052771417062605,0.0,0.0,0.0,0.4388742403043054,0.09052771417062605,0.0,0.0,-0.017603395052794887,0.0,0.0,-0.002616075405537673,0.0,1.0946044870375846,0.0,5.306592760940156,0.0,-0.029798893679999064,0.0,86.36696011238543,-1.3030170049444667,0.0,-5.259299611006283,0.0,-0.029798893679999064,0.0
sim_raptor_glider_3dof,raptor_glider_3dof,0.027,-14.677929577942642,0.0,-0.005852534372734096,11.860544182174614,0.0,-0.4827512009550389,0.0,0.0,0.0,-25.650426769020118,-0.4476844016610921,-0.01885723036779614,0.0,0.0,0.0,0.0,0.0,-0.008794566265091827,-0.5038915296378932,0.0,0.0,11.870364654017147,0.005852534372734096,0.03488308399899247,-0.04067982639164611,-2.3307823635662226,0.0,0.0,0.03188526012655428,1.8268908339283294,-4.869169725470792,0.0,-14.37204113333808,11.864331044516994,0.0,-0.37842553488095065,0.0,-3.8416402099050955,0.0,0.0,-0.4476844016610921,0.0,-0.040619480106064476,0.3490658503988659,1.0,0.14,0.14,0.75,0.08726646259971647,5.0,0.184,0.175,0.174,0.0,0.0,0.0,-0.009795130813422176,0.0,0.0010210346849589685,0.0,6.083575779388964,0.0,-0.5201474945378068,0.0,0.14571568776119723,0.0,-3.773084835264249,0.0,-0.030342433368183697,0.0,-0.006196769713622416,0.44953808299456116,-0.027064253063475773,0.09031164829372001,0.0,0.0,0.0,0.43347736840409756,0.09031164829372001,0.0,0.0,-0.01710326287246152,0.0,0.0,-0.0026400122514914598,0.0,1.0912043744594802,0.0,5.23755694385468,0.0,-0.028931392420795274,0.0,86.30466952696344,-1.3033057577165126,0.0,-5.18884609801282,0.0,-0.028931392420795274,0.0
sim_raptor_glider_3dof,raptor_glider_3dof,0.028,-14.66606753256979,0.0,-0.006235469358781641,11.85567276361607,0.0,-0.49701812611259694,0.0,0.0,0.0,-25.867285082069916,-0.45146929323413165,-0.019023512994710678,0.0,0.0,0.0,0.0,0.0,-0.00924415250802254,-0.5296509238849664,0.0,0.0,11.866086283844071,0.006235469358781641,0.034870511281095744,-0.04189785557367993,-2.4005702950205325,0.0,0.0,0.03265370306565739,1.870919371135566,-4.873572046076292,0.0,-14.162177405000195,11.859760653705791,0.0,-0.38740280386746934,0.0,-3.7284777591921876,0.0,0.0,-0.45146929323413165,0.0,-0.040619480106064476,0.3490658503988659,1.0,0.14,0.14,0.75,0.08726646259971647,5.0,0.184,0.175,0.174,0.0,0.0,0.0,-0.0098415700284019,0.0,0.0010106694758813717,0.0,6.083712234437373,0.0,-0.5202711938138311,0.0,0.1442961438982518,0.0,-3.772593136238655,0.0,-0.029975615753595468,0.0,-0.006084898620493462,0.4443548515104824,-0.026658943984552465,0.09010167733901328,0.0,0.0,0.0,0.42815215048577643,0.09010167733901328,0.0,0.0,-0.016611427547413533,0.0,0.0,-0.0026632918192594952,0.0,1.0878827447734265,0.0,5.169485745516004,0.0,-0.028079166004476366,0.0,86.24246810476747,-1.3034550377809808,0.0,-5.1193824533777805,0.0,-0.028079166004476366,0.0
sim_raptor_glider_3dof,raptor_glider_3dof,0.029,-14.65421005470911,0.0,-0.006627256993839937,11.850797227559344,0.0,-0.5110762916194317,0.0,0.0,0.0,-26.07771709276655,-0.45514202467237985,-0.01918518049893301,0.0,0.0,0.0,0.0,0.0,-0.00969746742094796,-0.5556239551859334,0.0,0.0,11.861812420729967,0.006627256993839937,0.03485795180795782,-0.0430991936082868,-2.469401894172047,0.0,0.0,0.03340172618733884,1.913777938986114,-4.8774070477509595,0.0,-13.954521604031635,11.85519607026742,0.0,-0.3961313419809462,0.0,-3.617316040228334,0.0,0.0,-0.45514202467237985,0.0,-0.040619480106064476,0.3490658503988659,1.0,0.14,0.14,0.75,0.08726646259971647,5.0,0.184,0.175,0.174,0.0,0.0,0.0,-0.009887340264540488,0.0,0.0010003355574230294,0.0,6.083839965117668,0.0,-0.5203914790804004,0.0,0.14289554777925687,0.0,-3.772102643160778,0.0,-0.02961403213014331,0.0,-0.0059755933651967725,0.43923893206599834,-0.026259371868236243,0.08989766108532067,0.0,0.0,0.0,0.4228981925659617,0.08989766108532067,0.0,0.0,-0.01612778605850039,0.0,0.0,-0.0026859252698506215,0.0,1.0846377233600473,0.0,5.1023722670880804,0.0,-0.027242007098959586,0.0,86.18035459634102,-1.303470555191535,0.0,-5.050901528898964,0.0,-0.027242007098959586,0.0
sim_raptor_glider_3dof,raptor_glider_3dof,0.03,-14.642357138378312,0.0,-0.007027650306055507,11.845918133274893,0.0,-0.5249279047451062,0.0,0.0,0.0,-26.281836662714888,-0.4587045832357332,-0.01934231162722652,0.0,0.0,0.0,0.0,0.0,-0.010154399823176204,-0.5818042533563859,0.0,0.0,11.857542988555048,0.007027650306055507,0.03484540535588777,-0.04428400680141335,-2.5372866896496173,0.0,0.0,0.03412960697823715,1.9554824362932317,-4.880691047136936,0.0,-13.749072269406453,11.850637647560378,0.0,-0.4046147200184848,0.0,-3.5081277043571486,0.0,0.0,-0.4587045832357332,0.0,-0.040619480106064476,0.3490658503988659,1.0,0.14,0.14,0.75,0.08726646259971647,5.0,0.184,0.175,0.174,0.0,0.0,0.0,-0.009932450541253175,0.0,0.0009900381578407589,0.0,6.083959273898899,0.0,-0.5205084412729492,0.0,0.1415137312442959,0.0,-3.771613512360956,0.0,-0.029257622996332742,0.0,-0.005868799036052278,0.43418997569448453,-0.025865477153747405,0.0896994613977065,0.0,0.0,0.0,0.4177150786260495,0.0896994613977065,0.0,0.0,-0.015652235808651244,0.0,0.0,-0.0027079236278117133,0.0,1.081467467135029,0.0,5.036209371011606,0.0,-0.026419709741513687,0.0,86.11832782521675,-1.3033578648950603,0.0,-4.983395929198558,0.0,-0.026419709741513687,0.0
sim_raptor_glider_3dof,raptor_glider_3dof,0.03,-14.642357138378312,0.0,-0.007027650306055507,11.845918133274893,0.0,-0.5249279047451062,0.0,0.0,0.0,-26.281836662714888,-0.4587045832357332,-0.01934231162722652,0.0,0.0,0.0,0.0,0.0,-0.010154399823176204,-0.5818042533563859,0.0,0.0,11.857542988555048,0.007027650306055507,0.03484540535588777,-0.04428400680141335,-2.5372866896496173,0.0,0.0,0.03412960697823715,1.9554824362932317,-4.8832018002958595,0.0,-13.740523809512462,11.850637647560378,0.0,-0.4046147200184848,0.0,-3.4099567416273855,0.0,0.0,-0.4587045832357332,0.0,-0.041378047831260145,0.3490658503988659,1.0,0.14,0.14,0.75,0.08726646259971647,5.0,0.184,0.175,0.174,0.0,0.0,0.0,-0.010071818659455303,0.0,0.0010232677331137015,0.0,6.083808845295029,0.0,-0.5205373291525657,0.0,0.14151237947033818,0.0,-3.771125133675634,0.0,-0.029216582261344246,0.0,-0.005880954977031727,0.4339973116462568,-0.0254261446494733,0.08976530520518426,0.0,0.0,0.0,0.4175228219269925,0.08976530520518426,0.0,0.0,-0.015214225796558444,0.0,0.0,-0.0027079236278117133,0.0,1.0822613173386972,0.0,5.033891415450568,0.0,-0.02568038422119584,0.0,86.11832782521675,-1.3040483220137644,0.0,-4.98104510272771,0.0,-0.02568038422119584,0.0
sim_raptor_glider_3dof,raptor_glider_3dof,0.031,-14.63050878868782,0.0,-0.007436401396143652,11.841033577411336,0.0,-0.5385658940179296,0.0,0.0,0.0,-26.47414511259882,-0.4620609988656143,-0.019490857882258197,0.0,0.0,0.0,0.0,0.0,-0.010614790715630136,-0.6081827084202576,0.0,0.0,11.853275049689096,0.007436401396143652,0.034832863292159906,-0.04545168906729407,-2.6041899552968553,0.0,0.0,0.03483689835166393,1.9960072468765977,-4.885894197391422,0.0,-13.536421741346267,11.846083153554584,0.0,-0.4128478202101913,0.0,-3.303383119170761,0.0,0.0,-0.4620609988656143,0.0,-0.041378047831260145,0.3490658503988659,1.0,0.14,0.14,0.75,0.08726646259971647,5.0,0.184,0.175,0.174,0.0,0.0,0.0,-0.01011673918237472,0.0,0.0010129480692633583,0.0,6.083917422238816,0.0,-0.5206511698800445,0.0,0.1401500786738515,0.0,-3.7706314528103273,0.0,-0.02886542697654949,0.0,-0.005776666706400458,0.42901842801742157,-0.025038339114947853,0.08957310318656413,0.0,0.0,0.0,0.4124171202392264,0.08957310318656413,0.0,0.0,-0.014749341266714011,0.0,0.0,-0.0027287201035161484,0.0,1.079166742712522,0.0,4.968755401500973,0.0,-0.024877778270475003,0.0,86.05634506669917,-1.3038128083812366,0.0,-4.914590853695033,0.0,-0.024877778270475003,0.0
sim_raptor_glider_3dof,raptor_glider_3dof,0.032,-14.618664979375184,0.0,-0.00785324716316306,11.836146596823774,0.0,-0.5520013730457486,0.0,0.0,0.0,-26.6604168002634,-0.46531205311860774,-0.019635057996955495,0.0,0.0,0.0,0.0,0.0,-0.011078477245647363,-0.6347499896073109,0.0,0.0,11.849011426163257,0.00785324716316306,0.0348203339097924,-0.04660314813082231,-2.6701636999191094,0.0,0.0,0.03552467088517494,2.0354137103117984,-4.888066826356358,0.0,-13.334536203335912,11.841535472945656,0.0,-0.4208437005790505,0.0,-3.198725503538188,0.0,0.0,-0.46531205311860774,0.0,-0.041378047831260145,0.3490658503988659,1.0,0.14,0.14,0.75,0.08726646259971647,5.0,0.184,0.175,0.174,0.0,0.0,0.0,-0.010161009143487578,0.0,0.0010026748981327457,0.0,6.084018201567887,0.0,-0.5207618589533487,0.0,0.13880625420162948,0.0,-3.7701395399891386,0.0,-0.028519338036211223,0.0,-0.005674784956332708,0.42410588420611994,-0.02465610063843118,0.08938644759718768,0.0,0.0,0.0,0.40738147717219536,0.08938644759718768,0.0,0.0,-0.01429233344502892,0.0,0.0,-0.0027489081195737693,0.0,1.076143341502467,0.0,4.904556293431785,0.0,-0.024089601767146095,0.0,85.99444725926095,-1.3034599766922956,0.0,-4.849097752784815,0.0,-0.024089601767146095,0.0
sim_raptor_glider_3dof,raptor_glider_3dof,0.033,-14.60682571419555,0.0,-0.008277971694941808,11.831257695938021,0.0,-0.5652360743989494,0.0,0.0,0.0,-26.840746272650577,-0.4684593961501482,-0.01977497693656268,0.0,0.0,0.0,0.0,0.0,-0.01154536299180419,-0.6615005723769134,0.0,0.0,11.844752023047784,0.008277971694941808,0.03480781692981805,-0.04773851091518471,-2.735215195679297,0.0,0.0,0.03619314792338052,2.0737146233023838,-4.889734637451516,0.0,-13.134867071205006,11.836994889222433,0.0,-0.42860527296869894,0.0,-3.0959612810280834,0.0,0.0,-0.4684593961501482,0.0,-0.041378047831260145,0.3490658503988659,1.0,0.14,0.14,0.75,0.08726646259971647,5.0,0.184,0.175,0.174,0.0,0.0,0.0,-0.010204635745785028,0.0,0.0009924529857247677,0.0,6.084111459540971,0.0,-0.5208694772600411,0.0,0.13748078109199802,0.0,-3.769649550687571,0.0,-0.02817826859147183,0.0,-0.00557526094542148,0.41925943811360294,-0.0242793824361783,0.0892052126405596,0.0,0.0,0.0,0.402415595182737,0.0892052126405596,0.0,0.0,-0.013843119826850417,0.0,0.0,-0.0027684967711187757,0.0,1.0731894314078174,0.0,4.841288429230639,0.0,-0.023315684407422498,0.0,85.9326329578719,-1.3029949091617388,0.0,-4.784559904253107,0.0,-0.023315684407422498,0.0
sim_raptor_glider_3dof,raptor_glider_3dof,0.034,-14.594990986820097,0.0,-0.008710370362290894,11.826367312335151,0.0,-0.5782719437719375,0.0,0.0,0.0,-27.015228290245062,-0.4715046818426946,-0.01991067999705141,0.0,0.0,0.0,0.0,0.0,-0.012015357505129621,-0.6884292743847656,0.0,0.0,11.840496706102456,0.008710370362290894,0.03479531195774914,-0.04885792271942151,-2.7993527675991903,0.0,0.0,0.036842565214291884,2.1109234932144245,-4.890912362753502,0.0,-12.93740982515928,11.832461620240656,0.0,-0.4361355898742617,0.0,-2.9950664862080254,0.0,0.0,-0.4715046818426946,0.0,-0.041378047831260145,0.3490658503988659,1.0,0.14,0.14,0.75,0.08726646259971647,5.0,0.184,0.175,0.174,0.0,0.0,0.0,-0.010247626769359846,0.0,0.0009822866777601314,0.0,6.0841974672007035,0.0,-0.5209741055425321,0.0,0.1361735121015941,0.0,-3.769161627418064,0.0,-0.02784216653990621,0.0,-0.005478045070272053,0.4144787509844124,-0.02390813157698057,0.08902927139221696,0.0,0.0,0.0,0.39751907975124984,0.08902927139221696,0.0,0.0,-0.013401611634084445,0.0,0.0,-0.002787495199587198,0.0,1.070303314372867,0.0,4.778944968670265,0.0,-0.02255584570763264,0.0,85.87090014936642,-1.302422551213358,0.0,-4.720970207110745,0.0,-0.02255584570763264,0.0
sim_raptor_glider_3dof,raptor_glider_3dof,0.034999999999999996,-14.583160788654842,0.0,-0.009150176669205774,11.821476008320685,0.0,-0.5911115402652535,0.0,0.0,0.0,-27.1839863291848,-0.4744500652614019,-0.02004225346200855,0.0,0.0,0.0,0.0,0.0,-0.012488343317145385,-0.715529365182837,0.0,0.0,11.836245514027507,0.009150176669205774,0.0347828191073129,-0.049961580242121224,-2.862587685677748,0.0,0.0,0.03747323692497584,2.1470583204949105,-4.891615459703101,0.0,-12.742155105703015,11.82793600114867,0.0,-0.4434386328090401,0.0,-2.8960110503543155,0.0,0.0,-0.4744500652614019,0.0,-0.041378047831260145,0.3490658503988659,1.0,0.14,0.14,0.75,0.08726646259971647,5.0,0.184,0.175,0.174,0.0,0.0,0.0,-0.010289991842345934,0.0,0.0009721795980309726,0.0,6.084276492280136,0.0,-0.5210758273382347,0.0,0.134884239112809,0.0,-3.7686758848034696,0.0,-0.02751096462552087,0.0,-0.0053830841460069225,0.4097632469085292,-0.02354227806064729,0.08885849095906803,0.0,0.0,0.0,0.3926912812857586,0.08885849095906803,0.0,0.0,-0.012967692038732622,0.0,0.0,-0.002805915484681197,0.0,1.0674832568233086,0.0,4.717516169232907,0.0,-0.02180985922021835,0.0,85.80924933097408,-1.3017477493671448,0.0,-4.6583185923238,0.0,-0.02180985922021835,0.0
sim_raptor_glider_3dof,raptor_glider_3dof,0.036,-14.571335112182725,0.0,-0.009597173488692625,11.816584233078403,0.0,-0.6037569825779496,0.0,0.0,0.0,-27.34712111634309,-0.4772973044218542,-0.02016976716399912,0.0,0.0,0.0,0.0,0.0,-0.012964225179015134,-0.7427953874148013,0.0,0.0,11.831998370159148,0.009597173488692625,0.03477033815321975,-0.05104964367562686,-2.9249291282601337,0.0,0.0,0.03808541849661173,2.1821337408453325,-4.891858327470736,0.0,-12.549095357261955,11.823418255849287,0.0,-0.45051767856382957,0.0,-2.798769567945689,0.0,0.0,-0.4772973044218542,0.0,-0.041378047831260145,0.3490658503988659,1.0,0.14,0.14,0.75,0.08726646259971647,5.0,0.184,0.175,0.174,0.0,0.0,0.0,-0.010331739069803326,0.0,0.0009621354535744901,0.0,6.084348792388937,0.0,-0.5211747207589965,0.0,0.13361279580522054,0.0,-3.7681924478235,0.0,-0.02718460683075972,0.0,-0.005290329061636675,0.40511248900954444,-0.02318176398588858,0.08869274638309672,0.0,0.0,0.0,0.3879317032213583,0.08869274638309672,0.0,0.0,-0.012541264983644993,0.0,0.0,-0.002823767402959877,0.0,1.0647276045693042,0.0,4.656994060408141,0.0,-0.021077533616198987,0.0,85.74767932707117,-1.300975171302815,0.0,-4.596596801358826,0.0,-0.021077533616198987,0.0
sim_raptor_glider_3dof,raptor_glider_3dof,0.037,-14.559513949425012,0.0,-0.010051138760693534,11.81169243915745,0.0,-0.6162104589340305,0.0,0.0,0.0,-27.504735722101653,-0.4800481982415739,-0.020293292734121074,0.0,0.0,0.0,0.0,0.0,-0.01344290595924181,-0.7702217758558192,0.0,0.0,11.82775522265104,0.010051138760693534,0.03475786894311041,-0.05212227924060522,-2.9863866190890245,0.0,0.0,0.03867937328136341,2.2161648432332055,-4.891655179344364,0.0,-12.358221709568285,11.818908609357797,0.0,-0.45737609316308947,0.0,-2.7033160714994264,0.0,0.0,-0.4800481982415739,0.0,-0.041378047831260145,0.3490658503988659,1.0,0.14,0.14,0.75,0.08726646259971647,5.0,0.184,0.175,0.174,0.0,0.0,0.0,-0.010372876673332051,0.0,0.0009521576603178009,0.0,6.084414618591353,0.0,-0.521270862553897,0.0,0.13235900802160597,0.0,-3.7677114335063555,0.0,-0.026863035593180568,0.0,-0.005199731050084493,0.4005259986652515,-0.022826529446432528,0.08853191386987452,0.0,0.0,0.0,0.3832398056893339,0.08853191386987452,0.0,0.0,-0.01212223149833501,0.0,0.0,-0.0028410609827769504,0.0,1.062034726620776,0.0,4.59737019651135,0.0,-0.02035867333446218,0.0,85.68618932327044,-1.3001093495562313,0.0,-4.535796089278678,0.0,-0.02035867333446218,0.0
sim_raptor_glider_3dof,raptor_glider_3dof,0.038,-14.547697292189454,0.0,-0.010511853320979467,11.806801066444075,0.0,-0.6284741512426351,0.0,0.0,0.0,-27.656931942218254,-0.4827045233916986,-0.02041290096752465,0.0,0.0,0.0,0.0,0.0,-0.013924290093290902,-0.797803055061392,0.0,0.0,11.823516024489717,0.010511853320979467,0.03474541133882781,-0.05317965285710167,-3.0469696646827558,0.0,0.0,0.03925536276381077,2.2491666096213634,-4.891019914347606,0.0,-12.169524513547051,11.8144072726962,0.0,-0.4640172154437943,0.0,-2.6096248253058962,0.0,0.0,-0.4827045233916986,0.0,-0.041378047831260145,0.3490658503988659,1.0,0.14,0.14,0.75,0.08726646259971647,5.0,0.184,0.175,0.174,0.0,0.0,0.0,-0.010413412681817235,0.0,0.000942249295805124,0.0,6.084474214762313,0.0,-0.5213643270840492,0.0,0.13112270144832222,0.0,-3.767232954217451,0.0,-0.026546193514624415,0.0,-0.005111242066644096,0.39600328342823893,-0.022476514750883733,0.08837587168270221,0.0,0.0,0.0,0.37861503568628285,0.08837587168270221,0.0,0.0,-0.01171049330063867,0.0,0.0,-0.002857806135453451,0.0,1.0594030222048938,0.0,4.5386360034825,0.0,-0.019653084559378704,0.0,85.62477857632028,-1.2991546770550162,0.0,-4.475907579547475,0.0,-0.019653084559378704,0.0
sim_raptor_glider_3dof,raptor_glider_3dof,0.039,-14.535885132051385,0.0,-0.010979101771997348,11.801910539237447,0.0,-0.640550230195429,0.0,0.0,0.0,-27.80380991301151,-0.48526802758068904,-0.02052866154328135,0.0,0.0,0.0,0.0,0.0,-0.014408284017550897,-0.8255338642314641,0.0,0.0,11.819280729958457,0.010979101771997348,0.03473296520602562,-0.0542219297458347,-3.106687731491185,0.0,0.0,0.0398136457282838,2.2811538672597207,-4.889966079148292,0.0,-11.982993409798222,11.809914440410568,0.0,-0.47044434713289474,0.0,-2.5176705536982067,0.0,0.0,-0.48526802758068904,0.0,-0.041378047831260145,0.3490658503988659,1.0,0.14,0.14,0.75,0.08726646259971647,5.0,0.184,0.175,0.174,0.0,0.0,0.0,-0.010453354441727722,0.0,0.0009324123484191503,0.0,6.084527815832154,0.0,-0.5214551831499549,0.0,0.1299037038847099,0.0,-3.766757120965798,0.0,-0.02623402223447296,0.0,-0.005024813712132866,0.3915438402967833,-0.022131661321629047,0.08822449951968031,0.0,0.0,0.0,0.3740568305913174,0.08822449951968031,0.0,0.0,-0.0113059538343418,0.0,0.0,-0.0028740126160593897,0.0,1.0568309125549205,0.0,4.480782818530356,0.0,-0.018960576939901195,0.0,85.5634463627785,-1.29811540156159,0.0,-4.416922305044215,0.0,-0.018960576939901195,0.0
sim_raptor_glider_3dof,raptor_glider_3dof,0.04,-14.524077460415626,0.0,-0.011452671747918738,11.797021269523373,0.0,-0.6524408564657224,0.0,0.0,0.0,-27.945468445194486,-0.4877404353808243,-0.020640643263325376,0.0,0.0,0.0,0.0,0.0,-0.014894795768136558,-0.8534089342235439,0.0,0.0,11.8150492976023,0.011452671747918738,0.03472053042288136,-0.05524927451703443,-3.1655502509857625,0.0,0.0,0.04035447874889787,2.3121413167622187,-4.888506900675429,0.0,-11.798617388160746,11.805430293969781,0.0,-0.47666075881399045,0.0,-2.4274282875684876,0.0,0.0,-0.4877404353808243,0.0,-0.041378047831260145,0.3490658503988659,1.0,0.14,0.14,0.75,0.08726646259971647,5.0,0.184,0.175,0.174,0.0,0.0,0.0,-0.010492708968559611,0.0,0.0009226482715120686,0.0,6.084575649273343,0.0,-0.5215434963205658,0.0,0.1287018438916879,0.0,-3.7662840412914598,0.0,-0.025926463282852058,0.0,-0.004940398000743366,0.38714715546432815,-0.021791911127606353,0.08807767896876433,0.0,0.0,0.0,0.3695646177103767,0.08807767896876433,0.0,0.0,-0.01090851758215501,0.0,0.0,-0.002889690056865553,0.0,1.0543168468041593,0.0,4.423801887115682,0.0,-0.018280962433678282,0.0,85.50219202189044,-1.2969956343508209,0.0,-4.358831205079895,0.0,-0.018280962433678282,0.0
sim_raptor_glider_3dof,raptor_glider_3dof,0.04,-14.524077460415626,0.0,-0.011452671747918738,11.797021269523373,0.0,-0.6524408564657224,0.0,0.0,0.0,-27.945468445194486,-0.4877404353808243,-0.020640643263325376,0.0,0.0,0.0,0.0,0.0,-0.014894795768136558,-0.8534089342235439,0.0,0.0,11.8150492976023,0.011452671747918738,0.03472053042288136,-0.05524927451703443,-3.1655502509857625,0.0,0.0,0.04035447874889787,2.3121413167622187,-4.890973538723988,0.0,-11.790242629026789,11.805430293969781,0.0,-0.47666075881399045,0.0,-2.3311414097072736,0.0,0.0,-0.4877404353808243,0.0,-0.04213146615459562,0.3490658503988659,1.0,0.14,0.14,0.75,0.08726646259971647,5.0,0.184,0.175,0.174,0.0,0.0,0.0,-0.010633854970002975,0.0,0.0009550890782682926,0.0,6.084402282686856,0.0,-0.5215737076819517,0.0,0.12870048179863056,0.0,-3.765736432686303,0.0,-0.02588535464596682,0.0,-0.004952409345907603,0.3869576796587798,-0.021357629169838452,0.08814488426665439,0.0,0.0,0.0,0.36937564288052954,0.08814488426665439,0.0,0.0,-0.010475818043528484,0.0,0.0,-0.002889690056865553,0.0,1.055121314844071,0.0,4.421539800409238,0.0,-0.01755582595650548,0.0,85.50219202189044,-1.2976739598141744,0.0,-4.356528146318056,0.0,-0.01755582595650548,0.0
sim_raptor_glider_3dof,raptor_glider_3dof,0.041,-14.512274288594877,0.0,-0.01193235944118904,11.792131259787121,0.0,-0.6641387616156449,0.0,0.0,0.0,-28.07649246110281,-0.49002723585761,-0.020744846125068397,0.0,0.0,0.0,0.0,0.0,-0.015383689893795929,-0.8814205042525644,0.0,0.0,11.810818766822603,0.01193235944118904,0.03470809828917277,-0.056261066349996974,-3.223521652760322,0.0,0.0,0.04087737645620104,2.342101148507757,-4.8890585514461105,0.0,-11.607178314179084,11.800952438482794,0.0,-0.48266084095972694,0.0,-2.2432381141129594,0.0,0.0,-0.49002723585761,0.0,-0.04213146615459562,0.3490658503988659,1.0,0.14,0.14,0.75,0.08726646259971647,5.0,0.184,0.175,0.174,0.0,0.0,0.0,-0.010673015114350846,0.0,0.0009453393130220549,0.0,6.084442380484693,0.0,-0.5216596319035703,0.0,0.12751650284056967,0.0,-3.765261108181613,0.0,-0.02558250075481209,0.0,-0.004870015870180729,0.38262678315695464,-0.021023382850169997,0.08800278318348166,0.0,0.0,0.0,0.36495586822535464,0.08800278318348166,0.0,0.0,-0.010088016126779505,0.0,0.0,-0.002904278457509576,0.0,1.0526660748640986,0.0,4.365505810224354,0.0,-0.0168938262373847,0.0,85.44097265889383,-1.2964789700409636,0.0,-4.299405671079889,0.0,-0.0168938262373847,0.0
sim_raptor_glider_3dof,raptor_glider_3dof,0.042,-14.500475570583873,0.0,-0.012417918803467353,11.787243348449785,0.0,-0.6756554793509025,0.0,0.0,0.0,-28.202549750030865,-0.49222735059554235,-0.020845445835449332,0.0,0.0,0.0,0.0,0.0,-0.01587481719065681,-0.9095600255663615,0.0,0.0,11.806592060469889,0.012417918803467353,0.03469567739419286,-0.057258250931911885,-3.2806561206995637,0.0,0.0,0.041383433741255075,2.3710960951332023,-4.886763979426627,0.0,-11.426257128164133,11.796483585817377,0.0,-0.4884578711534849,0.0,-2.156991477265376,0.0,0.0,-0.49222735059554235,0.0,-0.04213146615459562,0.3490658503988659,1.0,0.14,0.14,0.75,0.08726646259971647,5.0,0.184,0.175,0.174,0.0,0.0,0.0,-0.01071159584880446,0.0,0.0009356654498767215,0.0,6.084477186963086,0.0,-0.5217431393670808,0.0,0.12634932071525268,0.0,-3.764788824650458,0.0,-0.02528414535245508,0.0,-0.004789542127846269,0.37835759851470807,-0.02069412298053596,0.08786499885433675,0.0,0.0,0.0,0.3606008889654068,0.08786499885433675,0.0,0.0,-0.009707104766874109,0.0,0.0,-0.0029183624169629068,0.0,1.0502658196774024,0.0,4.310325990597337,0.0,-0.01624430281528555,0.0,85.37983053318135,-1.29521153031383,0.0,-4.243158673552483,0.0,-0.01624430281528555,0.0
sim_raptor_glider_3dof,raptor_glider_3dof,0.043000000000000003,-14.488681316857603,0.0,-0.012909174872799694,11.78235791547474,0.0,-0.6869923445127445,0.0,0.0,0.0,-28.32371239287813,-0.49434203764364504,-0.020942491849573683,0.0,0.0,0.0,0.0,0.0,-0.016368101922977336,-0.9378231588265682,0.0,0.0,11.802369106656908,0.012909174872799694,0.03468326752668873,-0.058240923692338964,-3.336959122514506,0.0,0.0,0.04187282176936163,2.3991359636879372,-4.88410154256511,0.0,-11.247474820820452,11.792023875528571,0.0,-0.49405409494660374,0.0,-2.0723840258608512,0.0,0.0,-0.49434203764364504,0.0,-0.04213146615459562,0.3490658503988659,1.0,0.14,0.14,0.75,0.08726646259971647,5.0,0.184,0.175,0.174,0.0,0.0,0.0,-0.010749601515849536,0.0,0.0009260693834324549,0.0,6.084506908857401,0.0,-0.5218242861996633,0.0,0.125198842225712,0.0,-3.764319705763813,0.0,-0.024990251920788315,0.0,-0.0047109485088744985,0.3741498700917594,-0.020369814107113214,0.08773142873279872,0.0,0.0,0.0,0.35631040700312044,0.08773142873279872,0.0,0.0,-0.009333021241112457,0.0,0.0,-0.0029319488589403158,0.0,1.0479191955874028,0.0,4.255994920854843,0.0,-0.015607124098758073,0.0,85.31876454600862,-1.2938753922893624,0.0,-4.1877814981265225,0.0,-0.015607124098758073,0.0
