name,vehicle,t,north,east,down,u,v,w,p_rad,p_deg,p_hat_div_b,q_deg,q_rad,q_hat_div_c,r_rad,r_deg,r_hat_div_b,phi_rad,phi_deg,theta_rad,theta_deg,psi_rad,psi_deg,speed,altitude,mach,alpha_rad,alpha_deg,beta_rad,beta_deg,gamma_rad,gamma_deg,u_dot,v_dot,w_dot,north_dot,east_dot,down_dot,p_rad_dot,q_rad_dot,r_rad_dot,phi_rad_dot,theta_rad_dot,psi_rad_dot,del_tail_alt_rad,del_tail_splay_rad,DIM_b,DIM_c_bar,DIM_S,DIM_wing_position,DIM_wing_incidence_rad,DIM_wing_incidence_deg,DIM_empennage_length,DIM_nose_length,DIM_tail_length,CDp,CDq,CDr,CYp,CYq,CYr,CLp,CLq,CLr,Clp,Clq,Clr,Cmp,Cmq,Cmr,Cnp,Cnq,Cnr,CL_0,Cm_0,CD_0,Cl_0,CY_0,Cn_0,CL,CD,CY,Cl,Cm,Cn,p_hat,q_hat,r_hat,drag_force_wind,side_force_wind,lift_force_wind,roll_moment_wind,pitch_moment_wind,yaw_moment_wind,qbar,X_total,Y_total,Z_total,L_total,M_total,N_total
sim_raptor_glider_3dof,raptor_glider_3dof,0.0,-15.0,0.0,0.0,12.0,0.0,0.0,0.0,0.0,0.0,0.0,0.0,0.0,0.0,0.0,0.0,0.0,0.0,0.0,0.0,0.0,0.0,12.0,-0.0,0.035264039495724236,0.0,0.0,0.0,0.0,0.0,0.0,-5.857658466993864,0.0,-20.712891506345827,12.0,0.0,0.0,0.0,-41.05962722702938,0.0,0.0,0.0,0.0,0.18367459766213098,0.3490658503988659,1.0,0.14,0.14,0.75,0.08726646259971647,5.0,0.184,0.175,0.174,0.0,0.0,0.0,0.0004634931818416596,0.0,0.009696027561519318,0.0,6.081941094320126,0.0,-0.5142401027274343,0.0,0.1940618839076366,0.0,-3.754768361678556,0.0,-0.046277704772724144,0.0,-0.013711325418649984,0.6796948795452612,-0.1788722267623372,0.130454792884514,0.0,0.0,0.0,0.6796948795452612,0.130454792884514,0.0,0.0,-0.1788722267623372,0.0,0.0,0.0,0.0,1.6108560784233126,0.0,8.392873914245103,0.0,-0.3092200526467583,0.0,88.20001620075907,-1.6108560784233126,0.0,-8.392873914245103,0.0,-0.3092200526467583,0.0
sim_raptor_glider_3dof,raptor_glider_3dof,0.001,-14.988002932556142,0.0,-0.000010287406471117547,11.99413063395335,0.0,-0.020749008873489756,0.0,0.0,0.0,-2.341711301199044,-0.04087057233708396,-0.0017037713040114202,0.0,0.0,0.0,0.0,0.0,-0.000020467468396855508,-0.0011726995564572138,0.0,0.0,11.994148581108515,0.000010287406471117547,0.035246844106816284,-0.0017299284798981053,-0.0991176007576435,0.0,0.0,0.0017094610115012498,0.09794490120118629,-5.881123016067626,0.0,-20.784060225190967,11.994131056120759,0.0,-0.02050351937946264,0.0,-40.681768333704305,0.0,0.0,-0.04087057233708396,0.0,0.18367459766213098,0.3490658503988659,1.0,0.14,0.14,0.75,0.08726646259971647,5.0,0.184,0.175,0.174,0.0,0.0,0.0,0.00043161407391424395,0.0,0.00967944499656027,0.0,6.0830459431660735,0.0,-0.5144893768255344,0.0,0.19207830001560253,0.0,-3.7559033034956464,0.0,-0.04575705924724685,0.0,-0.013497369765803954,0.6726935490053364,-0.17829497358284577,0.12992975801429293,0.0,0.0,0.0,0.6712425723286835,0.12992975801429293,0.0,0.0,-0.1773990855451665,0.0,0.0,-0.00023852798256159886,0.0,1.6028086851010543,0.0,8.280423524067787,0.0,-0.30637439732112715,0.0,88.11402129870912,-1.617130820112082,0.0,-8.2776383908464,0.0,-0.30637439732112715,0.0
sim_raptor_glider_3dof,raptor_glider_3dof,0.002,-14.976011744815413,0.0,-0.0000408679603836484,11.988237665055017,0.0,-0.041566077839641315,0.0,0.0,0.0,-4.661815716323505,-0.08136403337106313,-0.003393473944211674,0.0,0.0,0.0,0.0,0.0,-0.00008161616055175864,-0.00467626153967789,0.0,0.0,11.988309724588813,0.0000408679603836484,0.0352296856345729,-0.003467224494259878,-0.19865733014547232,0.0,0.0,0.0033856083337081193,0.19398106860579445,-5.904858461772649,0.0,-20.849055526486993,11.988241017590687,0.0,-0.040587643772283875,0.0,-40.30540453709173,0.0,0.0,-0.08136403337106313,0.0,0.18367459766213098,0.3490658503988659,1.0,0.14,0.14,0.75,0.08726646259971647,5.0,0.184,0.175,0.174,0.0,0.0,0.0,0.0003995623955748212,0.0,0.00966253866090157,0.0,6.084141680755271,0.0,-0.5147357140614462,0.0,0.1900850288094097,0.0,-3.7570317533105175,0.0,-0.045234679845490566,0.0,-0.013284499314510576,0.6656370941215185,-0.1777140540388113,0.12940785800338991,0.0,0.0,0.0,0.6627466014442036,0.12940785800338991,0.0,0.0,-0.17592913952807038,0.0,0.0,-0.00047508635218963433,0.0,1.5948166698876074,0.0,8.167659554853977,0.0,-0.30354000156883787,0.0,88.02825282647001,-1.6231261362657514,0.0,-8.162080884205931,0.0,-0.30354000156883787,0.0
sim_raptor_glider_3dof,raptor_glider_3dof,0.003,-14.964026456740612,0.0,-0.00009132257303859378,11.982320837770404,0.0,-0.06244511291571848,0.0,0.0,0.0,-6.9603996929247804,-0.12148189189633968,-0.005069144947234482,0.0,0.0,0.0,0.0,0.0,-0.00018307039207692601,-0.010489160819813086,0.0,0.0,11.982483551058767,0.00009132257303859378,0.035212564433450194,-0.00521139005148846,-0.29859065534675355,0.0,0.0,0.005028319659411534,0.28810149452694045,-5.928835094870274,0.0,-20.908014137556755,11.982332068829292,0.0,-0.06025150370779263,0.0,-39.930568463572996,0.0,0.0,-0.12148189189633968,0.0,0.18367459766213098,0.3490658503988659,1.0,0.14,0.14,0.75,0.08726646259971647,5.0,0.184,0.175,0.174,0.0,0.0,0.0,0.0003673584848998752,0.0,0.009645321915255096,0.0,6.085227790567152,0.0,-0.5149790122207347,0.0,0.18808263888798873,0.0,-3.7581532425491884,0.0,-0.0447107167815011,0.0,-0.013072808110747472,0.6585279099326937,-0.17712963627860917,0.1288893641210758,0.0,0.0,0.0,0.6542093436936683,0.1288893641210758,0.0,0.0,-0.17446254898575303,0.0,0.0,-0.0007096802926128275,0.0,1.5868832371690538,0.0,8.05461217212331,0.0,-0.30071711109916827,0.0,87.94271228497571,-1.6288372242076068,0.0,-8.04623296634896,0.0,-0.30071711109916827,0.0
sim_raptor_glider_3dof,raptor_glider_3dof,0.004,-14.952047086223175,0.0,-0.00016123061100223728,11.976379924835465,0.0,-0.08338014236369955,0.0,0.0,0.0,-9.237551635748511,-0.16122569086679944,-0.006730822865758155,0.0,0.0,0.0,0.0,0.0,-0.00032445529105995345,-0.018589918818424044,0.0,0.0,11.976670169631563,0.00016123061100223728,0.03519548082409581,-0.006961936392928352,-0.3988895725533265,0.0,0.0,0.006637481101868399,0.3802996537349025,-5.953023674622809,0.0,-20.961072786891776,11.976406347579196,0.0,-0.07949433820875434,0.0,-39.55729207829002,0.0,0.0,-0.16122569086679944,0.0,0.18367459766213098,0.3490658503988659,1.0,0.14,0.14,0.75,0.08726646259971647,5.0,0.184,0.175,0.174,0.0,0.0,0.0,0.0003350228120256517,0.0,0.009627808569532527,0.0,6.086303776247413,0.0,-0.5152191751586895,0.0,0.18607168989152972,0.0,-3.7592673208625085,0.0,-0.044185316841862714,0.0,-0.012862387082104755,0.6513683950888316,-0.17654188705401605,0.12837454050147865,0.0,0.0,0.0,0.6456331785213153,0.12837454050147865,0.0,0.0,-0.17299947231216983,0.0,0.0,-0.0009423152012061418,0.0,1.5790114876872379,0.0,7.941311429312885,0.0,-0.2979059666416021,0.0,87.85740100351408,-1.6342596800722218,0.0,-7.930126089393154,0.0,-0.2979059666416021,0.0
sim_raptor_glider_3dof,raptor_glider_3dof,0.005,-14.940073648958993,0.0,-0.0002501707050909614,11.970414729068588,0.0,-0.10436533607924096,0.0,0.0,0.0,-11.49336182873965,-0.2005970060345435,-0.008378547732420517,0.0,0.0,0.0,0.0,0.0,-0.0005053976007778451,-0.028957149500608216,0.0,0.0,11.970869680573637,0.0002501707050909614,0.03517843510115971,-0.008718385632374932,-0.4995267009025789,0.0,0.0,0.008212988031597087,0.4705695514019707,-5.97739548986113,0.0,-21.008367795208713,11.97046594627486,0.0,-0.09831550412355326,0.0,-39.18560656714556,0.0,0.0,-0.2005970060345435,0.0,0.18367459766213098,0.3490658503988659,1.0,0.14,0.14,0.75,0.08726646259971647,5.0,0.184,0.175,0.174,0.0,0.0,0.0,0.00030257591838094456,0.0,0.009610012832119885,0.0,6.0873691624581605,0.0,-0.5154561129102597,0.0,0.18405273056436386,0.0,-3.760373556986829,0.0,-0.04365862291613394,0.0,-0.012653323853768205,0.6441609429112622,-0.17595097110626085,0.12786364362556715,0.0,0.0,0.0,0.6370204790783094,0.12786364362556715,0.0,0.0,-0.1715400653988084,0.0,0.0,-0.0011729966825388724,0.0,1.5712044134603063,0.0,7.827787163045494,0.0,-0.29510680305717324,0.0,87.77232017913126,-1.6393895025971432,0.0,-7.8137914764595084,0.0,-0.29510680305717324,0.0
sim_raptor_glider_3dof,raptor_glider_3dof,0.006,-14.928106158567784,0.0,-0.0003577208994759157,11.964425081817144,0.0,-0.12539500051711536,0.0,0.0,0.0,-13.727922326266368,-0.23959744405138736,-0.010012360991565827,0.0,0.0,0.0,0.0,0.0,-0.0007255256619212715,-0.041569558356524275,0.0,0.0,11.965082174584921,0.0003577208994759157,0.035161427531179054,-0.010480270356618344,-0.6004752595902972,0.0,0.0,0.009754744694697073,0.558905701233773,-6.001922387482559,0.0,-21.050035027585587,11.964512910138232,0.0,-0.11671447084849526,0.0,-38.81554235501393,0.0,0.0,-0.23959744405138736,0.0,0.18367459766213098,0.3490658503988659,1.0,0.14,0.14,0.75,0.08726646259971647,5.0,0.184,0.175,0.174,0.0,0.0,0.0,0.0002700383938631007,0.0,0.009591949278998603,0.0,6.0884234944203905,0.0,-0.5156897415054977,0.0,0.1820262991557953,0.0,-3.7614715382632053,0.0,-0.04313077414091085,0.0,-0.012445702817589081,0.6369079407318794,-0.17535705123260867,0.12735692242435348,0.0,0.0,0.0,0.628373611586486,0.12735692242435348,0.0,0.0,-0.17008448170652585,0.0,0.0,-0.001401730538819216,0.0,1.5634648994610072,0.0,7.714068986289754,0.0,-0.29231984947560996,0.0,87.68747086641271,-1.6442230864042806,0.0,-7.697260113781997,0.0,-0.29231984947560996,0.0
sim_raptor_glider_3dof,raptor_glider_3dof,0.007,-14.916144626691548,0.0,-0.0004834587790326329,11.958410841701015,0.0,-0.14646357500986823,0.0,0.0,0.0,-15.941326867215064,-0.27822864096953576,-0.011632305447591812,0.0,0.0,0.0,0.0,0.0,-0.0009844694063343158,-0.056405942042706006,0.0,0.0,11.959307732378035,0.0004834587790326329,0.035144458351341605,-0.012247133341857909,-0.7017090516224098,0.0,0.0,0.011262663935523594,0.6453031095797038,-6.026576800142341,0.0,-21.08620983135402,11.95854923566055,0.0,-0.1346908163147005,0.0,-38.447129115573794,0.0,0.0,-0.27822864096953576,0.0,0.18367459766213098,0.3490658503988659,1.0,0.14,0.14,0.75,0.08726646259971647,5.0,0.184,0.175,0.174,0.0,0.0,0.0,0.00023743085229987782,0.0,0.009573632822157906,0.0,6.0894663375280045,0.0,-0.5159199828019723,0.0,0.17999292368841682,0.0,-3.7625608702313666,0.0,-0.04260190600886251,0.0,-0.012239605187317548,0.6296117687981615,-0.17476028831477217,0.12685461834827222,0.0,0.0,0.0,0.619694934255028,0.12685461834827222,0.0,0.0,-0.16863287229169582,0.0,0.0,-0.0016285227626628537,0.0,1.5557957249514363,0.0,7.600186276554001,0.0,-0.28954532936938626,0.0,87.60285397167277,-1.6487572156164914,0.0,-7.580562737689696,0.0,-0.28954532936938626,0.0
sim_raptor_glider_3dof,raptor_glider_3dof,0.008,-14.904189062995396,0.0,-0.0006269615588163398,11.952371894668634,0.0,-0.16756563424122578,0.0,0.0,0.0,-18.133670872962657,-0.31649226220619275,-0.013238425272979247,0.0,0.0,0.0,0.0,0.0,-0.0012818604198387407,-0.07344519198162762,0.0,0.0,11.953546425653073,0.0006269615588163398,0.035127527772350266,-0.01401852778318347,-0.8032024769632988,0.0,0.0,0.01273666736334473,0.7297572849816711,-6.051331780211251,0.0,-21.11702690014409,11.952576870499042,0.0,-0.15224422831308707,0.0,-38.08039574364958,0.0,0.0,-0.31649226220619275,0.0,0.18367459766213098,0.3490658503988659,1.0,0.14,0.14,0.75,0.08726646259971647,5.0,0.184,0.175,0.174,0.0,0.0,0.0,0.0002047738979199189,0.0,0.009555078673070785,0.0,6.090497277257135,0.0,-0.5161467643830133,0.0,0.17795312163594681,0.0,-3.763641176534731,0.0,-0.04207215032417339,0.0,-0.01203510899523503,0.622274797089001,-0.17416084117419905,0.1263569652942148,0.0,0.0,0.0,0.6109867940577657,0.1263569652942148,0.0,0.0,-0.16718538562841828,0.0,0.0,-0.0018533795382170946,0.0,1.5481995634287444,0.0,7.486168139749317,0.0,-0.286783460345425,0.0,87.51847026759536,-1.6529890593165957,0.0,-7.463729796460906,0.0,-0.286783460345425,0.0
sim_raptor_glider_3dof,raptor_glider_3dof,0.009000000000000001,-14.892239475216805,0.0,-0.0007878061944190816,11.946308153358418,0.0,-0.18869588751539912,0.0,0.0,0.0,-20.305051401867644,-0.35439000174928065,-0.014830765984455329,0.0,0.0,0.0,0.0,0.0,-0.0016173319713741522,-0.0926662960313122,0.0,0.0,11.94779831738731,0.0007878061944190816,0.03511063597927447,-0.015794017256843058,-0.9049305303738971,0.0,0.0,0.014176685285468905,0.8122642343425849,-6.076161026056375,0.0,-21.14262017855522,11.946597712766854,0.0,-0.16937450303056048,0.0,-37.71537034751194,0.0,0.0,-0.35439000174928065,0.0,0.18367459766213098,0.3490658503988659,1.0,0.14,0.14,0.75,0.08726646259971647,5.0,0.184,0.175,0.174,0.0,0.0,0.0,0.0001720880973247974,0.0,0.009536302309219612,0.0,6.0915159188973895,0.0,-0.5163700194166796,0.0,0.1759073999075818,0.0,-3.764712098645092,0.0,-0.04154163523833026,0.0,-0.011832289123102404,0.6148993832474783,-0.1735588665168613,0.12586418961747825,0.0,0.0,0.0,0.602251524655753,0.12586418961747825,0.0,0.0,-0.16574216753812188,0.0,0.0,-0.0020763072378237463,0.0,1.5406789834274432,0.0,7.37204338735442,0.0,-0.2840344540871125,0.0,87.43432039780436,-1.6569161652483522,0.0,-7.346791425945734,0.0,-0.2840344540871125,0.0
sim_raptor_glider_3dof,raptor_glider_3dof,0.01,-14.880295869220193,0.0,-0.0009655694911653884,11.940219556377617,0.0,-0.20984917766884964,0.0,0.0,0.0,-22.455567100084483,-0.39192358129898924,-0.016409374416076813,0.0,0.0,0.0,0.0,0.0,-0.0019905190378259733,-0.11404833990786974,0.0,0.0,11.942063462060096,0.0009655694911653884,0.035093783132211044,-0.0175731756525642,-1.006868797533985,0.0,0.0,0.015582656614738228,0.8928204576261153,-6.101038905023047,0.0,-21.163122773315308,11.940613610326592,0.0,-0.18608154329250431,0.0,-37.352080243645965,0.0,0.0,-0.39192358129898924,0.0,0.18367459766213098,0.3490658503988659,1.0,0.14,0.14,0.75,0.08726646259971647,5.0,0.184,0.175,0.174,0.0,0.0,0.0,0.00013939395264246467,0.0,0.009517319441413825,0.0,6.092521887254076,0.0,-0.5165896865090708,0.0,0.1738562548666639,0.0,-3.765773295560719,0.0,-0.04101048529489602,0.0,-0.011631217338449145,0.6074878706690136,-0.1729545188882601,0.12537651015774806,0.0,0.0,0.0,0.5934914444789603,0.12537651015774806,0.0,0.0,-0.1643033611320514,0.0,0.0,-0.002297312418250754,0.0,1.533236449469179,0.0,7.257840515566635,0.0,-0.2812985163148978,0.0,87.35040488047157,-1.6605364529628222,0.0,-7.229777427263101,0.0,-0.2812985163148978,0.0
sim_raptor_glider_3dof,raptor_glider_3dof,0.01,-14.880295869220193,0.0,-0.0009655694911653884,11.940219556377617,0.0,-0.20984917766884964,0.0,0.0,0.0,-22.455567100084483,-0.39192358129898924,-0.016409374416076813,0.0,0.0,0.0,0.0,0.0,-0.0019905190378259733,-0.11404833990786974,0.0,0.0,11.942063462060096,0.0009655694911653884,0.035093783132211044,-0.0175731756525642,-1.006868797533985,0.0,0.0,0.015582656614738228,0.8928204576261153,-4.711087141597418,0.0,-18.445508192775698,11.940613610326592,0.0,-0.18608154329250431,0.0,-5.392736965489907,0.0,0.0,-0.39192358129898924,0.0,-0.04468882766372234,0.3490658503988659,1.0,0.14,0.14,0.75,0.08726646259971647,5.0,0.184,0.175,0.174,0.0,0.0,0.0,-0.009572166273482797,0.0,0.0013795940046144452,0.0,6.079156200250121,0.0,-0.5175929625332063,0.0,0.17253172414348206,0.0,-3.779471271535616,0.0,-0.03714017907113752,0.0,-0.008583814239798666,0.5458051997350676,-0.03240405768609528,0.09519877904511453,0.0,0.0,0.0,0.5318394787037469,0.09519877904511453,0.0,0.0,-0.02372143139957454,0.0,0.0,-0.002297312418250754,0.0,1.1641912651204231,0.0,6.503895131466773,0.0,-0.04061270208710449,0.0,87.35040488047157,-1.2782997180207742,0.0,-6.482433417614707,0.0,-0.04061270208710449,0.0
sim_raptor_glider_3dof,raptor_glider_3dof,0.011,-14.868357558140758,0.0,-0.0011584813937730335,11.93549996288402,0.0,-0.2281663770033405,0.0,0.0,0.0,-22.760290609125434,-0.3972420098399846,-0.016638157006579946,0.0,0.0,0.0,0.0,0.0,-0.0023851119095329187,-0.13665684608262485,0.0,0.0,11.937680648249863,0.0011584813937730335,0.0350809034889355,-0.019114288443378143,-1.0951680562012516,0.0,0.0,0.016729176533845223,0.9585112101186267,-4.727979823292934,0.0,-18.189265590359224,11.936010215636939,0.0,-0.1996982518949844,0.0,-5.2444927864915645,0.0,0.0,-0.3972420098399846,0.0,-0.04468882766372234,0.3490658503988659,1.0,0.14,0.14,0.75,0.08726646259971647,5.0,0.184,0.175,0.174,0.0,0.0,0.0,-0.009635531735451112,0.0,0.0013693878885201781,0.0,6.079478246369455,0.0,-0.5177935134758026,0.0,0.1707492679552321,0.0,-3.778937664586401,0.0,-0.036670098784862055,0.0,-0.008417658813761955,0.5393905293230716,-0.03188871941469149,0.09486340192541735,0.0,0.0,0.0,0.5252293454217061,0.09486340192541735,0.0,0.0,-0.0230862812692861,0.0,0.0,-0.0023293419809211928,0.0,1.1592385547026824,0.0,6.4183456940832855,0.0,-0.03949627517506797,0.0,87.2863003294304,-1.2817014343774324,0.0,-6.3950165682804485,0.0,-0.03949627517506797,0.0
sim_raptor_glider_3dof,raptor_glider_3dof,0.012,-14.856423851087257,0.0,-0.0013648552497230427,11.930763929095477,0.0,-0.24622843705566572,0.0,0.0,0.0,-23.056592380470896,-0.4024134513294543,-0.01686093953309122,0.0,0.0,0.0,0.0,0.0,-0.0027849509828520823,-0.1595659374682348,0.0,0.0,11.933304503574046,0.0013648552497230427,0.03506804344404492,-0.02063518217458978,-1.1823088480875825,0.0,0.0,0.017850231191737696,1.0227429106193477,-4.743945072188194,0.0,-17.93519278815981,11.931403395150705,0.0,-0.21300093240843196,0.0,-5.098781640860137,0.0,0.0,-0.4024134513294543,0.0,-0.04468882766372234,0.3490658503988659,1.0,0.14,0.14,0.75,0.08726646259971647,5.0,0.184,0.175,0.174,0.0,0.0,0.0,-0.009697961473896255,0.0,0.001359063605374891,0.0,6.079785014362039,0.0,-0.5179885703696745,0.0,0.1689892330999272,0.0,-3.7784023157602795,0.0,-0.03620655577684585,0.0,-0.008255248954512812,0.5330475686733371,-0.03138036279403192,0.09453687382664236,0.0,0.0,0.0,0.5186960444231478,0.09453687382664236,0.0,0.0,-0.02246132497715029,0.0,0.0,-0.002360531534632771,0.0,1.1544015221580233,0.0,6.3338618994049956,0.0,-0.0383989245373177,0.0,87.22231680087336,-1.2848468713490617,0.0,-6.308693838844896,0.0,-0.0383989245373177,0.0
sim_raptor_glider_3dof,raptor_glider_3dof,0.013000000000000001,-14.84449475215393,0.0,-0.0015843829056992032,11.926012364959904,0.0,-0.26403747860464977,0.0,0.0,0.0,-23.344614357024028,-0.40744038313840836,-0.017077819108348824,0.0,0.0,0.0,0.0,0.0,-0.003189892090230608,-0.18276735387237822,0.0,0.0,11.92893485267165,0.0015843829056992032,0.0350552024822112,-0.022136011831091477,-1.268300053173199,0.0,0.0,0.01894611974086087,1.0855326993008207,-4.759005197901069,0.0,-17.683320828574438,11.926793938605538,0.0,-0.2259935072664491,0.0,-4.9555732484807935,0.0,0.0,-0.40744038313840836,0.0,-0.04468882766372234,0.3490658503988659,1.0,0.14,0.14,0.75,0.08726646259971647,5.0,0.184,0.175,0.174,0.0,0.0,0.0,-0.009759469157677015,0.0,0.001348634303915281,0.0,6.080076977262225,0.0,-0.5181782729045314,0.0,0.16725148796654934,0.0,-3.7778655087649655,0.0,-0.03574948562648577,0.0,-0.008096512584331873,0.5267765933230163,-0.030878933285432814,0.09421901667682149,0.0,0.0,0.0,0.5122397696534634,0.09421901667682149,0.0,0.0,-0.021846454757022654,0.0,0.0,-0.0023908946751688355,0.0,1.1496777050055076,0.0,6.250443525724245,0.0,-0.037320422134308855,0.0,87.15845162500405,-1.2877446363844456,0.0,-6.223465019192922,0.0,-0.037320422134308855,0.0
sim_raptor_glider_3dof,raptor_glider_3dof,0.014,-14.832570263711311,0.0,-0.0018167452135745793,11.921246197484411,0.0,-0.2815957918961954,0.0,0.0,0.0,-23.62450416124446,-0.4123253817648172,-0.01728889710619871,0.0,0.0,0.0,0.0,0.0,-0.0035997867998858748,-0.20625259078036529,0.0,0.0,11.924571568448494,0.0018167452135745793,0.0350423802299465,-0.02361694666646406,-1.3531513689739494,0.0,0.0,0.020017159866578187,1.1468987781935842,-4.773182639080395,0.0,-17.433677126863067,11.922182639667263,0.0,-0.2386801153567459,0.0,-4.8148358289222735,0.0,0.0,-0.4123253817648172,0.0,-0.04468882766372234,0.3490658503988659,1.0,0.14,0.14,0.75,0.08726646259971647,5.0,0.184,0.175,0.174,0.0,0.0,0.0,-0.009820068691979891,0.0,0.0013381124634422,0.0,6.080354600114945,0.0,-0.5183627593612273,0.0,0.1655358827590649,0.0,-3.777327514569086,0.0,-0.035298820116794014,0.0,-0.007941377086339064,0.5205777727909062,-0.030384371319290587,0.09390965130064623,0.0,0.0,0.0,0.5058606052838237,0.09390965130064623,0.0,0.0,-0.021241555576278832,0.0,0.0,-0.0024204455948678197,0.0,1.145064644350454,0.0,6.1680890734629,0.0,-0.03626052862761364,0.0,87.09470284100108,-1.290403212906945,0.0,-6.139328579415935,0.0,-0.03626052862761364,0.0
sim_raptor_glider_3dof,raptor_glider_3dof,0.015,-14.820650387186792,0.0,-0.0020616428100833626,11.916466284622587,0.0,-0.29890558607974727,0.0,0.0,0.0,-23.896400354861004,-0.41707086556706585,-0.017494268507003242,0.0,0.0,0.0,0.0,0.0,-0.004014496563850236,-0.2300137099783897,0.0,0.0,11.92021448053417,0.0020616428100833626,0.03502957618658841,-0.02507814937645907,-1.4368721172697418,0.0,0.0,0.021063652812608833,1.206858407291352,-4.786499373799549,0.0,-17.186286464636773,11.917570213003007,0.0,-0.2510646930174829,0.0,-4.676538883243518,0.0,0.0,-0.41707086556706585,0.0,-0.04468882766372234,0.3490658503988659,1.0,0.14,0.14,0.75,0.08726646259971647,5.0,0.184,0.175,0.174,0.0,0.0,0.0,-0.00987977337664679,0.0,0.001327510054529043,0.0,6.080618335961745,0.0,-0.5185421640087887,0.0,0.1638422736475819,0.0,-3.776788598839952,0.0,-0.03485449356696034,0.0,-0.0077897715277610545,0.5144512593283856,-0.029896619274795422,0.0936086019138865,0.0,0.0,0.0,0.49955862354827657,0.0936086019138865,0.0,0.0,-0.02064651773687417,0.0,0.0,-0.002449197590980454,0.0,1.1405599219492428,0.0,6.086796865179644,0.0,-0.035219014329706935,0.0,87.03106785898035,-1.292830885299995,0.0,-6.056282796859146,0.0,-0.035219014329706935,0.0
sim_raptor_glider_3dof,raptor_glider_3dof,0.016,-14.80873512338231,0.0,-0.0023187755173966363,11.911673476895587,0.0,-0.3159691247033129,0.0,0.0,0.0,-24.160441945325502,-0.4216792606828738,-0.017694028755244718,0.0,0.0,0.0,0.0,0.0,-0.004433882996887865,-0.25404278257649177,0.0,0.0,11.915863439463529,0.0023187755173966363,0.03501678991290819,-0.02651978735315082,-1.5194718889199585,0.0,0.0,0.022085904356262957,1.2654291063434668,-4.7989772441517875,0.0,-16.941170931083633,11.912957354935665,0.0,-0.26315122539676594,0.0,-4.540651577555117,0.0,0.0,-0.4216792606828738,0.0,-0.04468882766372234,0.3490658503988659,1.0,0.14,0.14,0.75,0.08726646259971647,5.0,0.184,0.175,0.174,0.0,0.0,0.0,-0.009938596379767,0.0,0.0013168384784331135,0.0,6.080868628159018,0.0,-0.5187166185794809,0.0,0.16217050978166297,0.0,-3.776249017980499,0.0,-0.034416439392111066,0.0,-0.007641625476440714,0.5083971426706431,-0.029415617738953206,0.09331569378448121,0.0,0.0,0.0,0.4933338336597515,0.09331569378448121,0.0,0.0,-0.020061229519397587,0.0,0.0,-0.0024771640257342607,0.0,1.1361611439123758,0.0,6.006564491457016,0.0,-0.034195647030567586,0.0,86.96754439799157,-1.2950357787043272,0.0,-5.974325189244744,0.0,-0.034195647030567586,0.0
sim_raptor_glider_3dof,raptor_glider_3dof,0.017,-14.796824472399589,0.0,-0.002587847242736905,11.906868602530567,0.0,-0.3327886927500226,0.0,0.0,0.0,-24.416766128437775,-0.42615296163066785,-0.017888272127305465,0.0,0.0,0.0,0.0,0.0,-0.004857810189605648,-0.2783320215400498,0.0,0.0,11.911518300869561,0.002587847242736905,0.03500402098465885,-0.027942029958481645,-1.6009603876491052,0.0,0.0,0.023084219768875997,1.3226283661090552,-4.810637855490141,0.0,-16.698350049914986,11.908344729704433,0.0,-0.2749436859997486,0.0,-4.407143135404928,0.0,0.0,-0.42615296163066785,0.0,-0.04468882766372234,0.3490658503988659,1.0,0.14,0.14,0.75,0.08726646259971647,5.0,0.184,0.175,0.174,0.0,0.0,0.0,-0.00999655063771565,0.0,0.0013061086025480976,0.0,6.081105909944862,0.0,-0.5188862519680297,0.0,0.16052043648754344,0.0,-3.7757090201426653,0.0,-0.03398459092207736,0.0,-0.007496869299843614,0.5024154631166363,-0.02894130643661106,0.09303075386555552,0.0,0.0,0.0,0.48718619628734805,0.09303075386555552,0.0,0.0,-0.019485578976994315,0.0,0.0,-0.0025043580978227654,0.0,1.1318659452287974,0.0,5.9273889724693225,0.0,-0.033190194952734516,0.0,86.90413025479775,-1.297025846987069,0.0,-5.893452680828708,0.0,-0.033190194952734516,0.0
sim_raptor_glider_3dof,raptor_glider_3dof,0.018000000000000002,-14.784918433651864,0.0,-0.002868566093917023,11.902052466998168,0.0,-0.34936659474609716,0.0,0.0,0.0,-24.66550823513196,-0.43049433038082835,-0.018077091689955187,0.0,0.0,0.0,0.0,0.0,-0.005286144752691801,-0.3028737842244665,0.0,0.0,11.907178924695037,0.002868566093917023,0.034991268990258416,-0.02934504837614348,-1.6813474215602513,0.0,0.0,0.02405890362345168,1.3784736373357847,-4.821502556954254,0.0,-16.457840876989145,11.903732969707885,0.0,-0.2864460343435742,0.0,-4.275982856727825,0.0,0.0,-0.43049433038082835,0.0,-0.04468882766372234,0.3490658503988659,1.0,0.14,0.14,0.75,0.08726646259971647,5.0,0.184,0.175,0.174,0.0,0.0,0.0,-0.010053648860692854,0.0,0.0012953307778888622,0.0,6.081330604523635,0.0,-0.5190511902603757,0.0,0.1588918954804792,0.0,-3.775168845332511,0.0,-0.033558881434647796,0.0,-0.007355434188362131,0.4965062138003325,-0.028473624298117388,0.0927536108738443,0.0,0.0,0.0,0.4811156258694459,0.0927536108738443,0.0,0.0,-0.018919454027418063,0.0,0.0,-0.002530792836593726,0.0,1.1276719904256423,0.0,5.849266786896252,0.0,-0.03220242689401725,0.0,86.84082329222949,-1.2988088708934662,0.0,-5.8136616326689134,0.0,-0.03220242689401725,0.0
sim_raptor_glider_3dof,raptor_glider_3dof,0.019000000000000003,-14.773017005975172,0.0,-0.0031606439014253878,11.897225855814801,0.0,-0.365705149796761,0.0,0.0,0.0,-24.906801941600797,-0.4347057000230503,-0.018260579447120326,0.0,0.0,0.0,0.0,0.0,-0.005718755503937731,-0.3276605544428422,0.0,0.0,11.902845177555495,0.0031606439014253878,0.034978533537733975,-0.030729015197079067,-1.760642879385998,0.0,0.0,0.025010259693141336,1.432982324943156,-4.831592427961628,0.0,-16.21965820658017,11.899122678867952,0.0,-0.2976622147778794,0.0,-4.147140136335964,0.0,0.0,-0.4347057000230503,0.0,-0.04468882766372234,0.3490658503988659,1.0,0.14,0.14,0.75,0.08726646259971647,5.0,0.184,0.175,0.174,0.0,0.0,0.0,-0.010109903527187629,0.0,0.00128451485840991,0.0,6.081543125117099,0.0,-0.5192115567329553,0.0,0.15728472538615437,0.0,-3.774628725626313,0.0,-0.0331392442695832,0.0,-0.007217252203438635,0.49066934404084295,-0.0280125096149684,0.09248409541490094,0.0,0.0,0.0,0.47512199384522247,0.09248409541490094,0.0,0.0,-0.01836274253309294,0.0,0.0,-0.002556481122596846,0.0,1.1235769753928613,0.0,5.772193914989946,0.0,-0.031232112366746147,0.0,86.77762147351505,-1.3003924567687526,0.0,-5.734947887318494,0.0,-0.031232112366746147,0.0
sim_raptor_glider_3dof,raptor_glider_3dof,0.02,-14.761120187613926,0.0,-0.003463796442428399,11.892389533499683,0.0,-0.3818066907678399,0.0,0.0,0.0,-25.140779168823943,-0.43878937301278115,-0.0184388262648385,0.0,0.0,0.0,0.0,0.0,-0.006155513585905917,-0.35268494920784815,0.0,0.0,11.89851693134938,0.003463796442428399,0.034965814250637335,-0.03209410436083838,-1.8388567271284495,0.0,0.0,0.025938590774932463,1.4861717779206016,-4.840928262203428,0.0,-15.983814635935408,11.89451443225552,0.0,-0.3085961543393823,0.0,-4.0205844790672,0.0,0.0,-0.43878937301278115,0.0,-0.04468882766372234,0.3490658503988659,1.0,0.14,0.14,0.75,0.08726646259971647,5.0,0.184,0.175,0.174,0.0,0.0,0.0,-0.010165326892696353,0.0,0.00127367021740279,0.0,6.081743875083366,0.0,-0.5193674718960452,0.0,0.15569876184900705,0.0,-3.774088885259402,0.0,-0.032725612834547876,0.0,-0.007082256287546053,0.4849047611521439,-0.027557900075979788,0.09222204003143801,0.0,0.0,0.0,0.4692051305341568,0.09222204003143801,0.0,0.0,-0.01781533237910993,0.0,0.0,-0.0025814356770773902,0.0,1.119578627555751,0.0,5.696165861289472,0.0,-0.030279021711855085,0.0,86.71452284183543,-1.3017840357084762,0.0,-5.657306792721586,0.0,-0.030279021711855085,0.0
sim_raptor_glider_3dof,raptor_glider_3dof,0.02,-14.761120187613926,0.0,-0.003463796442428399,11.892389533499683,0.0,-0.3818066907678399,0.0,0.0,0.0,-25.140779168823943,-0.43878937301278115,-0.0184388262648385,0.0,0.0,0.0,0.0,0.0,-0.006155513585905917,-0.35268494920784815,0.0,0.0,11.89851693134938,0.003463796442428399,0.034965814250637335,-0.03209410436083838,-1.8388567271284495,0.0,0.0,0.025938590774932463,1.4861717779206016,-4.84379484995345,0.0,-15.97405380314916,11.89451443225552,0.0,-0.3085961543393823,0.0,-3.90850600764724,0.0,0.0,-0.43878937301278115,0.0,-0.04554425549003821,0.3490658503988659,1.0,0.14,0.14,0.75,0.08726646259971647,5.0,0.184,0.175,0.174,0.0,0.0,0.0,-0.010304912246752201,0.0,0.0013123972726542092,0.0,6.081600524030465,0.0,-0.5193964944619343,0.0,0.1556969550859493,0.0,-3.773592038127161,0.0,-0.03268393627189954,0.0,-0.007096602931963728,0.48468548305822684,-0.027059994373914976,0.09229403644171923,0.0,0.0,0.0,0.46898622249176203,0.09229403644171923,0.0,0.0,-0.01731870925595834,0.0,0.0,-0.0025814356770773902,0.0,1.1204526663666916,0.0,5.693508310387522,0.0,-0.029434958743591366,0.0,86.71452284183543,-1.3025723473397322,0.0,-5.6546225637053675,0.0,-0.029434958743591366,0.0
sim_raptor_glider_3dof,raptor_glider_3dof,0.021,-14.749227982281091,0.0,-0.003777735885436844,11.887541431216471,0.0,-0.3976631826937359,0.0,0.0,0.0,-25.361169504151032,-0.4426359100038132,-0.018607230770775043,0.0,0.0,0.0,0.0,0.0,-0.006596234382870769,-0.37793639081757624,0.0,0.0,11.894190905049333,0.003777735885436844,0.03495310148711197,-0.03343962672808945,-1.9159494800123875,0.0,0.0,0.02684339234521868,1.5380130891948114,-4.8523422940732726,0.0,-15.739572566970967,11.889905877396147,0.0,-0.3192420906127227,0.0,-3.784974232622541,0.0,0.0,-0.4426359100038132,0.0,-0.04554425549003821,0.3490658503988659,1.0,0.14,0.14,0.75,0.08726646259971647,5.0,0.184,0.175,0.174,0.0,0.0,0.0,-0.010360072595472955,0.0,0.0013014731364331344,0.0,6.081786527666499,0.0,-0.5195482164420683,0.0,0.1541330496424477,0.0,-3.7730448509420142,0.0,-0.0322763977336399,0.0,-0.006964782218360201,0.47899689491275765,-0.026612366466533244,0.09203966792957984,0.0,0.0,0.0,0.4631537661541143,0.09203966792957984,0.0,0.0,-0.016783538191538484,0.0,0.0,-0.002605012307908506,0.0,1.11655227587973,0.0,5.618614270504629,0.0,-0.028504640945880358,0.0,86.65147950384761,-1.3037774150903734,0.0,-5.5781430384484345,0.0,-0.028504640945880358,0.0
sim_raptor_glider_3dof,raptor_glider_3dof,0.022,-14.737340379293796,0.0,-0.0041021782570380486,11.882685135883165,0.0,-0.41328658022413195,0.0,0.0,0.0,-25.574550772179048,-0.4463601156929826,-0.01877060517108591,0.0,0.0,0.0,0.0,0.0,-0.0070407387546910566,-0.4034046152979926,0.0,0.0,11.889870135368682,0.0041021782570380486,0.0349404041710561,-0.034766557142440424,-1.991976992462244,0.0,0.0,0.027725818387749367,1.5885723771642513,-4.860174851001496,0.0,-15.507472247901994,11.885300431654038,0.0,-0.3296141460198568,0.0,-3.6636687160361094,0.0,0.0,-0.4463601156929826,0.0,-0.04554425549003821,0.3490658503988659,1.0,0.14,0.14,0.75,0.08726646259971647,5.0,0.184,0.175,0.174,0.0,0.0,0.0,-0.010414413894513402,0.0,0.001290537922896874,0.0,6.081961587247741,0.0,-0.5196957118016856,0.0,0.15259009032145213,0.0,-3.772498519343398,0.0,-0.031874753409572326,0.0,-0.006836021858171452,0.4733805801318425,-0.026171139366154065,0.09179243749601945,0.0,0.0,0.0,0.4573978861850511,0.09179243749601945,0.0,0.0,-0.016257448136039906,0.0,0.0,-0.0026278847239520277,0.0,1.112744184568267,0.0,5.544757844656919,0.0,-0.027591089100467942,0.0,86.58853565426742,-1.3048050662597006,0.0,-5.5027286790498735,0.0,-0.027591089100467942,0.0
sim_raptor_glider_3dof,raptor_glider_3dof,0.023,-14.72545737990644,0.0,-0.004436853644909079,11.87782136615898,0.0,-0.428679105636678,0.0,0.0,0.0,-25.7810465379866,-0.44996414669775153,-0.01892903465486374,0.0,0.0,0.0,0.0,0.0,-0.0074889054712416305,-0.42908267667457634,0.0,0.0,11.88555451722772,0.004436853644909079,0.03492772199367516,-0.03607506072581667,-2.0669487252674474,0.0,0.0,0.02858615525457504,1.637866048592871,-4.867312391095078,0.0,-15.277761176496211,11.88069859889171,0.0,-0.33971603477730056,0.0,-3.5445604798683497,0.0,0.0,-0.44996414669775153,0.0,-0.04554425549003821,0.3490658503988659,1.0,0.14,0.14,0.75,0.08726646259971647,5.0,0.184,0.175,0.174,0.0,0.0,0.0,-0.010467947449290093,0.0,0.0012795998185397893,0.0,6.082126076296918,0.0,-0.5198390919085881,0.0,0.15106791907162745,0.0,-3.771953249572644,0.0,-0.03147894057479886,0.0,-0.0067102585881255545,0.46783638339156614,-0.02573625306201943,0.09155218542716961,0.0,0.0,0.0,0.45171835485327966,0.09155218542716961,0.0,0.0,-0.01574033233314332,0.0,0.0,-0.002650064851680924,0.0,1.109026238007564,0.0,5.471933907251417,0.0,-0.026694084973888543,0.0,86.5256896796856,-1.3056622016589234,0.0,-5.428374167011348,0.0,-0.026694084973888543,0.0
sim_raptor_glider_3dof,raptor_glider_3dof,0.024,-14.713578980617157,0.0,-0.004781514756325057,11.872950753006997,0.0,-0.44384296305156035,0.0,0.0,0.0,-25.980772044654802,-0.45345001438932553,-0.019082598544899,0.0,0.0,0.0,0.0,0.0,-0.007940624720549926,-0.45496428318475945,0.0,0.0,11.881243880973903,0.004781514756325057,0.0349150544564163,-0.03736530148261958,-2.1408740751880195,0.0,0.0,0.029424676762069654,1.68590979200326,-4.873774256241797,0.0,-15.050444796738748,11.87610079266631,0.0,-0.3495513147027437,0.0,-3.4276213680979,0.0,0.0,-0.45345001438932553,0.0,-0.04554425549003821,0.3490658503988659,1.0,0.14,0.14,0.75,0.08726646259971647,5.0,0.184,0.175,0.174,0.0,0.0,0.0,-0.010520684278414514,0.0,0.0012686666137083826,0.0,6.082280358975531,0.0,-0.5199784653695286,0.0,0.1495663779068747,0.0,-3.7714092415681306,0.0,-0.031088897272691138,0.0,-0.006587430219108185,0.4623641237300615,-0.02530764782482147,0.0913187543935626,0.0,0.0,0.0,0.44611492372416195,0.0913187543935626,0.0,0.0,-0.01523208743407014,0.0,0.0,-0.0026715637962858602,0.0,1.1053963050692646,0.0,5.400137042996156,0.0,-0.025813416523145286,0.0,86.46293902918681,-1.3063555360180787,0.0,-5.355073882582291,0.0,-0.025813416523145286,0.0
sim_raptor_glider_3dof,raptor_glider_3dof,0.025,-14.701705176842253,0.0,-0.005135874351712859,11.868074021117488,0.0,-0.45878074816948244,0.0,0.0,0.0,-26.173861243142458,-0.456820056652972,-0.019231389832254746,0.0,0.0,0.0,0.0,0.0,-0.008395769406995376,-0.48104215278588897,0.0,0.0,11.876938189012131,0.005135874351712859,0.034902401448799934,-0.038637476222677464,-2.2137643185964886,0.0,0.0,0.030241706815682088,1.7327221658105998,-4.879580205777925,0.0,-14.825524846613416,11.87150751169077,0.0,-0.3591241365940072,0.0,-3.312819319289988,0.0,0.0,-0.456820056652972,0.0,-0.04554425549003821,0.3490658503988659,1.0,0.14,0.14,0.75,0.08726646259971647,5.0,0.184,0.175,0.174,0.0,0.0,0.0,-0.01057263650852212,0.0,0.001257745424444939,0.0,6.08242479402542,0.0,-0.5201139416802641,0.0,0.14808526944436876,0.0,-3.7708666745391004,0.0,-0.030704552056360707,0.0,-0.006467472443918468,0.4569634518151225,-0.024885252957401648,0.09109198344476083,0.0,0.0,0.0,0.44058716428762407,0.09109198344476083,0.0,0.0,-0.014732591974108915,0.0,0.0,-0.0026923945765156645,0.0,1.1018522417925178,0.0,5.329359800028028,0.0,-0.0249488422935729,0.0,86.40028307686946,-1.3068916748770336,0.0,-5.282820117232375,0.0,-0.0249488422935729,0.0
sim_raptor_glider_3dof,raptor_glider_3dof,0.026000000000000002,-14.689835963915431,0.0,-0.005499677108580285,11.863191803282866,0.0,-0.47349481213758887,0.0,0.0,0.0,-26.360433286254477,-0.4600763530974495,-0.01937549090508174,0.0,0.0,0.0,0.0,0.0,-0.00885422709775156,-0.5073098435515322,0.0,0.0,11.872637327005277,0.005499677108580285,0.03488976263482699,-0.03989176164339617,-2.2856295795084614,0.0,0.0,0.031037534545644608,1.7783197359569292,-4.884749163293023,0.0,-14.603002721634786,11.866919160812346,0.0,-0.36843823002486015,0.0,-3.200125076341416,0.0,0.0,-0.4600763530974495,0.0,-0.04554425549003821,0.3490658503988659,1.0,0.14,0.14,0.75,0.08726646259971647,5.0,0.184,0.175,0.174,0.0,0.0,0.0,-0.010623815220040826,0.0,0.0012468431517436312,0.0,6.082559728418221,0.0,-0.5202456255180619,0.0,0.14662441851192184,0.0,-3.7703257292287997,0.0,-0.030325839979597098,0.0,-0.006350323898063493,0.45163407556621316,-0.02446900439039326,0.09087171767458652,0.0,0.0,0.0,0.43513471426855144,0.09087171767458652,0.0,0.0,-0.014241736727771697,0.0,0.0,-0.002712568726711444,0.0,1.0983919693489221,0.0,5.259595482161545,0.0,-0.024100141949927205,0.0,86.3377200815806,-1.3072770063492358,0.0,-5.211605931282116,0.0,-0.024100141949927205,0.0
sim_raptor_glider_3dof,raptor_glider_3dof,0.027,-14.677971336721228,0.0,-0.005872666056644295,11.858304727765688,0.0,-0.4879875527658002,0.0,0.0,0.0,-26.540608153960846,-0.46322099776827086,-0.019514984862470316,0.0,0.0,0.0,0.0,0.0,-0.009315885022614202,-0.5337608942249292,0.0,0.0,11.868341201204338,0.005872666056644295,0.03487713773900008,-0.04112833855564025,-2.3564802176233663,0.0,0.0,0.031812453533026044,1.822719323398437,-4.889299792116617,0.0,-14.38287808429535,11.862336135946387,0.0,-0.3774973722093463,0.0,-3.0895090934674703,0.0,0.0,-0.46322099776827086,0.0,-0.04554425549003821,0.3490658503988659,1.0,0.14,0.14,0.75,0.08726646259971647,5.0,0.184,0.175,0.174,0.0,0.0,0.0,-0.010674231447559588,0.0,0.0012359662920366887,0.0,6.0826855005167,0.0,-0.5203736194396372,0.0,0.14518364399928427,0.0,-3.76978657788296,0.0,-0.029952695258413306,0.0,-0.006235923833018814,0.4463756587365344,-0.024058836643172588,0.09065780380092194,0.0,0.0,0.0,0.42975716657132923,0.09065780380092194,0.0,0.0,-0.013759410722874423,0.0,0.0,-0.0027320978807458445,0.0,1.0950134385142682,0.0,5.19083689394023,0.0,-0.02326709298290352,0.0,86.27524860398903,-1.3075177537031322,0.0,-5.141423870268723,0.0,-0.02326709298290352,0.0
sim_raptor_glider_3dof,raptor_glider_3dof,0.028,-14.666111289745137,0.0,-0.006254588113523823,11.853413403741348,0.0,-0.5022613668123984,0.0,0.0,0.0,-26.71450408387997,-0.4662560543011769,-0.019649953651394853,0.0,0.0,0.0,0.0,0.0,-0.009780632560497592,-0.5603889666847438,0.0,0.0,11.864049721768165,0.006254588113523823,0.034864526497305724,-0.04234738792110817,-2.426326601282779,0.0,0.0,0.03256675536061058,1.8659376345980356,-4.893250396840651,0.0,-14.165149155388184,11.857758810472104,0.0,-0.38630531093747605,0.0,-2.9809420445054116,0.0,0.0,-0.4662560543011769,0.0,-0.04554425549003821,0.3490658503988659,1.0,0.14,0.14,0.75,0.08726646259971647,5.0,0.184,0.175,0.174,0.0,0.0,0.0,-0.010723896027006538,0.0,0.0012251209840100415,0.0,6.082802439750469,0.0,-0.5204980235044925,0.0,0.14376276350454106,0.0,-3.7692493860123424,0.0,-0.029585052457855195,0.0,-0.006124212489440158,0.44118783892648755,-0.023654684151266373,0.09045009089354092,0.0,0.0,0.0,0.4244540888848512,0.09045009089354092,0.0,0.0,-0.013285503548269626,0.0,0.0,-0.00275099351119528,0.0,1.0917146352261482,0.0,5.123076563433977,0.0,-0.022449474537170257,0.0,86.2128672636152,-1.3076199688223362,0.0,-5.072266193400196,0.0,-0.022449474537170257,0.0
sim_raptor_glider_3dof,raptor_glider_3dof,0.029,-14.654255817092617,0.0,-0.006645194103288198,11.848518421405137,0.0,-0.5163186485354061,0.0,0.0,0.0,-26.88223756202901,-0.46918355576069964,-0.019780478057526328,0.0,0.0,0.0,0.0,0.0,-0.010248361234696154,-0.587187845673571,0.0,0.0,11.859762802400489,0.006645194103288198,0.03485192865614766,-0.0435490907350301,-2.4951791007495006,0.0,0.0,0.03330072950033394,1.9079912550759297,-4.896618919795816,0.0,-13.949812790279433,11.853187535772982,0.0,-0.3948657632643637,0.0,-2.874394833583133,0.0,0.0,-0.46918355576069964,0.0,-0.04554425549003821,0.3490658503988659,1.0,0.14,0.14,0.75,0.08726646259971647,5.0,0.184,0.175,0.174,0.0,0.0,0.0,-0.010772819599782888,0.0,0.001214313022708619,0.0,6.082910866765462,0.0,-0.5206189353166775,0.0,0.14236159350566913,0.0,-3.7687143125461864,0.0,-0.029222846516165933,0.0,-0.006015131101549438,0.43607022925353733,-0.023256481315450474,0.09024843039784056,0.0,0.0,0.0,0.4192250253639054,0.09024843039784056,0.0,0.0,-0.012819905408433738,0.0,0.0,-0.002769266928053686,0.0,1.0884935806592,0.0,5.056306762884378,0.0,-0.021647067491714574,0.0,86.15057473344989,-1.3075895340230423,0.0,-5.004124895128016,0.0,-0.021647067491714574,0.0
sim_raptor_glider_3dof,raptor_glider_3dof,0.03,-14.642404912548573,0.0,-0.007044238356324159,11.843620354164347,0.0,-0.5301617883965992,0.0,0.0,0.0,-27.043923501676066,-0.47200550776172157,-0.019906637831048925,0.0,0.0,0.0,0.0,0.0,-0.01071896447868349,-0.6141514253792106,0.0,0.0,11.855480362071031,0.007044238356324159,0.03483934397740466,-0.04473362791360746,-2.5630480817583177,0.0,0.0,0.03401466343492397,1.9488966563791073,-4.899422943862754,0.0,-13.736864593289608,11.848622643752059,0.0,-0.4031824170495041,0.0,-2.769838590306195,0.0,0.0,-0.47200550776172157,0.0,-0.04554425549003821,0.3490658503988659,1.0,0.14,0.14,0.75,0.08726646259971647,5.0,0.184,0.175,0.174,0.0,0.0,0.0,-0.010821012616804333,0.0,0.0012035478732572772,0.0,6.083011093575881,0.0,-0.5207364500670472,0.0,0.14097994952588128,0.0,-3.768181509986213,0.0,-0.02886601276769401,0.0,-0.005908621900125374,0.43102241996026813,-0.02286416254867635,0.09005267615462115,0.0,0.0,0.0,0.41406949813357863,0.09005267615462115,0.0,0.0,-0.012362507104543266,0.0,0.0,-0.0027869292963468495,0.0,1.0853483316358867,0.0,4.990519528913818,0.0,-0.020859654423595955,0.0,86.08836976485179,-1.3074321644517888,0.0,-4.936991726224777,0.0,-0.020859654423595955,0.0
sim_raptor_glider_3dof,raptor_glider_3dof,0.03,-14.642404912548573,0.0,-0.007044238356324159,11.843620354164347,0.0,-0.5301617883965992,0.0,0.0,0.0,-27.043923501676066,-0.47200550776172157,-0.019906637831048925,0.0,0.0,0.0,0.0,0.0,-0.01071896447868349,-0.6141514253792106,0.0,0.0,11.855480362071031,0.007044238356324159,0.03483934397740466,-0.04473362791360746,-2.5630480817583177,0.0,0.0,0.03401466343492397,1.9488966563791073,-4.90223694575805,0.0,-13.727267450827055,11.848622643752059,0.0,-0.4031824170495041,0.0,-2.659687928533032,0.0,0.0,-0.47200550776172157,0.0,-0.04639592055061753,0.3490658503988659,1.0,0.14,0.14,0.75,0.08726646259971647,5.0,0.184,0.175,0.174,0.0,0.0,0.0,-0.010962588182097227,0.0,0.0012415043844597933,0.0,6.082837373162913,0.0,-0.5207671792648197,0.0,0.14097820553422621,0.0,-3.7676060323242346,0.0,-0.028824363487684208,0.0,-0.005922738954232941,0.4308060473224028,-0.022370927797113676,0.09012661169576058,0.0,0.0,0.0,0.41385360964222156,0.09012661169576058,0.0,0.0,-0.011870876168536151,0.0,0.0,-0.0027869292963468495,0.0,1.0862394302644995,0.0,4.987917560555748,0.0,-0.020030109789782265,0.0,86.08836976485179,-1.3082060149729953,0.0,-4.9343525120475755,0.0,-0.020030109789782265,0.0
sim_raptor_glider_3dof,raptor_glider_3dof,0.031,-14.630558581267069,0.0,-0.0074514737897043905,11.838717013935447,0.0,-0.5437827867597752,0.0,0.0,0.0,-27.193380721339864,-0.47461402833573124,-0.02002388214398983,0.0,0.0,0.0,0.0,0.0,-0.01119228064009568,-0.641270443803462,0.0,0.0,11.851199106217939,0.0074514737897043905,0.03482676277944676,-0.04590031545514779,-2.629894353899073,0.0,0.0,0.03470803481505211,1.9886239100956107,-4.9044299057258405,0.0,-13.515740832939846,11.844061563021292,0.0,-0.4112492511634686,0.0,-2.5578440244681686,0.0,0.0,-0.47461402833573124,0.0,-0.04639592055061753,0.3490658503988659,1.0,0.14,0.14,0.75,0.08726646259971647,5.0,0.184,0.175,0.174,0.0,0.0,0.0,-0.011010520982904797,0.0,0.0012307282586395249,0.0,6.082926862870065,0.0,-0.5208815030880173,0.0,0.13961691701381881,0.0,-3.7670690207829787,0.0,-0.028473006376814845,0.0,-0.005818805536902325,0.42583150479755333,-0.021984958698936043,0.0899369780976427,0.0,0.0,0.0,0.4087789713145865,0.0899369780976427,0.0,0.0,-0.011424570244875348,0.0,0.0,-0.0028033435001585763,0.0,1.083171161260124,0.0,4.923198471009613,0.0,-0.019263123348269778,0.0,86.02620445779166,-1.3079273499015729,0.0,-4.868312746415995,0.0,-0.019263123348269778,0.0
sim_raptor_glider_3dof,raptor_glider_3dof,0.032,-14.618716796748723,0.0,-0.007866638667913017,11.833811752958972,0.0,-0.5571939615998769,0.0,0.0,0.0,-27.3370720795145,-0.4771219156425411,-0.020136956561949176,0.0,0.0,0.0,0.0,0.0,-0.011668148616315925,-0.6685356704463138,0.0,0.0,11.846922204324347,0.007866638667913017,0.03481419437633885,-0.04705016066123814,-2.6957756313014003,0.0,0.0,0.035382012044922216,2.0272399608550864,-4.906091882300076,0.0,-13.306608750651352,11.839507475282202,0.0,-0.41908049113518175,0.0,-2.4579307168183737,0.0,0.0,-0.4771219156425411,0.0,-0.04639592055061753,0.3490658503988659,1.0,0.14,0.14,0.75,0.08726646259971647,5.0,0.184,0.175,0.174,0.0,0.0,0.0,-0.011057734782282516,0.0,0.0012200053179964247,0.0,6.083008799727879,0.0,-0.5209926084482583,0.0,0.1382748273605619,0.0,-3.766534695071097,0.0,-0.028126905349752734,0.0,-0.005717334927456309,0.420926047877166,-0.021604753470355426,0.08975296579537417,0.0,0.0,0.0,0.4037769881219155,0.08975296579537417,0.0,0.0,-0.01098623709423446,0.0,0.0,-0.002819173918672885,0.0,1.0801749212755978,0.0,4.859446955233283,0.0,-0.018510676228359172,0.0,85.96412479069532,-1.3075329534247608,0.0,-4.803265571149183,0.0,-0.018510676228359172,0.0
sim_raptor_glider_3dof,raptor_glider_3dof,0.033,-14.606879562691075,0.0,-0.00828951853734432,11.828905087369433,0.0,-0.5703971999285827,0.0,0.0,0.0,-27.475093430796953,-0.47953084266047163,-0.020245927245816593,0.0,0.0,0.0,0.0,0.0,-0.012146475016762996,-0.6959417544216155,0.0,0.0,11.842649557074667,0.00828951853734432,0.03480163847622518,-0.048183302695745625,-2.7606998874675464,0.0,0.0,0.03603682767898263,2.064758133045931,-4.907238970500791,0.0,-13.099868557108826,11.834960643344631,0.0,-0.4266791559994736,0.0,-2.359924066415326,0.0,0.0,-0.47953084266047163,0.0,-0.04639592055061753,0.3490658503988659,1.0,0.14,0.14,0.75,0.08726646259971647,5.0,0.184,0.175,0.174,0.0,0.0,0.0,-0.011104237929063666,0.0,0.0012093405359716541,0.0,6.083083468131829,0.0,-0.5211005798114726,0.0,0.13695179793432838,0.0,-3.7660032078068464,0.0,-0.02778600928446205,0.0,-0.005618275848919134,0.4160893813816996,-0.021230260193354257,0.08957444199917992,0.0,0.0,0.0,0.39884730823605585,0.08957444199917992,0.0,0.0,-0.01055578841996655,0.0,0.0,-0.0028344298144143236,0.0,1.0772489412297632,0.0,4.796656623477105,0.0,-0.01777258814417382,0.0,85.90212925433299,-1.307028035721915,0.0,-4.739204338152591,0.0,-0.01777258814417382,0.0
sim_raptor_glider_3dof,raptor_glider_3dof,0.034,-14.595046872634203,0.0,-0.008719910321924956,11.823997463173244,0.0,-0.5833946006276223,0.0,0.0,0.0,-27.60754017806421,-0.48184247448384204,-0.020350860202396084,0.0,0.0,0.0,0.0,0.0,-0.012627173568466451,-0.7234837526522747,0.0,0.0,11.838381023990095,0.008719910321924956,0.034789094666284916,-0.04929989902855721,-2.8246761447574356,0.0,0.0,0.03667272546009076,2.1011923921051605,-4.907886987130577,0.0,-12.895513078353343,11.83042126315158,0.0,-0.4340483907811936,0.0,-2.2637988737976777,0.0,0.0,-0.48184247448384204,0.0,-0.04639592055061753,0.3490658503988659,1.0,0.14,0.14,0.75,0.08726646259971647,5.0,0.184,0.175,0.174,0.0,0.0,0.0,-0.011150039366369626,0.0,0.0011987384402104687,0.0,6.08315114640258,0.0,-0.5212055013672423,0.0,0.13564766785326055,0.0,-3.7654746975483167,0.0,-0.02745026186712091,0.0,-0.0055215762663829455,0.41132111313741254,-0.020861420905359744,0.08940127307680845,0.0,0.0,0.0,0.3939894829375447,0.08940127307680845,0.0,0.0,-0.010133130022194578,0.0,0.0,-0.002849120428335452,0.0,1.07439143962662,0.0,4.734819910308683,0.0,-0.01704866931857031,0.0,85.84021574467197,-1.3064176592962646,0.0,-4.6761211968978476,0.0,-0.01704866931857031,0.0
sim_raptor_glider_3dof,raptor_glider_3dof,0.034999999999999996,-14.583218717831985,0.0,-0.009157549700415952,11.819089452674238,0.0,-0.5961889216506756,0.0,0.0,0.0,-27.734536557548687,-0.48405897944395837,-0.02045184250103899,0.0,0.0,0.0,0.0,0.0,-0.01311013233166683,-0.7511552514625145,0.0,0.0,11.834116643020485,0.009157549700415952,0.03477656305804015,-0.05040016239757862,-2.8877165921552073,0.0,0.0,0.03729003006591179,2.1365613406926927,-4.90805245263468,0.0,-12.69352958342506,11.825889652614805,0.0,-0.44119229910833047,0.0,-2.1695235638711936,0.0,0.0,-0.48405897944395837,0.0,-0.04639592055061753,0.3490658503988659,1.0,0.14,0.14,0.75,0.08726646259971647,5.0,0.184,0.175,0.174,0.0,0.0,0.0,-0.011195150151868574,0.0,0.0011882027596040584,0.0,6.083212108385305,0.0,-0.5213074603522352,0.0,0.13436221079635507,0.0,-3.764949270756838,0.0,-0.027119590491331745,0.0,-0.005427180299752172,0.4066205967367666,-0.020498159421402522,0.08923331918259811,0.0,0.0,0.0,0.38920279130501123,0.08923331918259811,0.0,0.0,-0.00971813849001366,0.0,0.0,-0.0028632579501454585,0.0,1.0716005979176082,0.0,4.673926148821183,0.0,-0.01633868195951396,0.0,85.77838474732518,-1.3057067782056389,0.0,-4.614005125207344,0.0,-0.01633868195951396,0.0
sim_raptor_glider_3dof,raptor_glider_3dof,0.036,-14.57139509066247,0.0,-0.0096022214702478,11.814181512138632,0.0,-0.6087824434774646,0.0,0.0,0.0,-27.85618383999555,-0.4861821250487596,-0.020548944609006452,0.0,0.0,0.0,0.0,0.0,-0.013595260662112143,-0.778951057319259,0.0,0.0,11.829856333246173,0.0096022214702478,0.03476404341369471,-0.05148426593779033,-2.9498311495645293,0.0,0.0,0.03788900527567819,2.1708800922452705,-4.907750768322808,0.0,-12.493907672190645,11.821366015846493,0.0,-0.44811425399580873,0.0,-2.077071486270565,0.0,0.0,-0.4861821250487596,0.0,-0.04639592055061753,0.3490658503988659,1.0,0.14,0.14,0.75,0.08726646259971647,5.0,0.184,0.175,0.174,0.0,0.0,0.0,-0.011239579572735534,0.0,0.0011777373324568616,0.0,6.083266617647617,0.0,-0.5214065381331089,0.0,0.13309524582251955,0.0,-3.764427046637379,0.0,-0.026793934780820247,0.0,-0.005335036462451719,0.40198733749992543,-0.02014041268550284,0.0890704490591099,0.0,0.0,0.0,0.38448667827242516,0.0890704490591099,0.0,0.0,-0.009310712284263223,0.0,0.0,-0.0028768522452609037,0.0,1.0688746842863845,0.0,4.613966598260081,0.0,-0.015642425363103625,0.0,85.71663502456884,-1.3049001576053345,0.0,-4.552847069609257,0.0,-0.015642425363103625,0.0
sim_raptor_glider_3dof,raptor_glider_3dof,0.037,-14.559575983056677,0.0,-0.010053705664375042,11.80927410053551,0.0,-0.6211775192730703,0.0,0.0,0.0,-27.972585589768695,-0.48821371883738357,-0.020642238753656277,0.0,0.0,0.0,0.0,0.0,-0.01408246621349246,-0.8068658791686952,0.0,0.0,11.825600039407263,0.010053705664375042,0.03475153557085798,-0.05255238910187305,-3.0110300988666285,0.0,0.0,0.03846992288838059,2.204164219697933,-4.906997110053847,0.0,-12.296635556425166,11.816850559040013,0.0,-0.4548177188113657,0.0,-1.9864154295869765,0.0,0.0,-0.48821371883738357,0.0,-0.04639592055061753,0.3490658503988659,1.0,0.14,0.14,0.75,0.08726646259971647,5.0,0.184,0.175,0.174,0.0,0.0,0.0,-0.011283337035800652,0.0,0.0011673456822397735,0.0,6.083314930603518,0.0,-0.5215028146114886,0.0,0.13184658378290534,0.0,-3.763908135666932,0.0,-0.026473232764683233,0.0,-0.005245093642526635,0.3974207973126439,-0.01978811560399733,0.08891253281548281,0.0,0.0,0.0,0.3798405438230759,0.08891253281548281,0.0,0.0,-0.008910746950340076,0.0,0.0,-0.002889913425511879,0.0,1.066211992956643,0.0,4.554932026014827,0.0,-0.01495969460021952,0.0,85.65496571214679,-1.304002418405275,0.0,-4.492637473504101,0.0,-0.01495969460021952,0.0
sim_raptor_glider_3dof,raptor_glider_3dof,0.038,-14.547761386749285,0.0,-0.010511785301341241,11.80436766330314,0.0,-0.633376493369876,0.0,0.0,0.0,-28.08384403426823,-0.49015554501454783,-0.020731796280032952,0.0,0.0,0.0,0.0,0.0,-0.014571658218121564,-0.8348945164054872,0.0,0.0,11.821347711356363,0.010511785301341241,0.03473903938216334,-0.053604710852621584,-3.0713236938743376,0.0,0.0,0.03903305263450002,2.23642917746885,-4.9058062922165675,0.0,-12.101700694797406,11.812343474933252,0.0,-0.4613061271999026,0.0,-1.8975285377706235,0.0,0.0,-0.49015554501454783,0.0,-0.04639592055061753,0.3490658503988659,1.0,0.14,0.14,0.75,0.08726646259971647,5.0,0.184,0.175,0.174,0.0,0.0,0.0,-0.011326431501422806,0.0,0.0011570307100887852,0.0,6.083357295219798,0.0,-0.5215963660573999,0.0,0.13061603628552043,0.0,-3.7633926443434986,0.0,-0.02615742242201463,0.0,-0.005157300965071533,0.39292042484741563,-0.019441203809194306,0.08875944272099982,0.0,0.0,0.0,0.37526377546737477,0.08875944272099982,0.0,0.0,-0.008518139261791758,0.0,0.0,-0.0029024514792046134,0.0,1.0636108498732362,0.0,4.496813081692112,0.0,-0.014290287417950565,0.0,85.59337602105015,-1.30301803142178,0.0,-4.433366659936338,0.0,-0.014290287417950565,0.0
sim_raptor_glider_3dof,raptor_glider_3dof,0.039,-14.535951293263096,0.0,-0.01097624727238829,11.79946262927224,0.0,-0.6453816956165388,0.0,0.0,0.0,-28.190059671454275,-0.49200935760054804,-0.020817687365501637,0.0,0.0,0.0,0.0,0.0,-0.015062747917254577,-0.8630318835281583,0.0,0.0,11.817099300277926,0.01097624727238829,0.034726554704157996,-0.054641409201580456,-3.1307221338978612,0.0,0.0,0.039578661284325876,2.267690250369703,-4.904192744989687,0.0,-11.909089854051446,11.807844940123772,0.0,-0.4675828724648367,0.0,-1.8103845121156044,0.0,0.0,-0.49200935760054804,0.0,-0.04639592055061753,0.3490658503988659,1.0,0.14,0.14,0.75,0.08726646259971647,5.0,0.184,0.175,0.174,0.0,0.0,0.0,-0.011368871114090063,0.0,0.0011467942446435379,0.0,6.08339394991449,0.0,-0.5216872632059827,0.0,0.12940341746244358,0.0,-3.7628806772647283,0.0,-0.02584644121105367,0.0,-0.005071606944780513,0.38848565872986757,-0.019099614435364176,0.0886110529446381,0.0,0.0,0.0,0.370755751657997,0.0886110529446381,0.0,0.0,-0.008132788140746389,0.0,0.0,-0.0029144762311702297,0.0,1.061069608781519,0.0,4.439600335310693,0.0,-0.013634005760742618,0.0,85.53186518265292,-1.3019513162400838,0.0,-4.37502487102774,0.0,-0.013634005760742618,0.0
sim_raptor_glider_3dof,raptor_glider_3dof,0.04,-14.524145693966695,0.0,-0.011446881583554589,11.794559414160368,0.0,-0.6571954431923394,0.0,0.0,0.0,-28.29133161989151,-0.4937768865406877,-0.020899981270196082,0.0,0.0,0.0,0.0,0.0,-0.015555648157141486,-0.891272986994664,0.0,0.0,11.812854761856327,0.011446881583554589,0.034714081406612966,-0.05566266134854927,-3.189235571737848,0.0,0.0,0.04010701319140778,2.2979625847431846,-4.902170551844791,0.0,-11.718789158669372,11.803355118663804,0.0,-0.4736513141802877,0.0,-1.7249573262567568,0.0,0.0,-0.4937768865406877,0.0,-0.04639592055061753,0.3490658503988659,1.0,0.14,0.14,0.75,0.08726646259971647,5.0,0.184,0.175,0.174,0.0,0.0,0.0,-0.01141066385524497,0.0,0.001136637883893042,0.0,6.083425125955644,0.0,-0.5217755747509618,0.0,0.1282085416776235,0.0,-3.762372334043303,0.0,-0.02554022709544724,0.0,-0.004987961031019607,0.38411592699331043,-0.01876328496614213,0.08846724007449397,0.0,0.0,0.0,0.36631584102655457,0.08846724007449397,0.0,0.0,-0.007754593382320877,0.0,0.0,-0.0029259973778274517,0.0,1.0585866579068877,0.0,4.383284270698656,0.0,-0.012990653624039636,0.0,85.47043249451946,-1.3008064511431725,0.0,-4.317602261292374,0.0,-0.012990653624039636,0.0
sim_raptor_glider_3dof,raptor_glider_3dof,0.04,-14.524145693966695,0.0,-0.011446881583554589,11.794559414160368,0.0,-0.6571954431923394,0.0,0.0,0.0,-28.29133161989151,-0.4937768865406877,-0.020899981270196082,0.0,0.0,0.0,0.0,0.0,-0.015555648157141486,-0.891272986994664,0.0,0.0,11.812854761856327,0.011446881583554589,0.034714081406612966,-0.05566266134854927,-3.189235571737848,0.0,0.0,0.04010701319140778,2.2979625847431846,-4.904868026946332,0.0,-11.709627769035121,11.803355118663804,0.0,-0.4736513141802877,0.0,-1.6196932595484863,0.0,0.0,-0.4937768865406877,0.0,-0.04722012024166283,0.3490658503988659,1.0,0.14,0.14,0.75,0.08726646259971647,5.0,0.184,0.175,0.174,0.0,0.0,0.0,-0.01154919269488816,0.0,0.0011728056317978587,0.0,6.083231400142862,0.0,-0.5218066878350648,0.0,0.12820682955062915,0.0,-3.7617480103224668,0.0,-0.025499930392130245,0.0,-0.005001595143070474,0.38390858767234726,-0.018288240672482043,0.08854085115131655,0.0,0.0,0.0,0.36610906854681163,0.08854085115131655,0.0,0.0,-0.0072813758582308714,0.0,0.0,-0.0029259973778274517,0.0,1.0594674777870257,0.0,4.380810060040633,0.0,-0.012197909937659651,0.0,85.47043249451946,-1.301548256796096,0.0,-4.315082879142955,0.0,-0.012197909937659651,0.0
sim_raptor_glider_3dof,raptor_glider_3dof,0.041,-14.512344600473151,0.0,-0.011923486300751563,11.789655798231127,0.0,-0.6688097752285238,0.0,0.0,0.0,-28.38173345398016,-0.4953546961953763,-0.020974300119725457,0.0,0.0,0.0,0.0,0.0,-0.016050221195888937,-0.9196099347758531,0.0,0.0,11.808610856328785,0.011923486300751563,0.03470160996893469,-0.056667788343074475,-3.246825106398812,0.0,0.0,0.040617567147185535,2.3272151716229588,-4.9023815084389195,0.0,-11.520713486595254,11.798871350520198,0.0,-0.4795051721094662,0.0,-1.5366685330881504,0.0,0.0,-0.4953546961953763,0.0,-0.04722012024166283,0.3490658503988659,1.0,0.14,0.14,0.75,0.08726646259971647,5.0,0.184,0.175,0.174,0.0,0.0,0.0,-0.011590715687749935,0.0,0.001162676981761526,0.0,6.0832550170916635,0.0,-0.5218925656293524,0.0,0.1270305105300519,0.0,-3.761238007501783,0.0,-0.02519859850570497,0.0,-0.00492001381328892,0.3796071812064101,-0.017957609106812246,0.08840180618740515,0.0,0.0,0.0,0.3617442989057473,0.08840180618740515,0.0,0.0,-0.006913102236063763,0.0,0.0,-0.002936402016761564,0.0,1.0570437651033977,0.0,4.3254722070882154,0.0,-0.011572650722686862,0.0,85.40903103128142,-1.3003307870532217,0.0,-4.258660726082569,0.0,-0.011572650722686862,0.0
sim_raptor_glider_3dof,raptor_glider_3dof,0.042,-14.500547966509961,0.0,-0.012405818188078727,11.784754850570195,0.0,-0.6802371784543513,0.0,0.0,0.0,-28.467447125436347,-0.4968506819762595,-0.021045199750354234,0.0,0.0,0.0,0.0,0.0,-0.016546323888767277,-0.9480345252828568,0.0,0.0,11.804370779799713,0.012405818188078727,0.03468914978341918,-0.05765781478779347,-3.3035494432875523,0.0,0.0,0.041111490899026194,2.3555149180046953,-4.899513658514036,0.0,-11.334092952929527,11.794396578464806,0.0,-0.48515858941892037,0.0,-1.4553031518525916,0.0,0.0,-0.4968506819762595,0.0,-0.04722012024166283,0.3490658503988659,1.0,0.14,0.14,0.75,0.08726646259971647,5.0,0.184,0.175,0.174,0.0,0.0,0.0,-0.011631601381279277,0.0,0.0011526316880934484,0.0,6.083273641803811,0.0,-0.5219759894933088,0.0,0.1258715704396779,0.0,-3.7607319104386874,0.0,-0.02490191400040392,0.0,-0.004840383057156785,0.37536966430585106,-0.01763211273966027,0.08826709389062495,0.0,0.0,0.0,0.3574463450559554,0.08826709389062495,0.0,0.0,-0.006551763142880383,0.0,0.0,-0.002946327965049593,0.0,1.0546751693950154,0.0,4.271011629641517,0.0,-0.010959888036601868,0.0,85.34770699987202,-1.2990433377980608,0.0,-4.203137692247776,0.0,-0.010959888036601868,0.0
sim_raptor_glider_3dof,raptor_glider_3dof,0.043000000000000003,-14.488755802762363,0.0,-0.01289370451749948,11.779856955028567,0.0,-0.691479103957369,0.0,0.0,0.0,-28.548545877023187,-0.49826612221070676,-0.021112730705516742,0.0,0.0,0.0,0.0,0.0,-0.01704388232782546,-0.9765425239020079,0.0,0.0,11.800134458223118,0.01289370451749948,0.034676700632469706,-0.05863284533436207,-3.3594145785022667,0.0,0.0,0.04158896300653661,2.382872054600259,-4.896276981376193,0.0,-11.149759836052255,11.78993092589338,0.0,-0.49061389585648507,0.0,-1.3755787525287122,0.0,0.0,-0.49826612221070676,0.0,-0.04722012024166283,0.3490658503988659,1.0,0.14,0.14,0.75,0.08726646259971647,5.0,0.184,0.175,0.174,0.0,0.0,0.0,-0.011671854756386314,0.0,0.0011426718224979554,0.0,6.083287484626438,0.0,-0.5220570180483499,0.0,0.12472990567086921,0.0,-3.760229838110469,0.0,-0.024609837821085036,0.0,-0.0047626612446673225,0.37119573689200214,-0.017311712667447063,0.08813660755628219,0.0,0.0,0.0,0.35321486342659997,0.08813660755628219,0.0,0.0,-0.006197291872644542,0.0,0.0,-0.0029557822987723442,0.0,1.0523602866797264,0.0,4.21742230886061,0.0,-0.010359483585293733,0.0,85.28645927027954,-1.2976897081634293,0.0,-4.148507505788378,0.0,-0.010359483585293733,0.0
