name,vehicle,t,north,east,down,u,v,w,p_rad,p_deg,p_hat_div_b,q_deg,q_rad,q_hat_div_c,r_rad,r_deg,r_hat_div_b,phi_rad,phi_deg,theta_rad,theta_deg,psi_rad,psi_deg,speed,altitude,mach,alpha_rad,alpha_deg,beta_rad,beta_deg,gamma_rad,gamma_deg,u_dot,v_dot,w_dot,north_dot,east_dot,down_dot,p_rad_dot,q_rad_dot,r_rad_dot,phi_rad_dot,theta_rad_dot,psi_rad_dot,del_tail_alt_rad,del_tail_splay_rad,DIM_b,DIM_c_bar,DIM_S,DIM_wing_position,DIM_wing_incidence_rad,DIM_wing_incidence_deg,DIM_empennage_length,DIM_nose_length,DIM_tail_length,CDp,CDq,CDr,CYp,CYq,CYr,CLp,CLq,CLr,Clp,Clq,Clr,Cmp,Cmq,Cmr,Cnp,Cnq,Cnr,CL_0,Cm_0,CD_0,Cl_0,CY_0,Cn_0,CL,CD,CY,Cl,Cm,Cn,p_hat,q_hat,r_hat,drag_force_wind,side_force_wind,lift_force_wind,roll_moment_wind,pitch_moment_wind,yaw_moment_wind,qbar,X_total,Y_total,Z_total,L_total,M_total,N_total
sim_raptor_glider_3dof,raptor_glider_3dof,0.0,-15.0,0.0,0.0,12.0,0.0,0.0,0.0,0.0,0.0,0.0,0.0,0.0,0.0,0.0,0.0,0.0,0.0,0.0,0.0,0.0,0.0,12.0,-0.0,0.035264039495724236,0.0,0.0,0.0,0.0,0.0,0.0,-4.922827898908109,0.0,-18.950428006836347,12.0,0.0,0.0,0.0,-20.594143993008984,0.0,0.0,0.0,0.0,0.0519843248662904,0.6108652381980153,1.0,0.14,0.14,0.75,0.08726646259971647,5.0,0.184,0.175,0.174,0.0,0.0,0.0,0.0023581074139092007,0.0,0.00004830900934783138,0.0,7.487267946910102,0.0,-0.5143545723740385,0.0,0.19250825490982038,0.0,-6.559321858657564,0.0,-0.04618193264831481,0.0,-0.009985902181604785,0.6404433915845744,-0.08971636235091657,0.10963535985868827,0.0,0.0,0.0,0.6404433915845744,0.10963535985868827,0.0,0.0,-0.08971636235091657,0.0,0.0,0.0,0.0,1.3537776721997299,0.0,7.908196451879997,0.0,-0.15509449841135067,0.0,88.20001620075907,-1.3537776721997299,0.0,-7.908196451879997,0.0,-0.15509449841135067,0.0
sim_raptor_glider_3dof,raptor_glider_3dof,0.001,-14.988002464816036,0.0,-9.414737404956795e-6,11.9950665921085,0.0,-0.018888773044237483,0.0,0.0,0.0,-1.1672010919698559,-0.020371502087747132,-0.0008491606392336926,0.0,0.0,0.0,0.0,0.0,-0.000010224025458705337,-0.0005857935084181213,0.0,0.0,11.995081464286292,9.414737404956795e-6,0.03524958554258512,-0.0015747105100482315,-0.09022426618065688,0.0,0.0,0.0015644864845895262,0.08963847267223876,-4.943911761160258,0.0,-18.826556687548532,11.995066784600871,0.0,-0.01876613517703581,0.0,-20.149859927873372,0.0,0.0,-0.020371502087747132,0.0,0.0519843248662904,0.6108652381980153,1.0,0.14,0.14,0.75,0.08726646259971647,5.0,0.184,0.175,0.174,0.0,0.0,0.0,0.0023409567267819588,0.0,0.000042800636384206356,0.0,7.488166879070021,0.0,-0.5145740222879607,0.0,0.19068114711167125,0.0,-6.559745026045489,0.0,-0.045705045726238035,0.0,-0.009798221664067406,0.6338241837387786,-0.08863272451354766,0.10919233533311018,0.0,0.0,0.0,0.6329339718184578,0.10919233533311018,0.0,0.0,-0.0878528856944139,0.0,0.0,-0.00011888248949271698,0.0,1.3472021480123384,0.0,7.809064654424033,0.0,-0.15174859511681438,0.0,88.12772853008568,-1.3594974887780045,0.0,-7.80693351980085,0.0,-0.15174859511681438,0.0
sim_raptor_glider_3dof,raptor_glider_3dof,0.002,-14.976009872871227,0.0,-0.00003741110957917962,11.990112327462548,0.0,-0.037652077635786416,0.0,0.0,0.0,-2.3091139060234322,-0.04030164046369582,-0.001680611517743991,0.0,0.0,0.0,0.0,0.0,-0.000040597424730614866,-0.002326061096164265,0.0,0.0,11.990171445985235,0.00003741110957917962,0.03523515661931069,-0.0031402503031542324,-0.17992308898541481,0.0,0.0,0.0030996528784236177,0.17759702788925058,-4.96454115114301,0.0,-18.699528397061062,11.990113846159177,0.0,-0.0371653099221662,0.0,-19.711388502746598,0.0,0.0,-0.04030164046369582,0.0,0.0519843248662904,0.6108652381980153,1.0,0.14,0.14,0.75,0.08726646259971647,5.0,0.184,0.175,0.174,0.0,0.0,0.0,0.0023241142143583973,0.0,0.000037098132318335145,0.0,7.4890474261684865,0.0,-0.5147891651012809,0.0,0.1888636945513187,0.0,-6.5601495398804515,0.0,-0.04523126833184844,0.0,-0.009613594557814267,0.6272241811113737,-0.08755507088230975,0.1087571480100534,0.0,0.0,0.0,0.6254621160007847,0.1087571480100534,0.0,0.0,-0.08601156207983131,0.0,0.0,-0.00023528561248415875,0.0,1.3407345620991873,0.0,7.710561480781252,0.0,-0.14844646681418464,0.0,88.05559559800487,-1.3649410047302004,0.0,-7.706313228030703,0.0,-0.14844646681418464,0.0
sim_raptor_glider_3dof,raptor_glider_3dof,0.003,-14.964022243059091,0.0,-0.00008362415853223054,11.985137667277701,0.0,-0.05628684015419573,0.0,0.0,0.0,-3.426070477846717,-0.059796210243800656,-0.002494570879396126,0.0,0.0,0.0,0.0,0.0,-0.00009068269789728781,-0.0051957358643744565,0.0,0.0,11.985269838930341,0.00008362415853223054,0.03522075241391266,-0.004696352090440466,-0.2690811538896802,0.0,0.0,0.004605669392543178,0.26388541802530574,-4.984701220842872,0.0,-18.569492911914587,11.985142722241214,0.0,-0.05519999530591292,0.0,-19.27871815258693,0.0,0.0,-0.059796210243800656,0.0,0.0519843248662904,0.6108652381980153,1.0,0.14,0.14,0.75,0.08726646259971647,5.0,0.184,0.175,0.174,0.0,0.0,0.0,0.0023075675617753168,0.0,0.000031218760679205536,0.0,7.489909664338643,0.0,-0.5150000147092093,0.0,0.18705624067758458,0.0,-6.560535624959675,0.0,-0.04476067331559293,0.0,-0.009432006979891596,0.6206453575992892,-0.08648360779848295,0.1083298048208472,0.0,0.0,0.0,0.6180295821239739,0.1083298048208472,0.0,0.0,-0.08419240684122581,0.0,0.0,-0.0003492399231154577,0.0,1.3343747081499735,0.0,7.612706813591749,0.0,-0.14518802640713216,0.0,87.98361569209384,-1.3701118130131216,0.0,-7.6063561914558315,0.0,-0.14518802640713216,0.0
sim_raptor_glider_3dof,raptor_glider_3dof,0.004,-14.952039592911131,0.0,-0.0001476905869955996,11.98014308676714,0.0,-0.07479011809121361,0.0,0.0,0.0,-4.518402771494386,-0.07886100529381401,-0.0032912573764986353,0.0,0.0,0.0,0.0,0.0,-0.00016004690178199771,-0.009170011996253283,0.0,0.0,11.980376535868086,0.0001476905869955996,0.035206372611208334,-0.006242759036559247,-0.3576837453120008,0.0,0.0,0.006082712134777249,0.34851373331574753,-5.004378294894089,0.0,-18.436597236645916,11.980154903258025,0.0,-0.0728727323575823,0.0,-18.85183545549115,0.0,0.0,-0.07886100529381401,0.0,0.0519843248662904,0.6108652381980153,1.0,0.14,0.14,0.75,0.08726646259971647,5.0,0.184,0.175,0.174,0.0,0.0,0.0,0.0022913046494252897,0.0,0.000025179420360254425,0.0,7.490753683141735,0.0,-0.5152065882390399,0.0,0.18525911677349177,0.0,-6.560903517520396,0.0,-0.044293330258961594,0.0,-0.009253443117926799,0.6140896339616235,-0.0854185339791525,0.10791030604021681,0.0,0.0,0.0,0.610638074197499,0.10791030604021681,0.0,0.0,-0.08239542688535761,0.0,0.0,-0.000460776032709809,0.0,1.328122298870881,0.0,7.515519811231189,0.0,-0.14197317281530383,0.0,87.91178708678844,-1.375013693607959,0.0,-7.507082270506776,0.0,-0.14197317281530383,0.0
sim_raptor_glider_3dof,raptor_glider_3dof,0.005,-14.940061938353688,0.0,-0.0002292498208053365,11.975129075669832,0.0,-0.09315912741366765,0.0,0.0,0.0,-5.586441938067814,-0.09750180529077651,-0.00407088952702409,0.0,0.0,0.0,0.0,0.0,-0.0002482633135768961,-0.014224440075889055,0.0,0.0,11.975491430499773,0.0002292498208053365,0.03519201689882092,-0.007779227063016239,-0.4457168785847814,0.0,0.0,0.007530963749439342,0.4314924385088923,-5.023559863801676,0.0,-18.300984985368018,11.975151834621677,0.0,-0.0901861393484545,0.0,-18.430724891472963,0.0,0.0,-0.09750180529077651,0.0,0.0519843248662904,0.6108652381980153,1.0,0.14,0.14,0.75,0.08726646259971647,5.0,0.184,0.175,0.174,0.0,0.0,0.0,0.0022753135496664406,0.0,0.00001899661409803799,0.0,7.491579586236639,0.0,-0.5154089062240165,0.0,0.18347263921926166,0.0,-6.561253465049299,0.0,-0.04382930479556381,0.0,-0.009077885063432198,0.6075588667751428,-0.08436003889946268,0.10749864487098094,0.0,0.0,0.0,0.6032892317721559,0.10749864487098094,0.0,0.0,-0.08062061957735993,0.0,0.0,-0.0005699245337833726,0.0,1.3219769616489274,0.0,7.4190187845704,0.0,-0.13880178915768288,0.0,87.84010807335916,-1.3796506108271174,0.0,-7.408510444413461,0.0,-0.13880178915768288,0.0
sim_raptor_glider_3dof,raptor_glider_3dof,0.006,-14.928089293893407,0.0,-0.0003279439308647537,11.9700961356554,0.0,-0.11139122596821827,0.0,0.0,0.0,-6.630518190500852,-0.11572437353761647,-0.00483368562020987,0.0,0.0,0.0,0.0,0.0,-0.00035491097373134745,-0.020334900897684634,0.0,0.0,11.970614416230065,0.0003279439308647537,0.03517768496350191,-0.009305523486400945,-0.5331672219306377,0.0,0.0,0.008950612512669598,0.5128323210329531,-5.042234537195949,0.0,-18.16279657234159,11.970134915735628,0.0,-0.10714290056672306,0.0,-18.01536907493278,0.0,0.0,-0.11572437353761647,0.0,0.0519843248662904,0.6108652381980153,1.0,0.14,0.14,0.75,0.08726646259971647,5.0,0.184,0.175,0.174,0.0,0.0,0.0,0.0022595825606234587,0.0,0.000012686432806944965,0.0,7.492387490014831,0.0,-0.5156069922794786,0.0,0.18169711101484423,0.0,-6.561585725180589,0.0,-0.043368659040304826,0.0,-0.008905313071406934,0.6010548529653897,-0.08330830370119688,0.10709480803985551,0.0,0.0,0.0,0.5959846345713763,0.10709480803985551,0.0,0.0,-0.0788679737420157,0.0,0.0,-0.0006767159868293818,0.0,1.3159382459276747,0.0,7.323221255747827,0.0,-0.1356737445033188,0.0,87.76857694152015,-1.3840266948696824,0.0,-7.310658871512204,0.0,-0.1356737445033188,0.0
sim_raptor_glider_3dof,raptor_glider_3dof,0.007,-14.916121672700504,0.0,-0.0004434176388587964,11.96504477885353,0.0,-0.12948390641039867,0.0,0.0,0.0,-7.650960710572259,-0.13353445534021086,-0.0055798636454659385,0.0,0.0,0.0,0.0,0.0,-0.00047957452250745535,-0.027477596101678898,0.0,0.0,11.96574538597531,0.0004434176388587964,0.03516337649056778,-0.010821426449664396,-0.6200220638770085,0.0,0.0,0.01034185192715694,0.5925444677753295,-5.060392007370339,0.0,-18.02216926508444,11.965105500103133,0.0,-0.12374576110364036,0.0,-17.605748861075615,0.0,0.0,-0.13353445534021086,0.0,0.0519843248662904,0.6108652381980153,1.0,0.14,0.14,0.75,0.08726646259971647,5.0,0.184,0.175,0.174,0.0,0.0,0.0,0.00224410022910941,0.0,6.264539542934154e-6,0.0,7.493177522717804,0.0,-0.5158008728961334,0.0,0.17993282238698619,0.0,-6.5619005648460496,0.0,-0.042911451777290485,0.0,-0.008735705719212125,0.5945793311257693,-0.08226350155891236,0.10669877616108925,0.0,0.0,0.0,0.5887258038870443,0.10669877616108925,0.0,0.0,-0.0771374701019398,0.0,0.0,-0.0007811809103652314,0.0,1.31000562793369,0.0,7.228143978309909,0.0,-0.13258889467276047,0.0,87.6971919766178,-1.3881462275349286,0.0,-7.213544909916086,0.0,-0.13258889467276047,0.0
sim_raptor_glider_3dof,raptor_glider_3dof,0.008,-14.904159086624363,0.0,-0.0005753184230873179,11.959975527087144,0.0,-0.14743479610318572,0.0,0.0,0.0,-8.648097539855213,-0.150937776104095,-0.006309641209120194,0.0,0.0,0.0,0.0,0.0,-0.0006218442965018895,-0.03562905370384005,0.0,0.0,11.960884232682188,0.0005753184230873179,0.03514909116542416,-0.012326724934533274,-0.7062693139674326,0.0,0.0,0.011704880638031386,0.6706402602635926,-5.078023018823351,0.0,-17.879237129100186,11.960064896164935,0.0,-0.1399975255088787,0.0,-17.201843365950936,0.0,0.0,-0.150937776104095,0.0,0.0519843248662904,0.6108652381980153,1.0,0.14,0.14,0.75,0.08726646259971647,5.0,0.184,0.175,0.174,0.0,0.0,0.0,0.00222885536552118,0.0,-2.538467537273386e-7,0.0,7.493949823883293,0.0,-0.5159905773134076,0.0,0.17818005072422774,0.0,-6.5621982595799295,0.0,-0.042457738471466465,0.0,-0.008569039994874215,0.5881339804655082,-0.08122579764860688,0.10631052394061864,0.0,0.0,0.0,0.5815142016176088,0.10631052394061864,0.0,0.0,-0.07542908133005816,0.0,0.0,-0.0008833497692768272,0.0,1.304178513578765,0.0,7.133802929183286,0.0,-0.1295470823889765,0.0,87.62595146723422,-1.3920136305780229,0.0,-7.117185109296338,0.0,-0.1295470823889765,0.0
sim_raptor_glider_3dof,raptor_glider_3dof,0.009000000000000001,-14.892201546218054,0.0,-0.0007232966141478592,11.95488891100571,0.0,-0.16524165587078932,0.0,0.0,0.0,-9.622255467738865,-0.1679400393800702,-0.007023235448747692,0.0,0.0,0.0,0.0,0.0,-0.0007813163879835213,-0.04476613149586172,0.0,0.0,11.956030849714391,0.0007232966141478592,0.03513482867470214,-0.013821218678363193,-0.7918974979975926,0.0,0.0,0.013039902290379672,0.7471313665017308,-5.095119335812117,0.0,-17.734130994108114,11.955014368043832,0.0,-0.1559010557621099,0.0,-16.803630002052493,0.0,0.0,-0.1679400393800702,0.0,0.0519843248662904,0.6108652381980153,1.0,0.14,0.14,0.75,0.08726646259971647,5.0,0.184,0.175,0.174,0.0,0.0,0.0,0.0022138370579183964,0.0,-6.853965194259953e-6,0.0,7.494704543748459,0.0,-0.5161761373819107,0.0,0.17643906062597628,0.0,-6.562479092814444,0.0,-0.042007571308571454,0.0,-0.008405291393377768,0.5817204202486467,-0.08019534918484474,0.10593002040525519,0.0,0.0,0.0,0.5743512298005105,0.10593002040525519,0.0,0.0,-0.07374277217335994,0.0,0.0,-0.000983252962824677,0.0,1.2984562416235659,0.0,7.040213306535398,0.0,-0.12654813754545732,0.0,87.55485371083917,-1.395633453828517,0.0,-7.021595208745942,0.0,-0.12654813754545732,0.0
sim_raptor_glider_3dof,raptor_glider_3dof,0.01,-14.880249060790069,0.0,-0.0008870054291757566,11.949785469052538,0.0,-0.18290237592551556,0.0,0.0,0.0,-10.573759947093757,-0.18454692539228748,-0.00772086296753756,0.0,0.0,0.0,0.0,0.0,-0.0009575925825444446,-0.05486601347282958,0.0,0.0,11.951185131002632,0.0008870054291757566,0.03512058870669908,-0.015304717854621829,-0.8768957397083467,0.0,0.0,0.014347125272077384,0.822029726235517,-5.111673707150697,0.0,-17.586978474442642,11.94995513610633,0.0,-0.17145926788696886,0.0,-16.41108454658277,0.0,0.0,-0.18454692539228748,0.0,0.0519843248662904,0.6108652381980153,1.0,0.14,0.14,0.75,0.08726646259971647,5.0,0.184,0.175,0.174,0.0,0.0,0.0,0.002199034686682055,0.0,-0.000013521523911698987,0.0,7.495441842546475,0.0,-0.5163575873992784,0.0,0.17471010423011346,0.0,-6.562743355148739,0.0,-0.04156099930564908,0.0,-0.00824443403535915,0.5753402103344735,-0.07917230562347403,0.10555722918962239,0.0,0.0,0.0,0.5672382312258306,0.10555722918962239,0.0,0.0,-0.07207849972440308,0.0,0.0,-0.0010809208154552584,0.0,1.2928380874801548,0.0,6.9473895405709065,0.0,-0.12359187772031485,0.0,87.48389701596358,-1.3990103627200554,0.0,-6.926790147959968,0.0,-0.12359187772031485,0.0
sim_raptor_glider_3dof,raptor_glider_3dof,0.01,-14.880249060790069,0.0,-0.0008870054291757566,11.949785469052538,0.0,-0.18290237592551556,0.0,0.0,0.0,-10.573759947093757,-0.18454692539228748,-0.00772086296753756,0.0,0.0,0.0,0.0,0.0,-0.0009575925825444446,-0.05486601347282958,0.0,0.0,11.951185131002632,0.0008870054291757566,0.03512058870669908,-0.015304717854621829,-0.8768957397083467,0.0,0.0,0.014347125272077384,0.822029726235517,-5.099640124398631,0.0,-17.55948134251826,11.94995513610633,0.0,-0.17145926788696886,0.0,-16.09180394952879,0.0,0.0,-0.18454692539228748,0.0,0.05075634291842546,0.6108652381980153,1.0,0.14,0.14,0.75,0.08726646259971647,5.0,0.184,0.175,0.174,0.0,0.0,0.0,0.002351401313749992,0.0,-0.00007436843662420432,0.0,7.495399032950165,0.0,-0.5163272195366614,0.0,0.1746874865805101,0.0,-6.5627326245281195,0.0,-0.0415882556443406,0.0,-0.008226877177939292,0.5747187051502549,-0.0777699938680987,0.10529651816040471,0.0,0.0,0.0,0.5666167723153959,0.10529651816040471,0.0,0.0,-0.07067619956797894,0.0,0.0,-0.0010809208154552584,0.0,1.289644965123814,0.0,6.9397780699460885,0.0,-0.12118737554390131,0.0,87.48389701596358,-1.3957011274632372,0.0,-6.919228436680763,0.0,-0.12118737554390131,0.0
sim_raptor_glider_3dof,raptor_glider_3dof,0.011,-14.868301633892449,0.0,-0.001066084594219471,11.944677822764941,0.0,-0.20038609564364823,0.0,0.0,0.0,-11.484741233984918,-0.2004465482725933,-0.008389441319828122,0.0,0.0,0.0,0.0,0.0,-0.0011501177183130074,-0.06589689120255139,0.0,0.0,11.946358561376764,0.001066084594219471,0.035106405011539464,-0.016774608983417996,-0.9611142977320876,0.0,0.0,0.015624491265104989,0.8952174065295362,-5.115573503758566,0.0,-17.40781087126509,11.94490039027879,0.0,-0.1866481805363825,0.0,-15.708353284036562,0.0,0.0,-0.2004465482725933,0.0,0.05075634291842546,0.6108652381980153,1.0,0.14,0.14,0.75,0.08726646259971647,5.0,0.184,0.175,0.174,0.0,0.0,0.0,0.002337504532392368,0.0,-0.00008092458179242255,0.0,7.496118325406224,0.0,-0.5165040713950546,0.0,0.1729736954013851,0.0,-6.562978295593763,0.0,-0.04114622994507289,0.0,-0.008069222888342852,0.5683839940612205,-0.07675618110543082,0.10493270022456046,0.0,0.0,0.0,0.5595796397867728,0.10493270022456046,0.0,0.0,-0.0690478201242443,0.0,0.0,-0.0011745217847759371,0.0,1.284151160093457,0.0,6.848054439264985,0.0,-0.11829960858207936,0.0,87.4132493183943,-1.3988385405501993,0.0,-6.825550860009589,0.0,-0.11829960858207936,0.0
sim_raptor_glider_3dof,raptor_glider_3dof,0.012,-14.85635926356691,0.0,-0.0012601862584314552,11.939554515917777,0.0,-0.21771735170295303,0.0,0.0,0.0,-12.373912637421247,-0.21596551687713605,-0.009042616278944244,0.0,0.0,0.0,0.0,0.0,-0.0013583553251988415,-0.07782802721301406,0.0,0.0,11.941539385012517,0.0012601862584314552,0.03509224304273566,-0.018232943689435628,-1.0446707215043496,0.0,0.0,0.016874588364236786,0.9668426942913354,-5.130946765604765,0.0,-17.254419124394023,11.939839238342325,0.0,-0.20149899837489693,0.0,-15.33051705878062,0.0,0.0,-0.21596551687713605,0.0,0.05075634291842546,0.6108652381980153,1.0,0.14,0.14,0.75,0.08726646259971647,5.0,0.184,0.175,0.174,0.0,0.0,0.0,0.002323800203130344,0.0,-0.00008751872827383128,0.0,7.496820477891348,0.0,-0.5166768729545389,0.0,0.1712726598751128,0.0,-6.563208024436295,0.0,-0.04070795175011491,0.0,-0.007914418484342524,0.5620865519049775,-0.07575019978522969,0.1045765425444682,0.0,0.0,0.0,0.5525958299798591,0.1045765425444682,0.0,0.0,-0.06744139974388857,0.0,0.0,-0.0012659662790521942,0.0,1.278760222430132,0.0,6.757132615648777,0.0,-0.11545412396967686,0.0,87.34273830962313,-1.40174326500024,0.0,-6.732695204073961,0.0,-0.11545412396967686,0.0
sim_raptor_glider_3dof,raptor_glider_3dof,0.013000000000000001,-14.844421957055006,0.0,-0.0014689746521765851,11.934416111646561,0.0,-0.23489442472525243,0.0,0.0,0.0,-13.241592278639928,-0.23110938346892515,-0.009680600631286541,0.0,0.0,0.0,0.0,0.0,-0.001581928077782559,-0.09063780235018365,0.0,0.0,11.93672749612288,0.0014689746521765851,0.03507810248941456,-0.019679563543960072,-1.1275559337284293,0.0,0.0,0.018097635466177514,1.0369181313782456,-5.145755816214172,0.0,-17.09942329201798,11.934772764663546,0.0,-0.21601475074939414,0.0,-14.958266654085163,0.0,0.0,-0.23110938346892515,0.0,0.05075634291842546,0.6108652381980153,1.0,0.14,0.14,0.75,0.08726646259971647,5.0,0.184,0.175,0.174,0.0,0.0,0.0,0.002310278483193303,0.0,-0.00009413815795145102,0.0,7.49750568222324,0.0,-0.5168456663459852,0.0,0.1695845942147554,0.0,-6.563422124861288,0.0,-0.04027346008462339,0.0,-0.007762434100853746,0.5558277579225676,-0.07475217603312398,0.10422799149238952,0.0,0.0,0.0,0.5456665077689109,0.10422799149238952,0.0,0.0,-0.06585687446197747,0.0,0.0,-0.001355284088380116,0.0,1.2734712251183167,0.0,6.667024723442433,0.0,-0.11265070617191537,0.0,87.272362311842,-1.4044203027385416,0.0,-6.6406740047568045,0.0,-0.11265070617191537,0.0
sim_raptor_glider_3dof,raptor_glider_3dof,0.014,-14.832489719305974,0.0,-0.0016921090003156893,11.929263187688495,0.0,-0.25191572979096044,0.0,0.0,0.0,-14.088106231301392,-0.24588383910693912,-0.010303613390804845,0.0,0.0,0.0,0.0,0.0,-0.0018204554728706562,-0.10430441538698114,0.0,0.0,11.931922801294684,0.0016921090003156893,0.03506398307706569,-0.02111432104530343,-1.209761483180139,0.0,0.0,0.019293865572432775,1.105457067793158,-5.159997549001804,0.0,-16.94293882746035,11.92970202167383,0.0,-0.23019863189710926,0.0,-14.591570371852464,0.0,0.0,-0.24588383910693912,0.0,0.05075634291842546,0.6108652381980153,1.0,0.14,0.14,0.75,0.08726646259971647,5.0,0.184,0.175,0.174,0.0,0.0,0.0,0.0022969298631599975,0.0,-0.00010077066196532236,0.0,7.498174138282368,0.0,-0.5170104957016081,0.0,0.16790969944830292,0.0,-6.563620915244772,0.0,-0.039842790731903124,0.0,-0.007613238761806156,0.5496089269056392,-0.07376222781068381,0.10388698876769002,0.0,0.0,0.0,0.5387927666615482,0.10388698876769002,0.0,0.0,-0.06429416608105622,0.0,0.0,-0.0014425058747126786,0.0,1.268283190073318,0.0,6.577741996334231,0.0,-0.10988911647042092,0.0,87.20211983079771,-1.4068747280587075,0.0,-6.54949887549508,0.0,-0.10988911647042092,0.0
sim_raptor_glider_3dof,raptor_glider_3dof,0.015,-14.820562554016334,0.0,-0.001929262612389497,11.924096306669087,0.0,-0.26877985203306365,0.0,0.0,0.0,-14.913768374195527,-0.26029436200951367,-0.01091186509007427,0.0,0.0,0.0,0.0,0.0,-0.0020735749170293664,-0.11880709124997255,0.0,0.0,11.92712519174584,0.001929262612389497,0.0350498844860144,-0.02253708267287501,-1.2912797196931545,0.0,0.0,0.020463507755845642,1.172472628443182,-5.173669548757001,0.0,-16.78507520286866,11.924628006342681,0.0,-0.24405378490417565,0.0,-14.230395965339476,0.0,0.0,-0.26029436200951367,0.0,0.05075634291842546,0.6108652381980153,1.0,0.14,0.14,0.75,0.08726646259971647,5.0,0.184,0.175,0.174,0.0,0.0,0.0,0.0022837451420456858,0.0,-0.00010740455861005095,0.0,7.498826054880752,0.0,-0.517171407377438,0.0,0.1662481598194734,0.0,-6.563804718281072,0.0,-0.03941597532968379,0.0,-0.007466800139758767,0.5434312954550707,-0.07278046280220843,0.1035534708962336,0.0,0.0,0.0,0.5319756305007998,0.1035534708962336,0.0,0.0,-0.06275319358332179,0.0,0.0,-0.001527661112610398,0.0,1.2631950763114008,0.0,6.489294770617916,0.0,-0.10716911201497159,0.0,87.13200915007704,-1.409111681323174,0.0,-6.459180496808011,0.0,-0.10716911201497159,0.0
sim_raptor_glider_3dof,raptor_glider_3dof,0.016,-14.808640464006913,0.0,-0.00218010824986475,11.918916039141811,0.0,-0.285485462496123,0.0,0.0,0.0,-15.718894193446614,-0.2743464584482619,-0.011505567845606874,0.0,0.0,0.0,0.0,0.0,-0.002340925041177359,-0.1341251250159511,0.0,0.0,11.922334565738732,0.00218010824986475,0.0350358064172874,-0.02394772182283861,-1.372103389401991,0.0,0.0,0.021606796781661254,1.23797826438604,-5.18677019811056,0.0,-16.62593979935115,11.919551681201327,0.0,-0.25758341673942553,0.0,-13.874709708046973,0.0,0.0,-0.2743464584482619,0.0,0.05075634291842546,0.6108652381980153,1.0,0.14,0.14,0.75,0.08726646259971647,5.0,0.184,0.175,0.174,0.0,0.0,0.0,0.0022707154947566766,0.0,-0.00011402866257799787,0.0,7.499461645979392,0.0,-0.5173284490277299,0.0,0.1646001510061588,0.0,-6.563973859406958,0.0,-0.038993043501826405,0.0,-0.007323085357614839,0.5372960522189305,-0.07180698328564382,0.10322737111089275,0.0,0.0,0.0,0.5252160731506625,0.10322737111089275,0.0,0.0,-0.061233868764976274,0.0,0.0,-0.0016107794983849625,0.0,1.2582058078854355,0.0,6.401692753785659,0.0,-0.10449043881130177,0.0,87.06202865889392,-1.4111363431342547,0.0,-6.369728894541286,0.0,-0.10449043881130177,0.0
sim_raptor_glider_3dof,raptor_glider_3dof,0.017,-14.796723451119819,0.0,-0.0024443220135756502,11.913722956982108,0.0,-0.302031342050532,0.0,0.0,0.0,-16.503797139659824,-0.28804559916828637,-0.012084932694549307,0.0,0.0,0.0,0.0,0.0,-0.0026221501675870447,-0.15023813785225917,0.0,0.0,11.917550823357262,0.0024443220135756502,0.035021748577264276,-0.02534612083821036,-1.452225751058042,0.0,0.0,0.022723970670623313,1.3019876132057828,-5.199298611617813,0.0,-16.4656368461901,11.914473970209489,0.0,-0.2707907688675705,0.0,-13.52447662415984,0.0,0.0,-0.28804559916828637,0.0,0.05075634291842546,0.6108652381980153,1.0,0.14,0.14,0.75,0.08726646259971647,5.0,0.184,0.175,0.174,0.0,0.0,0.0,0.0022578324532813287,0.0,-0.0001206322944872944,0.0,7.500081131231534,0.0,-0.517481669744604,0.0,0.16296583772919274,0.0,-6.564128666595377,0.0,-0.03857402225781915,0.0,-0.00718206083121504,0.5312043288482956,-0.07084188473108931,0.10290861903535577,0.0,0.0,0.0,0.5185150122538527,0.10290861903535577,0.0,0.0,-0.05973609729230595,0.0,0.0,-0.001691890577236903,0.0,1.2533142690402612,0.0,6.314944944952276,0.0,-0.10185283345654776,0.0,86.99217677562395,-1.412953930355777,0.0,-6.281153357899359,0.0,-0.10185283345654776,0.0
sim_raptor_glider_3dof,raptor_glider_3dof,0.018000000000000002,-14.784811516254202,0.0,-0.0027215833897190666,11.90851763265796,0.0,-0.3184163784227927,0.0,0.0,0.0,-17.268788547290185,-0.30139721798090224,-0.012650169530426046,0.0,0.0,0.0,0.0,0.0,-0.002916900287596546,-0.1671260757397781,0.0,0.0,11.912773866626255,0.0027215833897190666,0.03500771067802831,-0.026732170778698168,-1.5316405628423524,0.0,0.0,0.02381527049110162,1.3645144871025743,-5.211254601296844,0.0,-16.30426745237026,11.909395759538926,0.0,-0.28367911458135525,0.0,-13.179660544520383,0.0,0.0,-0.30139721798090224,0.0,0.05075634291842546,0.6108652381980153,1.0,0.14,0.14,0.75,0.08726646259971647,5.0,0.184,0.175,0.174,0.0,0.0,0.0,0.0022450879078641513,0.0,-0.00012720527885871346,0.0,7.500684735464424,0.0,-0.5176311199359052,0.0,0.16134537400063814,0.0,-6.564269469827041,0.0,-0.038158936070670745,0.0,-0.007043692347088761,0.5251572007847883,-0.0698852559603281,0.10259714091086201,0.0,0.0,0.0,0.5118733100950819,0.10259714091086201,0.0,0.0,-0.05825977893118843,0.0,0.0,-0.0017710237342596464,0.0,1.248519307137048,0.0,6.22905964813488,0.0,-0.099256023560783,0.0,86.92245194948468,-1.4145696868387292,0.0,-6.193462453377205,0.0,-0.099256023560783,0.0
sim_raptor_glider_3dof,raptor_glider_3dof,0.019000000000000003,-14.77290465948988,0.0,-0.003011574994804126,11.903300638394672,0.0,-0.3346395536588159,0.0,0.0,0.0,-18.01417774092115,-0.3144067136185481,-0.013201487176209618,0.0,0.0,0.0,0.0,0.0,-0.003224830538656203,-0.18476917950990032,0.0,0.0,11.908003599213428,0.003011574994804126,0.03499369243649072,-0.02810577038735639,-1.61034202315929,0.0,0.0,0.024880939848700184,1.4255728436493895,-5.222638639406806,0.0,-16.141929830614785,11.904317898051977,0.0,-0.2962517527363745,0.0,-12.840224258614768,0.0,0.0,-0.3144067136185481,0.0,0.05075634291842546,0.6108652381980153,1.0,0.14,0.14,0.75,0.08726646259971647,5.0,0.184,0.175,0.174,0.0,0.0,0.0,0.0022324741144344545,0.0,-0.0001337379370861106,0.0,7.501272687837924,0.0,-0.517776851122529,0.0,0.15973890431402996,0.0,-6.564396600514152,0.0,-0.03774780719448067,0.0,-0.006907945215734985,0.5191556916181606,-0.06893717986238278,0.10229285999413625,0.0,0.0,0.0,0.5052917778910364,0.10229285999413625,0.0,0.0,-0.05680480820660895,0.0,0.0,-0.0018482082046693468,0.0,1.2438197375581828,0.0,6.144044526692906,0.0,-0.09669972889162783,0.0,86.85285265612328,-1.4159888728376258,0.0,-6.106664080946683,0.0,-0.09669972889162783,0.0
sim_raptor_glider_3dof,raptor_glider_3dof,0.02,-14.761002880072379,0.0,-0.003313982768409587,11.89807254563583,0.0,-0.3506999469666799,0.0,0.0,0.0,-18.74027187670966,-0.3270794469674804,-0.013739093262841898,0.0,0.0,0.0,0.0,0.0,-0.0035456014591051122,-0.20314799944214948,0.0,0.0,11.903239926760088,0.003313982768409587,0.03497969357536245,-0.029466826345990262,-1.6883247852701433,0.0,0.0,0.02592122488688515,1.4851767858279938,-5.233451828463779,0.0,-15.978719225205621,11.899241198294112,0.0,-0.3085120076036399,0.0,-12.506129507050424,0.0,0.0,-0.3270794469674804,0.0,0.05075634291842546,0.6108652381980153,1.0,0.14,0.14,0.75,0.08726646259971647,5.0,0.184,0.175,0.174,0.0,0.0,0.0,0.0022199836891547,0.0,-0.00014022108542638146,0.0,7.501845221593657,0.0,-0.5179189158813704,0.0,0.15814656333084168,0.0,-6.564510391091726,0.0,-0.03734065559517523,0.0,-0.006774784291357517,0.5132007718847398,-0.06799773322113577,0.10199569665516373,0.0,0.0,0.0,0.4987711747247366,0.10199569665516373,0.0,0.0,-0.05537107435280121,0.0,0.0,-0.0019234730567978659,0.0,1.239214345074159,0.0,6.059906593099305,0.0,-0.09418366131759676,0.0,86.78337740238246,-1.4172167579503334,0.0,-6.020765463885032,0.0,-0.09418366131759676,0.0
sim_raptor_glider_3dof,raptor_glider_3dof,0.02,-14.761002880072379,0.0,-0.003313982768409587,11.89807254563583,0.0,-0.3506999469666799,0.0,0.0,0.0,-18.74027187670966,-0.3270794469674804,-0.013739093262841898,0.0,0.0,0.0,0.0,0.0,-0.0035456014591051122,-0.20314799944214948,0.0,0.0,11.903239926760088,0.003313982768409587,0.03497969357536245,-0.029466826345990262,-1.6883247852701433,0.0,0.0,0.02592122488688515,1.4851767858279938,-5.219874696917519,0.0,-15.948155941611509,11.899241198294112,0.0,-0.3085120076036399,0.0,-12.147937507197991,0.0,0.0,-0.3270794469674804,0.0,0.049366922353937914,0.6108652381980153,1.0,0.14,0.14,0.75,0.08726646259971647,5.0,0.184,0.175,0.174,0.0,0.0,0.0,0.002394408303187398,0.0,-0.00020593244692079893,0.0,7.501794835742344,0.0,-0.5178828935943683,0.0,0.1581218570778565,0.0,-6.564457463323364,0.0,-0.03737177791746157,0.0,-0.0067562284134027985,0.512500140962601,-0.06641173101050409,0.10170890207369962,0.0,0.0,0.0,0.4980706407184252,0.10170890207369962,0.0,0.0,-0.053785173947305934,0.0,0.0,-0.0019234730567978659,0.0,1.2357298847381368,0.0,6.051395334111895,0.0,-0.09148611736670807,0.0,86.78337740238246,-1.413483046775112,0.0,-6.01236056089665,0.0,-0.09148611736670807,0.0
sim_raptor_glider_3dof,raptor_glider_3dof,0.021,-14.749106174463234,0.0,-0.003628478638020737,11.892847576705035,0.0,-0.36656452598154954,0.0,0.0,0.0,-19.42695924096813,-0.33906440240563235,-0.014248204949741508,0.0,0.0,0.0,0.0,0.0,-0.003878697485992942,-0.2222329959553983,0.0,0.0,11.898495410531826,0.003628478638020737,0.03496575100805732,-0.030812512267383338,-1.76542690911614,0.0,0.0,0.026933814781390397,1.5431939131607417,-5.229999047233162,0.0,-15.781271561996624,11.894179906408755,0.0,-0.32043312629800674,0.0,-11.82300661102878,0.0,0.0,-0.33906440240563235,0.0,0.049366922353937914,0.6108652381980153,1.0,0.14,0.14,0.75,0.08726646259971647,5.0,0.184,0.175,0.174,0.0,0.0,0.0,0.0023827330627054903,0.0,-0.00021216662820789064,0.0,7.502351502875826,0.0,-0.5180208187416648,0.0,0.1565470619770679,0.0,-6.564556044050961,0.0,-0.03696961700535381,0.0,-0.006625947311685228,0.5066050670151635,-0.06548293177099168,0.10142014140196118,0.0,0.0,0.0,0.49163976116064684,0.10142014140196118,0.0,0.0,-0.05238829218223334,0.0,0.0,-0.001994748692963811,0.0,1.2312394296597722,0.0,5.968501431391183,0.0,-0.08903906278765775,0.0,86.71420916144173,-1.4145304246193542,0.0,-5.927736798095349,0.0,-0.08903906278765775,0.0
sim_raptor_glider_3dof,raptor_glider_3dof,0.022,-14.737214523997412,0.0,-0.003954732783077462,11.887612777840568,0.0,-0.3822620781723716,0.0,0.0,0.0,-20.09519729718588,-0.35072735667375904,-0.014744178348865607,0.0,0.0,0.0,0.0,0.0,-0.004223606556907888,-0.24199483003460315,0.0,0.0,11.893757263887935,0.003954732783077462,0.034951827158858424,-0.03214525995931215,-1.8417877270194627,0.0,0.0,0.027921653402404264,1.5997928969848596,-5.239551655034752,0.0,-15.613785875041055,11.889121267133254,0.0,-0.33205021862175044,0.0,-11.5033336796435,0.0,0.0,-0.35072735667375904,0.0,0.049366922353937914,0.6108652381980153,1.0,0.14,0.14,0.75,0.08726646259971647,5.0,0.184,0.175,0.174,0.0,0.0,0.0,0.0023711626535369,0.0,-0.00021833320795463357,0.0,7.5028931720586245,0.0,-0.5181551734609817,0.0,0.1549869089840284,0.0,-6.564642002036363,0.0,-0.03657153139718632,0.0,-0.006498196899355437,0.5007594226076844,-0.06456306153005925,0.10113835993774772,0.0,0.0,0.0,0.4852720632990998,0.10113835993774772,0.0,0.0,-0.05101242618363229,0.0,0.0,-0.002064184968841185,0.0,1.2268409314548585,0.0,5.886506667829467,0.0,-0.0866316059413952,0.0,86.64516129968594,-1.4153978285964817,0.0,-5.844035284655472,0.0,-0.0866316059413952,0.0
sim_raptor_glider_3dof,raptor_glider_3dof,0.023,-14.72532793061101,0.0,-0.004292461684277194,11.882368695330761,0.0,-0.39779189782849367,0.0,0.0,0.0,-20.745260904103592,-0.3620731069618633,-0.015227198855603731,0.0,0.0,0.0,0.0,0.0,-0.004580028547213377,-0.2624163058047604,0.0,0.0,11.889025368202159,0.004292461684277194,0.034937921679162355,-0.033464993424605634,-1.917402884662954,0.0,0.0,0.028884964877392255,1.6549865788581937,-5.248535352617685,0.0,-15.445781835955978,11.88406596121404,0.0,-0.34336632809333606,0.0,-11.188882177639398,0.0,0.0,-0.3620731069618633,0.0,0.049366922353937914,0.6108652381980153,1.0,0.14,0.14,0.75,0.08726646259971647,5.0,0.184,0.175,0.174,0.0,0.0,0.0,0.0023596907576021314,0.0,-0.00022442456608743613,0.0,7.503420088583649,0.0,-0.5182860134925957,0.0,0.15344151065527353,0.0,-6.564715675205592,0.0,-0.03617753579557489,0.0,-0.006372941190565578,0.4949640481992205,-0.06365218322217014,0.10086346940311683,0.0,0.0,0.0,0.4789681984291812,0.10086346940311683,0.0,0.0,-0.04965747087981052,0.0,0.0,-0.0021318078397845226,0.0,1.2225330775284156,0.0,5.805416660055649,0.0,-0.0842634716798023,0.0,86.57623197852368,-1.4160905506474344,0.0,-5.761261778019624,0.0,-0.0842634716798023,0.0
sim_raptor_glider_3dof,raptor_glider_3dof,0.024,-14.713446390676502,0.0,-0.004641365881615559,11.877115896433397,0.0,-0.41315350273803036,0.0,0.0,0.0,-21.377448115864446,-0.37310685529609283,-0.015697469212711652,0.0,0.0,0.0,0.0,0.0,-0.0049476485267132215,-0.2834793790947873,0.0,0.0,11.88429963582775,0.004641365881615559,0.03492403431140424,-0.03477165523084389,-1.9922690914113472,0.0,0.0,0.02982400670413067,1.7087897123165599,-5.256953939345389,0.0,-15.27734186733054,11.879014655407467,0.0,-0.35438489069119256,0.0,-10.879609101563481,0.0,0.0,-0.37310685529609283,0.0,0.049366922353937914,0.6108652381980153,1.0,0.14,0.14,0.75,0.08726646259971647,5.0,0.184,0.175,0.174,0.0,0.0,0.0,0.0023483113176346513,0.0,-0.00023043360787906893,0.0,7.503932504638394,0.0,-0.5184133963473413,0.0,0.15191095723438938,0.0,-6.564777401392105,0.0,-0.035787639490826514,0.0,-0.006250142898436918,0.4892196843174472,-0.06275034635413398,0.10059537704246056,0.0,0.0,0.0,0.4727286993922314,0.10059537704246056,0.0,0.0,-0.048323291593601894,0.0,0.0,-0.0021976456897796317,0.0,1.2183145118320504,0.0,5.725235607854522,0.0,-0.08193433614387459,0.0,86.50741981326756,-1.4166138785299087,0.0,-5.679420580864068,0.0,-0.08193433614387459,0.0
sim_raptor_glider_3dof,raptor_glider_3dof,0.025,-14.701569899735464,0.0,-0.005001137567390128,11.871854966804865,0.0,-0.42834647710427864,0.0,0.0,0.0,-21.9920663212473,-0.38383396662272234,-0.016155199363643725,0.0,0.0,0.0,0.0,0.0,-0.00532614448898479,-0.30516560029569106,0.0,0.0,11.879580003404875,0.005001137567390128,0.03491016486939044,-0.03606519332509488,-2.0663833648513243,0.0,0.0,0.03073904883611009,1.7612177645556335,-5.264811878615572,0.0,-15.108548047025844,11.873968002351399,0.0,-0.36510948554114414,0.0,-10.575469135533476,0.0,0.0,-0.38383396662272234,0.0,0.049366922353937914,0.6108652381980153,1.0,0.14,0.14,0.75,0.08726646259971647,5.0,0.184,0.175,0.174,0.0,0.0,0.0,0.0023370186438250425,0.0,-0.00023635369479442918,0.0,7.504430673565928,0.0,-0.5185373798880625,0.0,0.15039533207715294,0.0,-6.564827517035287,0.0,-0.035401850305421624,0.0,-0.006129764742300522,0.4835270294702308,-0.06185759611656046,0.1003339885836426,0.0,0.0,0.0,0.4665540491603367,0.1003339885836426,0.0,0.0,-0.04700974249097095,0.0,0.0,-0.002261727910910122,0.0,1.21418386941726,0.0,5.645967121396204,0.0,-0.07964385805970262,0.0,86.43872377483568,-1.4169730682589519,0.0,-5.598515386106286,0.0,-0.07964385805970262,0.0
sim_raptor_glider_3dof,raptor_glider_3dof,0.026000000000000002,-14.689698452871284,0.0,-0.005371488293236039,11.866586457620697,0.0,-0.44337051257014987,0.0,0.0,0.0,-22.589404588382898,-0.394259486132396,-0.016600586207934975,0.0,0.0,0.0,0.0,0.0,-0.005715216354543028,-0.3274577761194595,0.0,0.0,11.874866381042088,0.005371488293236039,0.03489631308895967,-0.037345564652024724,-2.1397432380939696,0.0,0.0,0.031630348297481695,1.81228546197451,-5.27211380959066,0.0,-14.939476413956758,11.868926599460021,0.0,-0.375543531743066,0.0,-10.276418192062788,0.0,0.0,-0.394259486132396,0.0,0.049366922353937914,0.6108652381980153,1.0,0.14,0.14,0.75,0.08726646259971647,5.0,0.184,0.175,0.174,0.0,0.0,0.0,0.002325807373860078,0.0,-0.00024217865233020107,0.0,7.5049148509891,0.0,-0.5186580226127865,0.0,0.148894707408878,0.0,-6.564866357004492,0.0,-0.035020173518464495,0.0,-0.006011769139081992,0.477886724408407,-0.06097397089862186,0.10007920763351609,0.0,0.0,0.0,0.46044468637301916,0.10007920763351609,0.0,0.0,-0.045716682712198344,0.0,0.0,-0.0023240820691108966,0.0,1.2101397587398044,0.0,5.5676142413208485,0.0,-0.07739170540442486,0.0,86.37014244980134,-1.417173340133248,0.0,-5.518549293053124,0.0,-0.07739170540442486,0.0
sim_raptor_glider_3dof,raptor_glider_3dof,0.027,-14.677832044567047,0.0,-0.005752129108835705,11.861310922569347,0.0,-0.458225365746663,0.0,0.0,0.0,-23.169753304541885,-0.40438848203909233,-0.017033827965351946,0.0,0.0,0.0,0.0,0.0,-0.0061145648702851,-0.35033876062629393,0.0,0.0,11.870158688394884,0.005752129108835705,0.03488247873400595,-0.03861273149251772,-2.2123465499931454,0.0,0.0,0.03249816662223262,1.8620077893668516,-5.2788648389412165,0.0,-14.77020126002952,11.863891019750696,0.0,-0.38569049658416615,0.0,-9.982411081467387,0.0,0.0,-0.40438848203909233,0.0,0.049366922353937914,0.6108652381980153,1.0,0.14,0.14,0.75,0.08726646259971647,5.0,0.184,0.175,0.174,0.0,0.0,0.0,0.002314672495874745,0.0,-0.0002479027438750103,0.0,7.505385293113435,0.0,-0.5187753832359561,0.0,0.147409148610949,0.0,-6.564894254120236,0.0,-0.034642612961402475,0.0,-0.005896118573899629,0.4722993684339783,-0.06009950482774358,0.09983093655373669,0.0,0.0,0.0,0.45440100656845756,0.09983093655373669,0.0,0.0,-0.04444396572078596,0.0,0.0,-0.002384735915149273,0.0,1.206180779727922,0.0,5.490179490772088,0.0,-0.0751775378545309,0.0,86.30167456576969,-1.4172198707672614,0.0,-5.439524864561421,0.0,-0.0751775378545309,0.0
sim_raptor_glider_3dof,raptor_glider_3dof,0.028,-14.665970668715257,0.0,-0.006142774725297193,11.856028909768995,0.0,-0.47291087043727853,0.0,0.0,0.0,-23.733400108977985,-0.41422597459484684,-0.017455121194132017,0.0,0.0,0.0,0.0,0.0,-0.006523896110686955,-0.3737917131241751,0.0,0.0,11.865456847532501,0.006142774725297193,0.03486866157551647,-0.03986666252786545,-2.28419150611904,0.0,0.0,0.033342766417178496,1.9103997929948648,-5.285070451421795,0.0,-14.600794204030297,11.858861806636995,0.0,-0.3955538544146025,0.0,-9.693401957206536,0.0,0.0,-0.41422597459484684,0.0,0.049366922353937914,0.6108652381980153,1.0,0.14,0.14,0.75,0.08726646259971647,5.0,0.184,0.175,0.174,0.0,0.0,0.0,0.0023036093297822027,0.0,-0.0002535206658138674,0.0,7.505842256894557,0.0,-0.5188895207329246,0.0,0.14593871297328168,0.0,-6.564911538912945,0.0,-0.034269170703298726,0.0,-0.005782775524618944,0.4667655149590395,-0.059234227048478236,0.09958907636335781,0.0,0.0,0.0,0.448423360882901,0.09958907636335781,0.0,0.0,-0.04319144133281087,0.0,0.0,-0.0024437169671784826,0.0,1.202305521164222,0.0,5.413664854581349,0.0,-0.07300101013972242,0.0,86.23331888741383,-1.4171177892261602,0.0,-5.361444105407612,0.0,-0.07300101013972242,0.0
sim_raptor_glider_3dof,raptor_glider_3dof,0.029,-14.654114318671217,0.0,-0.006543143382784352,11.850740961594552,0.0,-0.48742693182678903,0.0,0.0,0.0,-24.280629957335776,-0.4237769372138796,-0.01786466083270011,0.0,0.0,0.0,0.0,0.0,-0.006942921221179467,-0.39780008346539897,0.0,0.0,11.860760783047816,0.006543143382784352,0.03485486139189461,-0.04110733236447804,-2.3552766515261268,0.0,0.0,0.03416441114329857,1.9574765680607278,-5.2907364839971684,0.0,-14.431324317029361,11.853839474864673,0.0,-0.405137083991417,0.0,-9.409344387921319,0.0,0.0,-0.4237769372138796,0.0,0.049366922353937914,0.6108652381980153,1.0,0.14,0.14,0.75,0.08726646259971647,5.0,0.184,0.175,0.174,0.0,0.0,0.0,0.0022926135216337277,0.0,-0.00025902753516017675,0.0,7.506285999622583,0.0,-0.5190004942391467,0.0,0.14448345025162565,0.0,-6.564918539334486,0.0,-0.03389984719491167,0.0,-0.005671702527970829,0.4612856738615971,-0.05837816206447538,0.0993535269493579,0.0,0.0,0.0,0.4425120583720867,0.0993535269493579,0.0,0.0,-0.04195895603054319,0.0,0.0,-0.0025010525165780157,0.0,1.1985125632775573,0.0,5.338071809278485,0.0,-0.07086177258543545,0.0,86.16507421799635,-1.4168721718513873,0.0,-5.284308493453136,0.0,-0.07086177258543545,0.0
sim_raptor_glider_3dof,raptor_glider_3dof,0.03,-14.642262987312378,0.0,-0.006952956666631335,11.845447614607279,0.0,-0.5017735200220943,0.0,0.0,0.0,-24.81172522994324,-0.4330462983626567,-0.018262640273811033,0.0,0.0,0.0,0.0,0.0,-0.007371356100379257,-0.42234759383974424,0.0,0.0,11.856070422184604,0.006952956666631335,0.03484107796933381,-0.042334721002551694,-2.4256008403100573,0.0,0.0,0.03496336490217244,2.003253246470313,-5.2958691018733965,0.0,-14.261858267340772,11.848824511469473,0.0,-0.4144436658953732,0.0,-9.130191431186795,0.0,0.0,-0.4330462983626567,0.0,0.049366922353937914,0.6108652381980153,1.0,0.14,0.14,0.75,0.08726646259971647,5.0,0.184,0.175,0.174,0.0,0.0,0.0,0.0022816810381970833,0.0,-0.0002644188766489632,0.0,7.50671677851266,0.0,-0.5191083629504031,0.0,0.1430434032923435,0.0,-6.564915580501429,0.0,-0.03353464142880894,0.0,-0.005562862246948613,0.45586031411814254,-0.057531330119558424,0.09912418727735169,0.0,0.0,0.0,0.4366673685752724,0.09912418727735169,0.0,0.0,-0.04074635328510953,0.0,0.0,-0.002556769638333545,0.0,1.1948004803287493,0.0,5.263401355895239,0.0,-0.06875947166826775,0.0,86.09693940113951,-1.4164880375418658,0.0,-5.208119013668413,0.0,-0.06875947166826775,0.0
sim_raptor_glider_3dof,raptor_glider_3dof,0.03,-14.642262987312378,0.0,-0.006952956666631335,11.845447614607279,0.0,-0.5017735200220943,0.0,0.0,0.0,-24.81172522994324,-0.4330462983626567,-0.018262640273811033,0.0,0.0,0.0,0.0,0.0,-0.007371356100379257,-0.42234759383974424,0.0,0.0,11.856070422184604,0.006952956666631335,0.03484107796933381,-0.042334721002551694,-2.4256008403100573,0.0,0.0,0.03496336490217244,2.003253246470313,-5.281382252527651,0.0,-14.229680328744836,11.848824511469473,0.0,-0.4144436658953732,0.0,-8.749221890108773,0.0,0.0,-0.4330462983626567,0.0,0.0478760350553617,0.6108652381980153,1.0,0.14,0.14,0.75,0.08726646259971647,5.0,0.184,0.175,0.174,0.0,0.0,0.0,0.0024677859802525637,0.0,-0.0003313046572052405,0.0,7.506659069008106,0.0,-0.5190685294266704,0.0,0.14301797363720647,0.0,-6.564814007066985,0.0,-0.03356734987411346,0.0,-0.0055442672622777085,0.4551127025609091,-0.05583087392012357,0.09882503869232794,0.0,0.0,0.0,0.435919904567948,0.09882503869232794,0.0,0.0,-0.039046156785547924,0.0,0.0,-0.002556769638333545,0.0,1.1911946714652077,0.0,5.254391745027199,0.0,-0.06589039005440916,0.0,86.09693940113951,-1.412504153971786,0.0,-5.199270080554532,0.0,-0.06589039005440916,0.0
sim_raptor_glider_3dof,raptor_glider_3dof,0.031,-14.630416670379756,0.0,-0.007371921658039446,11.840164000123242,0.0,-0.5159165860034319,0.0,0.0,0.0,-25.30524302365217,-0.4416598087800557,-0.018633235464485448,0.0,0.0,0.0,0.0,0.0,-0.007808728872323013,-0.44740720774605935,0.0,0.0,11.851398798181076,0.007371921658039446,0.03482734960821968,-0.04354588698902088,-2.4949955396245405,0.0,0.0,0.035737158116697865,2.0475883318784813,-5.285824340762696,0.0,-14.057219724792015,11.843831629376531,0.0,-0.4234451658809212,0.0,-8.47902174952129,0.0,0.0,-0.4416598087800557,0.0,0.0478760350553617,0.6108652381980153,1.0,0.14,0.14,0.75,0.08726646259971647,5.0,0.184,0.175,0.174,0.0,0.0,0.0,0.00245755054722127,0.0,-0.00033638136564577046,0.0,7.507076570324393,0.0,-0.519172867848575,0.0,0.14159669327380114,0.0,-6.5647994631830455,0.0,-0.03320726348774691,0.0,-0.005437942659754644,0.4497556556120789,-0.05499542510281153,0.0986031393204285,0.0,0.0,0.0,0.4301722980582102,0.0986031393204285,0.0,0.0,-0.0378701415183651,0.0,0.0,-0.002608652965027963,0.0,1.1875835556759444,0.0,5.181027204632022,0.0,-0.06385551279564484,0.0,86.0291035545372,-1.4119988885215513,0.0,-5.124417697227942,0.0,-0.06385551279564484,0.0
sim_raptor_glider_3dof,raptor_glider_3dof,0.032,-14.61857533108547,0.0,-0.007799733756855552,11.834876216164288,0.0,-0.5298876875955563,0.0,0.0,0.0,-25.783452015895943,-0.4500061302073535,-0.01899283714104562,0.0,0.0,0.0,0.0,0.0,-0.008254561849424254,-0.4729515557017131,0.0,0.0,11.846732714693808,0.007799733756855552,0.03481363752885423,-0.04474352093464655,-2.5636149101104917,0.0,0.0,0.036488959085222296,2.090663354408779,-5.289743537185247,0.0,-13.884982884235896,11.838846958309057,0.0,-0.43217902671564484,0.0,-8.213621087754092,0.0,0.0,-0.4500061302073535,0.0,0.0478760350553617,0.6108652381980153,1.0,0.14,0.14,0.75,0.08726646259971647,5.0,0.184,0.175,0.174,0.0,0.0,0.0,0.002447365745033759,0.0,-0.0003413348700352448,0.0,7.5074815810262,0.0,-0.5192742126792462,0.0,0.14019095943532744,0.0,-6.564775671159291,0.0,-0.032851349289152565,0.0,-0.0053337920448003635,0.444454935632633,-0.0541693975179443,0.09838726373209343,0.0,0.0,0.0,0.42449256313153677,0.09838726373209343,0.0,0.0,-0.036713677391368535,0.0,0.0,-0.002658997199746387,0.0,1.1840506241088726,0.0,5.108595007521474,0.0,-0.06185678041187607,0.0,85.96137484776622,-1.4113658650085013,0.0,-5.0505212826415,0.0,-0.06185678041187607,0.0
sim_raptor_glider_3dof,raptor_glider_3dof,0.033,-14.60673897216093,0.0,-0.0082361473821661,11.829584770995401,0.0,-0.5436866933190013,0.0,0.0,0.0,-26.246591003679416,-0.45808943043852896,-0.01934160793244299,0.0,0.0,0.0,0.0,0.0,-0.008708609677681787,-0.4989665799579506,0.0,0.0,11.842072076906916,0.0082361473821661,0.034799941452604885,-0.04592759390988861,-2.6314572942273604,0.0,0.0,0.03721898423220683,2.13249071426941,-5.293146606440745,0.0,-13.713027896275904,11.83387089202284,0.0,-0.44064814261836927,0.0,-7.9529806665167015,0.0,0.0,-0.45808943043852896,0.0,0.0478760350553617,0.6108652381980153,1.0,0.14,0.14,0.75,0.08726646259971647,5.0,0.184,0.175,0.174,0.0,0.0,0.0,0.002437228703096283,0.0,-0.00034616188884957185,0.0,7.507874352472106,0.0,-0.5193726218768205,0.0,0.13880082368563643,0.0,-6.564742951503025,0.0,-0.03249960918188721,0.0,-0.0052317803831149435,0.439211001506707,-0.0533528158712755,0.09817731118030353,0.0,0.0,0.0,0.4188809908082886,0.09817731118030353,0.0,0.0,-0.03557664006294188,0.0,0.0,-0.002707825110542019,0.0,1.1805944639902368,0.0,5.0370963807595475,0.0,-0.05989389739953728,0.0,85.89375181036803,-1.4106099387538762,0.0,-4.977582027265257,0.0,-0.05989389739953728,0.0
sim_raptor_glider_3dof,raptor_glider_3dof,0.034,-14.594907585909935,0.0,-0.008680931232637287,11.82429011514255,0.0,-0.5573138715466216,0.0,0.0,0.0,-26.69489854133814,-0.4659138730321821,-0.01967971064114889,0.0,0.0,0.0,0.0,0.0,-0.0091706430110354,-0.5254391399534736,0.0,0.0,11.83741675698191,0.008680931232637287,0.03478626100379649,-0.04709811086676968,-2.698522975705142,0.0,0.0,0.03792746785573428,2.1730838357516684,-5.296040611615355,0.0,-13.54140515711904,11.828903758051977,0.0,-0.44885561288672277,0.0,-7.69705594763946,0.0,0.0,-0.4659138730321821,0.0,0.0478760350553617,0.6108652381980153,1.0,0.14,0.14,0.75,0.08726646259971647,5.0,0.184,0.175,0.174,0.0,0.0,0.0,0.002427136597668187,0.0,-0.0003508596240943652,0.0,7.508255144888693,0.0,-0.519468155701444,0.0,0.13742629726856445,0.0,-6.564701620532524,0.0,-0.032152035166721174,0.0,-0.005131870335849752,0.434024146306334,-0.052545681008803094,0.09797317522047151,0.0,0.0,0.0,0.41333770589234825,0.09797317522047151,0.0,0.0,-0.034458881041544515,0.0,0.0,-0.0027551594897608452,0.0,1.1772135920685516,0.0,4.966530526298932,0.0,-0.05796652834167278,0.0,85.82623249530424,-1.4097359025592404,0.0,-4.905599045483188,0.0,-0.05796652834167278,0.0
sim_raptor_glider_3dof,raptor_glider_3dof,0.034999999999999996,-14.583081161832734,0.0,-0.009133783521103032,11.818992835448054,0.0,-0.5707696287238815,0.0,0.0,0.0,-27.128686590377093,-0.4734849027437145,-0.020007362252732634,0.0,0.0,0.0,0.0,0.0,-0.009640363789627284,-0.5523521581163876,0.0,0.0,11.832766777615706,0.009133783521103032,0.03477259624912782,-0.04825508783501176,-2.764812872979255,0.0,0.0,0.03861472404538448,2.212460714862867,-5.298434320840106,0.0,-13.370175271972652,11.823945972745896,0.0,-0.4568054805189001,0.0,-7.445789789524496,0.0,0.0,-0.4734849027437145,0.0,0.0478760350553617,0.6108652381980153,1.0,0.14,0.14,0.75,0.08726646259971647,5.0,0.184,0.175,0.174,0.0,0.0,0.0,0.002417086830376614,0.0,-0.0003554256510904132,0.0,7.508624219076746,0.0,-0.519560874648444,0.0,0.1360673778626201,0.0,-6.564651990142189,0.0,-0.03180861612609884,0.0,-0.0050340243065963505,0.42889459842120853,-0.05174798566701503,0.09777474810163549,0.0,0.0,0.0,0.4078627113533091,0.09777474810163549,0.0,0.0,-0.03336019380682945,0.0,0.0,-0.0028010307153825695,0.0,1.173906544078161,0.0,4.8968953153979315,0.0,-0.056074242904908984,0.0,85.7588171405903,-1.4087484751705408,0.0,-4.834570098561031,0.0,-0.056074242904908984,0.0
sim_raptor_glider_3dof,raptor_glider_3dof,0.036,-14.57125969072651,0.0,-0.009594458004900877,11.813693409441317,0.0,-0.5840543733292749,0.0,0.0,0.0,-27.54821072199002,-0.48080698013193013,-0.020324738689020502,0.0,0.0,0.0,0.0,0.0,-0.010117530474016846,-0.5796917952561605,0.0,0.0,11.828122060719625,0.009594458004900877,0.034758946959121996,-0.04939854141111011,-2.8303279369588314,0.0,0.0,0.03928101093709326,2.250636141702671,-5.300335631617971,0.0,-13.199387869388811,11.818997850751208,0.0,-0.46450111649017517,0.0,-7.199133304229771,0.0,0.0,-0.48080698013193013,0.0,0.0478760350553617,0.6108652381980153,1.0,0.14,0.14,0.75,0.08726646259971647,5.0,0.184,0.175,0.174,0.0,0.0,0.0,0.0024070771065193217,0.0,-0.00035985786361998737,0.0,7.508981832810407,0.0,-0.5196508385468641,0.0,0.13472406192956837,0.0,-6.564594367967687,0.0,-0.03146934094515642,0.0,-0.004938205351804342,0.4238225685205445,-0.050959721738591326,0.09758192269960761,0.0,0.0,0.0,0.4024560354203982,0.09758192269960761,0.0,0.0,-0.03228040862062107,0.0,0.0,-0.0028454634164628706,0.0,1.1706718478595477,0.0,4.828188845163221,0.0,-0.054216672914154405,0.0,85.6915045235009,-1.4076522898970698,0.0,-4.764493166190606,0.0,-0.054216672914154405,0.0
sim_raptor_glider_3dof,raptor_glider_3dof,0.037,-14.559443162782474,0.0,-0.01006270246008641,11.808392324882629,0.0,-0.5971685723538316,0.0,0.0,0.0,-27.953733327031603,-0.4878846847811703,-0.02063202118038949,0.0,0.0,0.0,0.0,0.0,-0.010601896671190467,-0.6074439340930105,0.0,0.0,11.823482549661673,0.01006270246008641,0.03474531296735629,-0.05052849307154848,-2.8950693981557496,0.0,0.0,0.03992659640035802,2.2876254640627396,-5.301752792388465,0.0,-13.02909211681309,11.814059699089084,0.0,-0.4719460016921817,0.0,-6.957035834547703,0.0,0.0,-0.4878846847811703,0.0,0.0478760350553617,0.6108652381980153,1.0,0.14,0.14,0.75,0.08726646259971647,5.0,0.184,0.175,0.174,0.0,0.0,0.0,0.0023971053861803877,0.0,-0.0003641544792205296,0.0,7.509328242134682,0.0,-0.5197381068856171,0.0,0.1333963396583893,0.0,-6.564529057118875,0.0,-0.03113419722940875,0.0,-0.004844376816328623,0.4188082308571887,-0.0501808773152033,0.09739459183080829,0.0,0.0,0.0,0.39711766414927796,0.09739459183080829,0.0,0.0,-0.031219346958797054,0.0,0.0,-0.002888482965254529,0.0,1.167508039462899,0.0,4.760408733088909,0.0,-0.05239343686997876,0.0,85.62429373396448,-1.406451896854004,0.0,-4.6953657355008485,0.0,-0.05239343686997876,0.0
sim_raptor_glider_3dof,raptor_glider_3dof,0.038,-14.547631567903156,0.0,-0.010538267662259345,11.80309006224396,0.0,-0.6101127382551589,0.0,0.0,0.0,-28.34551433600892,-0.49472255333460996,-0.02092938945165334,0.0,0.0,0.0,0.0,0.0,-0.011093220001941479,-0.6355946873213536,0.0,0.0,11.818848191377336,0.010538267662259345,0.03473169411789161,-0.051644968148992096,-2.9590387080248104,0.0,0.0,0.04055174814705062,2.323444020703457,-5.302694202412302,0.0,-12.85933528243915,11.809131804352434,0.0,-0.4791436092187119,0.0,-6.719446493184387,0.0,0.0,-0.49472255333460996,0.0,0.0478760350553617,0.6108652381980153,1.0,0.14,0.14,0.75,0.08726646259971647,5.0,0.184,0.175,0.174,0.0,0.0,0.0,0.0023871698812233965,0.0,-0.00036831402291623435,0.0,7.509663700919219,0.0,-0.5198227387022601,0.0,0.13208419617622114,0.0,-6.564456356092104,0.0,-0.030803171607334128,0.0,-0.004752502425409632,0.41385172821910704,-0.04941143741067412,0.09721264850084627,0.0,0.0,0.0,0.39184755354445944,0.09721264850084627,0.0,0.0,-0.030176828504569528,0.0,0.0,-0.002930114523231468,0.0,1.1644136625304473,0.0,4.693552248731579,0.0,-0.05060415154017162,0.0,85.55718391494753,-1.405151760497918,0.0,-4.627184934604455,0.0,-0.05060415154017162,0.0
sim_raptor_glider_3dof,raptor_glider_3dof,0.039,-14.535824895675207,0.0,-0.011020908314212458,11.797787092433529,0.0,-0.6228874362239585,0.0,0.0,0.0,-28.723810375159722,-0.5013250647650448,-0.021217021097067648,0.0,0.0,0.0,0.0,0.0,-0.011591263203244218,-0.664130460771185,0.0,0.0,11.814218934681922,0.011020908314212458,0.03471809026031303,-0.052747996465370976,-3.022237575236741,0.0,0.0,0.04115673326212676,2.358107114465556,-5.303168379710408,0.0,-12.690162484730036,11.80421443195243,0.0,-0.4860973987616473,0.0,-6.4863141927012,0.0,0.0,-0.5013250647650448,0.0,0.0478760350553617,0.6108652381980153,1.0,0.14,0.14,0.75,0.08726646259971647,5.0,0.184,0.175,0.174,0.0,0.0,0.0,0.0023772690886716017,0.0,-0.0003723353794656981,0.0,7.509988460949682,0.0,-0.5199047926219846,0.0,0.13078761078590723,0.0,-6.564376558577145,0.0,-0.030476249532351868,0.0,-0.004662546274797131,0.40895316957674716,-0.0486513835222137,0.09703598587998039,0.0,0.0,0.0,0.38664562787068857,0.09703598587998039,0.0,0.0,-0.02915267129167384,0.0,0.0,-0.0029703829535894706,0.0,1.1613872676319739,0.0,4.627616293299608,0.0,-0.04884843218523274,0.0,85.49017423792532,-1.4037562581019885,0.0,-4.559947511898484,0.0,-0.04884843218523274,0.0
sim_raptor_glider_3dof,raptor_glider_3dof,0.04,-14.524023135452916,0.0,-0.011510382308330779,11.792483878401848,0.0,-0.6354932719218622,0.0,0.0,0.0,-29.08887535441758,-0.5076966506368192,-0.021495092007048234,0.0,0.0,0.0,0.0,0.0,-0.012095793119045097,-0.6930378955846662,0.0,0.0,11.809594731447199,0.011510382308330779,0.03470450125318757,-0.053837611298507795,-3.084667906470332,0.0,0.0,0.041741818179462695,2.391630010885666,-5.303183979365582,0.0,-12.521617117142467,11.799307828015829,0.0,-0.49281081638883445,0.0,-6.2575875043847535,0.0,0.0,-0.5076966506368192,0.0,0.0478760350553617,0.6108652381980153,1.0,0.14,0.14,0.75,0.08726646259971647,5.0,0.184,0.175,0.174,0.0,0.0,0.0,0.002367404342577752,0.0,-0.00037622089411161057,0.0,7.510302772149478,0.0,-0.5199843276704331,0.0,0.1295065568212932,0.0,-6.5642899518956614,0.0,-0.030153415143812205,0.0,-0.004574474821420888,0.4041126371892021,-0.04790069336993774,0.09686449798384839,0.0,0.0,0.0,0.38151178631686217,0.09686449798384839,0.0,0.0,-0.028146691063166217,0.0,0.0,-0.003009312880986753,0.0,1.1584274206032958,0.0,4.562597481550895,0.0,-0.04712589149552158,0.0,85.4232639198476,-1.4022696849773155,0.0,-4.49364991939223,0.0,-0.04712589149552158,0.0
sim_raptor_glider_3dof,raptor_glider_3dof,0.04,-14.524023135452916,0.0,-0.011510382308330779,11.792483878401848,0.0,-0.6354932719218622,0.0,0.0,0.0,-29.08887535441758,-0.5076966506368192,-0.021495092007048234,0.0,0.0,0.0,0.0,0.0,-0.012095793119045097,-0.6930378955846662,0.0,0.0,11.809594731447199,0.011510382308330779,0.03470450125318757,-0.053837611298507795,-3.084667906470332,0.0,0.0,0.041741818179462695,2.391630010885666,-5.28830817583499,0.0,-12.48895676539083,11.799307828015829,0.0,-0.49281081638883445,0.0,-5.866893523683453,0.0,0.0,-0.5076966506368192,0.0,0.04633306074000104,0.6108652381980153,1.0,0.14,0.14,0.75,0.08726646259971647,5.0,0.184,0.175,0.174,0.0,0.0,0.0,0.0025553725706944663,0.0,-0.000441605259970832,0.0,7.510237813062276,0.0,-0.5199426436407096,0.0,0.12948118174288187,0.0,-6.56413789388083,0.0,-0.030185241085773196,0.0,-0.004556644852171469,0.40334410648481983,-0.04614289035436831,0.0965633417641264,0.0,0.0,0.0,0.38074345109469776,0.0965633417641264,0.0,0.0,-0.026389345637739474,0.0,0.0,-0.003009312880986753,0.0,1.1548258159899178,0.0,4.553408763206234,0.0,-0.04418357512686009,0.0,85.4232639198476,-1.3981788390064027,0.0,-4.48466832266053,0.0,-0.04418357512686009,0.0
sim_raptor_glider_3dof,raptor_glider_3dof,0.041,-14.512226288617207,0.0,-0.012006442672852748,11.787195888446158,0.0,-0.647896008218615,0.0,0.0,0.0,-29.41866224387546,-0.5134525176877698,-0.02174726865589064,0.0,0.0,0.0,0.0,0.0,-0.012606392528731473,-0.7222930867815668,0.0,0.0,11.804988612873274,0.012006442672852748,0.034690965390911495,-0.05491082908209426,-3.1461587559682216,0.0,0.0,0.04230443655336279,2.4238656691866547,-5.287672940383369,0.0,-12.317948917321125,11.79442669865405,0.0,-0.49925444429090093,0.0,-5.646710733905715,0.0,0.0,-0.5134525176877698,0.0,0.04633306074000104,0.6108652381980153,1.0,0.14,0.14,0.75,0.08726646259971647,5.0,0.184,0.175,0.174,0.0,0.0,0.0,0.0025460909764322354,0.0,-0.0004451811181040414,0.0,7.510541477969819,0.0,-0.5200193027656265,0.0,0.12821922931222016,0.0,-6.564043137584303,0.0,-0.02986743751451079,0.0,-0.004470740951440814,0.3985756037118821,-0.04540378700002084,0.0963981516554867,0.0,0.0,0.0,0.37570887685371535,0.0963981516554867,0.0,0.0,-0.025418785658554675,0.0,0.0,-0.0030446176118246898,0.0,1.1519511436729475,0.0,4.489694697948936,0.0,-0.04252537853704395,0.0,85.35664132039861,-1.396623884866343,0.0,-4.4197049270761335,0.0,-0.04252537853704395,0.0
sim_raptor_glider_3dof,raptor_glider_3dof,0.042,-14.5004342969205,0.0,-0.012508803403054965,11.781908753750454,0.0,-0.6601288542525404,0.0,0.0,0.0,-29.736009912231342,-0.5189912793741069,-0.021990433854129996,0.0,0.0,0.0,0.0,0.0,-0.013122614435256566,-0.7518704233176515,0.0,0.0,11.800387450669506,0.012508803403054965,0.034677444093771506,-0.055970504953087204,-3.2068737110279666,0.0,0.0,0.04284789051783064,2.455003287710315,-5.286596372936929,0.0,-12.147742725827209,11.789556696047276,0.0,-0.5054670084240599,0.0,-5.430812724829091,0.0,0.0,-0.5189912793741069,0.0,0.04633306074000104,0.6108652381980153,1.0,0.14,0.14,0.75,0.08726646259971647,5.0,0.184,0.175,0.174,0.0,0.0,0.0,0.0025368504655121707,0.0,-0.0004486361380659251,0.0,7.510835163813539,0.0,-0.5200935589620357,0.0,0.12697297731999047,0.0,-6.563942210736409,0.0,-0.029553740577768745,0.0,-0.00438667406911764,0.39386613449053987,-0.044674135681310546,0.09623793476334361,0.0,0.0,0.0,0.37074282115026375,0.09623793476334361,0.0,0.0,-0.02446598450025623,0.0,0.0,-0.0030786607395782,0.0,1.149140251557805,0.0,4.42689776965308,0.0,-0.04089945063068789,0.0,85.2901163576377,-1.3949871231351954,0.0,-4.355681130087089,0.0,-0.04089945063068789,0.0
sim_raptor_glider_3dof,raptor_glider_3dof,0.043000000000000003,-14.488647169573227,0.0,-0.013017262459481658,11.776622911996425,0.0,-0.6721919141197725,0.0,0.0,0.0,-30.041109173446326,-0.5243162660277106,-0.022224718068733752,0.0,0.0,0.0,0.0,0.0,-0.013644268296961859,-0.7817589879600659,0.0,0.0,11.795791163833275,0.013017262459481658,0.03466393712372763,-0.057016629685883856,-3.2668122430614654,0.0,0.0,0.043372361388922,2.4850532551013997,-5.285086734372368,0.0,-11.978377039194433,11.78469800752792,0.0,-0.511450928373999,0.0,-5.219163736422415,0.0,0.0,-0.5243162660277106,0.0,0.04633306074000104,0.6108652381980153,1.0,0.14,0.14,0.75,0.08726646259971647,5.0,0.184,0.175,0.174,0.0,0.0,0.0,0.002527656528124511,0.0,-0.0004519768645717617,0.0,7.511119101667343,0.0,-0.5201654675726705,0.0,0.12574244631439724,0.0,-6.563835393084755,0.0,-0.0292441472661295,0.0,-0.004304417776194097,0.3892159332952566,-0.04395394089397123,0.09608259338050565,0.0,0.0,0.0,0.36584538267712335,0.09608259338050565,0.0,0.0,-0.023530826145447343,0.0,0.0,-0.003111460529622726,0.0,1.1463918114728306,0.0,4.3650169735249005,0.0,-0.03930552209899721,0.0,85.22368777728087,-1.3932726477987447,0.0,-4.292595798985541,0.0,-0.03930552209899721,0.0
sim_raptor_glider_3dof,raptor_glider_3dof,0.044,-14.476864896543443,0.0,-0.0135316194828807,11.771338741460367,0.0,-0.6840859418054892,0.0,0.0,0.0,-30.33417356792385,-0.5294312046317069,-0.022450268846691313,0.0,0.0,0.0,0.0,0.0,-0.014171167157474972,-0.8119480688977195,0.0,0.0,11.791199656607535,0.0135316194828807,0.034650444199381514,-0.05804924932570374,-3.325976990265464,0.0,0.0,0.04387808216822876,2.5140289213677445,-5.283152801683505,0.0,-11.809883035846813,11.779850761235652,0.0,-0.5172092274867749,0.0,-5.01171615876927,0.0,0.0,-0.5294312046317069,0.0,0.04633306074000104,0.6108652381980153,1.0,0.14,0.14,0.75,0.08726646259971647,5.0,0.184,0.175,0.174,0.0,0.0,0.0,0.002518513936049908,0.0,-0.00045520969619854037,0.0,7.511393534401855,0.0,-0.5202350868816581,0.0,0.12452759161983198,0.0,-6.563722954975971,0.0,-0.0289386384220671,0.0,-0.004223941578547969,0.3846249766936157,-0.0432431689241968,0.09593202232280572,0.0,0.0,0.0,0.36101638409712883,0.09593202232280572,0.0,0.0,-0.022613140627779443,0.0,0.0,-0.003143037638536784,0.0,1.1437044074120017,0.0,4.304048008604041,0.0,-0.037743234391691374,0.0,85.15735411384044,-1.3914844301780203,0.0,-4.230444434391521,0.0,-0.037743234391691374,0.0
