name,vehicle,t,north,east,down,u,v,w,p_rad,p_deg,p_hat_div_b,q_deg,q_rad,q_hat_div_c,r_rad,r_deg,r_hat_div_b,phi_rad,phi_deg,theta_rad,theta_deg,psi_rad,psi_deg,speed,altitude,mach,alpha_rad,alpha_deg,beta_rad,beta_deg,gamma_rad,gamma_deg,u_dot,v_dot,w_dot,north_dot,east_dot,down_dot,p_rad_dot,q_rad_dot,r_rad_dot,phi_rad_dot,theta_rad_dot,psi_rad_dot,del_tail_alt_rad,del_tail_splay_rad,DIM_b,DIM_c_bar,DIM_S,DIM_wing_position,DIM_wing_incidence_rad,DIM_wing_incidence_deg,DIM_empennage_length,DIM_nose_length,DIM_tail_length,CDp,CDq,CDr,CYp,CYq,CYr,CLp,CLq,CLr,Clp,Clq,Clr,Cmp,Cmq,Cmr,Cnp,Cnq,Cnr,CL_0,Cm_0,CD_0,Cl_0,CY_0,Cn_0,CL,CD,CY,Cl,Cm,Cn,p_hat,q_hat,r_hat,drag_force_wind,side_force_wind,lift_force_wind,roll_moment_wind,pitch_moment_wind,yaw_moment_wind,qbar,X_total,Y_total,Z_total,L_total,M_total,N_total
sim_raptor_glider_3dof,raptor_glider_3dof,0.0,-15.0,0.0,0.0,12.0,0.0,0.0,0.0,0.0,0.0,0.0,0.0,0.0,0.0,0.0,0.0,0.0,0.0,0.0,0.0,0.0,0.0,12.0,-0.0,0.035264039495724236,0.0,0.0,0.0,0.0,0.0,0.0,-7.487178041450953,0.0,-25.024054441263395,12.0,0.0,0.0,0.0,-89.41363838472799,0.0,0.0,0.0,0.0,0.4363323129985824,0.3490658503988659,1.0,0.14,0.14,0.75,0.08726646259971647,5.0,0.184,0.175,0.174,0.0,0.0,0.0,-0.053153656886407115,0.0,0.055671173493162154,0.0,6.024209384397437,0.0,-0.5269202128147928,0.0,0.19813275846416445,0.0,-3.4552995296441478,0.0,-0.03588346466142729,0.0,-0.029845922084054996,0.7757079658211316,-0.38952171953159265,0.1667455120831285,0.0,0.0,0.0,0.7757079658211316,0.1667455120831285,0.0,0.0,-0.38952171953159265,0.0,0.0,0.0,0.0,2.0589739613990123,0.0,9.578443721347433,0.0,-0.6733741106753866,0.0,88.20001620075907,-2.0589739613990123,0.0,-9.578443721347433,0.0,-0.6733741106753866,0.0
sim_raptor_glider_3dof,raptor_glider_3dof,0.001,-14.988003746590733,0.0,-0.000012415174634177188,11.992502827180262,0.0,-0.02526770405029525,0.0,0.0,0.0,-5.103039651887635,-0.0890648437852645,-0.0037133468875430262,0.0,0.0,0.0,0.0,0.0,-0.000044590487564095195,-0.0025548467438532376,0.0,0.0,11.992529446150822,0.000012415174634177188,0.03524208600355821,-0.002106955238988487,-0.12071964281701804,0.0,0.0,0.002062364751424392,0.1181647960731648,-7.507675599275719,0.0,-25.508550485583747,11.99250394195709,0.0,-0.024732952477174667,0.0,-88.71856693472195,0.0,0.0,-0.0890648437852645,0.0,0.4363323129985824,0.3490658503988659,1.0,0.14,0.14,0.75,0.08726646259971647,5.0,0.184,0.175,0.174,0.0,0.0,0.0,-0.053430186057496054,0.0,0.0554080780660455,0.0,6.0240249874908525,0.0,-0.5274002219771142,0.0,0.1957017793236076,0.0,-3.453669819760639,0.0,-0.03525814560644711,0.0,-0.029499655008724115,0.7671435812705255,-0.38877083359862435,0.165760584735996,0.0,0.0,0.0,0.7640118800492363,0.165760584735996,0.0,0.0,-0.386975379228011,0.0,0.0,-0.0005198685642560238,0.0,2.0442643995802876,0.0,9.422277857722193,0.0,-0.6681395275853911,0.0,88.09023322213056,-2.064112165078258,0.0,-9.417949773357746,0.0,-0.6681395275853911,0.0
sim_raptor_glider_3dof,raptor_glider_3dof,0.002,-14.976014997218163,0.0,-0.000049270492086499364,11.984983638081903,0.0,-0.051011581957007696,0.0,0.0,0.0,-10.166686259086081,-0.1774421492383174,-0.0074026192836820276,0.0,0.0,0.0,0.0,0.0,-0.00017790069037163533,-0.010192958730758345,0.0,0.0,11.985092197667264,0.000049270492086499364,0.03522023038486956,-0.004256265628603735,-0.24386605700559036,0.0,0.0,0.0040783649382321,0.233673098274832,-7.5312069778045,0.0,-25.97647568606275,11.984992523423195,0.0,-0.04887944429772272,0.0,-88.03854836579413,0.0,0.0,-0.1774421492383174,0.0,0.4363323129985824,0.3490658503988659,1.0,0.14,0.14,0.75,0.08726646259971647,5.0,0.184,0.175,0.174,0.0,0.0,0.0,-0.05371000072613438,0.0,0.05518325282971427,0.0,6.023796383437123,0.0,-0.5278990096560925,0.0,0.1932332307470952,0.0,-3.4519868033346692,0.0,-0.03462545852853912,0.0,-0.029153229463314653,0.758374006898808,-0.388063512765844,0.16478068235403653,0.0,0.0,0.0,0.7521311449211472,0.16478068235403653,0.0,0.0,-0.38448598859501065,0.0,0.0,-0.001036366699715484,0.0,2.0296598650783366,0.0,9.264255835778041,0.0,-0.6630183077427956,0.0,87.98100758981425,-2.069072495287059,0.0,-9.25553317577674,0.0,-0.6630183077427956,0.0
sim_raptor_glider_3dof,raptor_glider_3dof,0.003,-14.964033765483153,0.0,-0.00010997650410396534,11.977439408842296,0.0,-0.07721526894416839,0.0,0.0,0.0,-15.191799193026208,-0.2651469152201249,-0.011068367643203196,0.0,0.0,0.0,0.0,0.0,-0.0003992506169425001,-0.022875375318799577,0.0,0.0,11.97768829909372,0.00010997650410396534,0.035198472770559576,-0.006446636600632963,-0.3693650692708328,0.0,0.0,0.006047385983690463,0.3464896939520332,-7.557751963901034,0.0,-26.428240508352538,11.977469282477013,0.0,-0.07243326284374174,0.0,-87.37346069275941,0.0,0.0,-0.2651469152201249,0.0,0.4363323129985824,0.3490658503988659,1.0,0.14,0.14,0.75,0.08726646259971647,5.0,0.184,0.175,0.174,0.0,0.0,0.0,-0.0539933342342998,0.0,0.0549956890768542,0.0,6.023523849844041,0.0,-0.5284156910211553,0.0,0.1907277346999606,0.0,-3.450251759098094,0.0,-0.033984927296559594,0.0,-0.028807107836358457,0.7494038488665931,-0.387399686775176,0.16380724554970857,0.0,0.0,0.0,0.7400699681597184,0.16380724554970857,0.0,0.0,-0.38205327508479314,0.0,0.0,-0.0015495714700484477,0.0,2.015177614704102,0.0,9.104435082498677,0.0,-0.6580095324771711,0.0,87.87233904709669,-2.0738283182350847,0.0,-9.09125486919839,0.0,-0.6580095324771711,0.0
sim_raptor_glider_3dof,raptor_glider_3dof,0.004,-14.95206006146447,0.0,-0.00019393750269191865,11.969867139046595,0.0,-0.10386280993339823,0.0,0.0,0.0,-20.179227607931264,-0.35219396226773997,-0.01471113674262299,0.0,0.0,0.0,0.0,0.0,-0.0007079751977142588,-0.040563990828967035,0.0,0.0,11.970317740549529,0.00019393750269191865,0.03517681313159225,-0.008676805031272569,-0.49714430794979647,0.0,0.0,0.00796882983355831,0.4565803171208294,-7.587282867422961,0.0,-26.864252771312174,11.96993767151242,0.0,-0.09538841555743248,0.0,-86.72306067972036,0.0,0.0,-0.35219396226773997,0.0,0.4363323129985824,0.3490658503988659,1.0,0.14,0.14,0.75,0.08726646259971647,5.0,0.184,0.175,0.174,0.0,0.0,0.0,-0.054280487125545326,0.0,0.054843901706905056,0.0,6.023207997132767,0.0,-0.5289492506950555,0.0,0.18818569052618506,0.0,-3.4484661334741316,0.0,-0.033335929119057396,0.0,-0.028461722112779208,0.7402377623774763,-0.38677875516894367,0.16284159593212236,0.0,0.0,0.0,0.727832609270965,0.16284159593212236,0.0,0.0,-0.37967643521108574,0.0,0.0,-0.0020595591439672187,0.0,2.000833340210975,0.0,8.942873240625298,0.0,-0.6531113699789741,0.0,87.76422654166264,-2.078352616244555,0.0,-8.925175978978858,0.0,-0.6531113699789741,0.0
sim_raptor_glider_3dof,raptor_glider_3dof,0.005,-14.94009389182307,0.0,-0.0003005518855746,11.962263859629724,0.0,-0.13093865674169305,0.0,0.0,0.0,-25.12980322664479,-0.4385978066832464,-0.01833146045868009,0.0,0.0,0.0,0.0,0.0,-0.0011034240774344013,-0.06322154265010774,0.0,0.0,11.962980463882431,0.0003005518855746,0.035155251297077285,-0.010945539172903748,-0.6271331991024985,0.0,0.0,0.009842115095469346,0.5639116564523908,-7.619764933048298,0.0,-27.284916404279006,11.96240105817221,0.0,-0.11773912974501546,0.0,-86.08698535636344,0.0,0.0,-0.4385978066832464,0.0,0.4363323129985824,0.3490658503988659,1.0,0.14,0.14,0.75,0.08726646259971647,5.0,0.184,0.175,0.174,0.0,0.0,0.0,-0.05457182683161292,0.0,0.05472593032343835,0.0,6.022849768199583,0.0,-0.529498543215881,0.0,0.18560727572066893,0.0,-3.446631540314975,0.0,-0.03267769521599154,0.0,-0.028117473742245224,0.7308804509402165,-0.3861995880247053,0.16188493539638366,0.0,0.0,0.0,0.7154233824078116,0.16188493539638366,0.0,0.0,-0.37735413745313595,0.0,0.0,-0.002566404464215213,0.0,1.9866411722863777,0.0,8.779628219436473,0.0,-0.6483210867187731,0.0,87.65666831823584,-2.0826180146542357,0.0,-8.757357879177162,0.0,-0.6483210867187731,0.0
sim_raptor_glider_3dof,raptor_glider_3dof,0.006,-14.92813525992473,0.0,-0.0004292124397594923,11.954626639550906,0.0,-0.15842765930436845,0.0,0.0,0.0,-30.04433358782197,-0.5243725426750143,-0.02192985685369944,0.0,0.0,0.0,0.0,0.0,-0.0015849610904613313,-0.09081158117588696,0.0,0.0,11.955676367913814,0.0004292124397594923,0.03513378696968413,-0.01325163807797221,-0.7592629335026617,0.0,0.0,0.01166667698751088,0.6684513523267749,-7.65515672930522,0.0,-27.690630360815796,11.954862725505864,0.0,-0.13947985016959272,0.0,-85.46475387002384,0.0,0.0,-0.5243725426750143,0.0,0.4363323129985824,0.3490658503988659,1.0,0.14,0.14,0.75,0.08726646259971647,5.0,0.184,0.175,0.174,0.0,0.0,0.0,-0.05486778710977721,0.0,0.05463934182373924,0.0,6.022450437086101,0.0,-0.5300622937916623,0.0,0.18299244783751023,0.0,-3.444749760445701,0.0,-0.03200931203935526,0.0,-0.02777473367758559,0.7213366671206888,-0.3856605284654083,0.16093834608201854,0.0,0.0,0.0,0.7028466604815571,0.16093834608201854,0.0,0.0,-0.37508452678533377,0.0,0.0,-0.003070179959517922,0.0,1.9726136922696764,0.0,8.61475825857789,0.0,-0.6436350613951496,0.0,87.54966199755503,-2.0865968109073574,0.0,-8.58786227075033,0.0,-0.6436350613951496,0.0
sim_raptor_glider_3dof,raptor_glider_3dof,0.007,-14.916184165882276,0.0,-0.0005793064854676666,11.946952592434664,0.0,-0.18631506489291877,0.0,0.0,0.0,-34.923595341205655,-0.6095317253381911,-0.025506823267053384,0.0,0.0,0.0,0.0,0.0,-0.00215196395569408,-0.12329845232554847,0.0,0.0,11.94840531406963,0.0005793064854676666,0.03511241974218939,-0.015593931681301612,-0.8934664713539263,0.0,0.0,0.013441967725607532,0.7701680190283778,-7.693410528399182,0.0,-28.081787400130356,11.947325872576652,0.0,-0.1606052419691676,0.0,-84.85576962259707,0.0,0.0,-0.6095317253381911,0.0,0.4363323129985824,0.3490658503988659,1.0,0.14,0.14,0.75,0.08726646259971647,5.0,0.184,0.175,0.174,0.0,0.0,0.0,-0.05516886739682447,0.0,0.05458123429015566,0.0,6.022011606567932,0.0,-0.5306390995932566,0.0,0.18034094615955698,0.0,-3.442822740123928,0.0,-0.031329722669104235,0.0,-0.027433842397851762,0.7116112100401488,-0.3851593965008954,0.16000279048359145,0.0,0.0,0.0,0.6901068760336266,0.16000279048359145,0.0,0.0,-0.3728652305367967,0.0,0.0,-0.0035709552573874744,0.0,1.9587619456352325,0.0,8.448321951825605,0.0,-0.6390488010277785,0.0,87.4432046606849,-2.090261009781001,0.0,-8.416751218395161,0.0,-0.6390488010277785,0.0
sim_raptor_glider_3dof,raptor_glider_3dof,0.008,-14.904240606651282,0.0,-0.0007502161182813057,11.939238882633015,0.0,-0.21458650998107728,0.0,0.0,0.0,-39.768327695755914,-0.6940882563029905,-0.02906283149078703,0.0,0.0,0.0,0.0,0.0,-0.0028038236298313884,-0.16064726048838937,0.0,0.0,11.941167131685324,0.0007502161182813057,0.035091149113066274,-0.017971280258754233,-1.0296785112733915,0.0,0.0,0.015167456628922844,0.8690312507850021,-7.734472659743328,0.0,-28.458772998507442,11.939793614875626,0.0,-0.18111019026309105,0.0,-84.25932271685393,0.0,0.0,-0.6940882563029905,0.0,0.4363323129985824,0.3490658503988659,1.0,0.14,0.14,0.75,0.08726646259971647,5.0,0.184,0.175,0.174,0.0,0.0,0.0,-0.05547563193059443,0.0,0.054548242134604644,0.0,6.021535204946049,0.0,-0.5312274312413525,0.0,0.17765229454057654,0.0,-3.440852589499303,0.0,-0.030637728722487007,0.0,-0.027095110104628704,0.7017089249620452,-0.38469349440195466,0.1590791122370665,0.0,0.0,0.0,0.6772085241452388,0.1590791122370665,0.0,0.0,-0.37069336574289874,0.0,0.0,-0.004068796408710184,0.0,1.9450954633896698,0.0,8.280378294547667,0.0,-0.634556959380627,0.0,87.33729292823296,-2.0935823601488033,0.0,-8.244087212286694,0.0,-0.634556959380627,0.0
sim_raptor_glider_3dof,raptor_glider_3dof,0.009000000000000001,-14.892304576113405,0.0,-0.0009413184291606596,11.931482731000013,0.0,-0.24322801242629782,0.0,0.0,0.0,-44.57922600410458,-0.7780542717623,-0.03259832301805841,0.0,0.0,0.0,0.0,0.0,-0.0035399435977275817,-0.2028238278641469,0.0,0.0,11.933961623290918,0.0009413184291606596,0.03506997450201568,-0.020382573901800104,-1.1678354601866447,0.0,0.0,0.01684263030407252,0.9650116323224979,-7.778283843616755,0.0,-28.821964269395146,11.932268984822977,0.0,-0.20098980076623565,0.0,-83.67459264387269,0.0,0.0,-0.7780542717623,0.0,0.4363323129985824,0.3490658503988659,1.0,0.14,0.14,0.75,0.08726646259971647,5.0,0.184,0.175,0.174,0.0,0.0,0.0,-0.055788708736007504,0.0,0.0545365423304085,0.0,6.021023482042527,0.0,-0.531825634606743,0.0,0.17492580464570248,0.0,-3.4388415806117196,0.0,-0.029931992558805562,0.0,-0.02675881698380161,0.6916347024036031,-0.3842596132891834,0.15816803727685969,0.0,0.0,0.0,0.6641561648322319,0.15816803727685969,0.0,0.0,-0.3685655476778038,0.0,0.0,-0.004563765222528177,0.0,1.9316222876944662,0.0,8.110986723910683,0.0,-0.6301533572010052,0.0,87.23192303897322,-2.096532395351765,0.0,-8.0699332223392,0.0,-0.6301533572010052,0.0
sim_raptor_glider_3dof,raptor_glider_3dof,0.01,-14.88037606515921,0.0,-0.0011519857253842968,11.923681420343334,0.0,-0.27222596258209436,0.0,0.0,0.0,-49.356935507178044,-0.8614410332947542,-0.03611370438294382,0.0,0.0,0.0,0.0,0.0,-0.004359739052099519,-0.24979464746366856,0.0,0.0,11.926788569792983,0.0011519857253842968,0.03504889526519434,-0.022826731891997996,-1.3078753974881616,0.0,0.0,0.01846699283989848,1.058080750024493,-7.824779502619,0.0,-29.171728920063018,11.924754932281528,0.0,-0.22023940058925584,0.0,-83.10065118556057,0.0,0.0,-0.8614410332947542,0.0,0.4363323129985824,0.3490658503988659,1.0,0.14,0.14,0.75,0.08726646259971647,5.0,0.184,0.175,0.174,0.0,0.0,0.0,-0.05610878847395166,0.0,0.05454186162840115,0.0,6.020479004498773,0.0,-0.5324319328652451,0.0,0.17216057968112747,0.0,-3.4367921450673697,0.0,-0.02921103978427371,0.0,-0.02642521354291394,0.6813934773072167,-0.3838540408424605,0.15727017538811427,0.0,0.0,0.0,0.6509544254455103,0.15727017538811427,0.0,0.0,-0.3664778994650984,0.0,0.0,-0.0050559186136121355,0.0,1.9183490019530007,0.0,7.940207158086878,0.0,-0.6258310040784566,0.0,87.12709092666549,-2.099082476605616,0.0,-7.894352751368246,0.0,-0.6258310040784566,0.0
sim_raptor_glider_3dof,raptor_glider_3dof,0.01,-14.88037606515921,0.0,-0.0011519857253842968,11.923681420343334,0.0,-0.27222596258209436,0.0,0.0,0.0,-49.356935507178044,-0.8614410332947542,-0.03611370438294382,0.0,0.0,0.0,0.0,0.0,-0.004359739052099519,-0.24979464746366856,0.0,0.0,11.926788569792983,0.0011519857253842968,0.03504889526519434,-0.022826731891997996,-1.3078753974881616,0.0,0.0,0.01846699283989848,1.058080750024493,-6.142796686759413,0.0,-19.07503735467121,11.924754932281528,0.0,-0.22023940058925584,0.0,32.96919752829673,0.0,0.0,-0.8614410332947542,0.0,-0.2881518852193315,0.3490658503988659,1.0,0.14,0.14,0.75,0.08726646259971647,5.0,0.184,0.175,0.174,0.0,0.0,0.0,-0.08013735481860224,0.0,0.031313014362477694,0.0,6.003935447740495,0.0,-0.5279419008821762,0.0,0.1659207314222698,0.0,-3.4785391901897382,0.0,-0.013958076873861632,0.0,-0.019339117806128646,0.4528730697562988,0.12780854801671365,0.12455525671480307,0.0,0.0,0.0,0.42251766077114195,0.12455525671480307,0.0,0.0,0.14539575905657323,0.0,0.0,-0.0050559186136121355,0.0,1.5192992048058733,0.0,5.153782850738101,0.0,0.24829102658560268,0.0,87.12709092666549,-1.6365372022442293,0.0,-5.117762570885498,0.0,0.24829102658560268,0.0
sim_raptor_glider_3dof,raptor_glider_3dof,0.011,-14.868454244929321,0.0,-0.0013765901020454411,11.917535944613638,0.0,-0.29096824379466174,0.0,0.0,0.0,-47.470523120642504,-0.828516926099305,-0.03475005661081465,0.0,0.0,0.0,0.0,0.0,-0.005204705930143275,-0.2982076834039212,0.0,0.0,11.921087429846953,0.0013765901020454411,0.03503214149650872,-0.02441028502391499,-1.3986063085817286,0.0,0.0,0.019205579093771713,1.1003986251778075,-6.147892615144158,0.0,-18.41108287559876,11.918888925434711,0.0,-0.2289373128278505,0.0,32.878757401567086,0.0,0.0,-0.828516926099305,0.0,-0.2881518852193315,0.3490658503988659,1.0,0.14,0.14,0.75,0.08726646259971647,5.0,0.184,0.175,0.174,0.0,0.0,0.0,-0.08062495936097633,0.0,0.031235020040521852,0.0,6.003294812099241,0.0,-0.5282372972467917,0.0,0.16411453875609788,0.0,-3.475643951533018,0.0,-0.01336875167574023,0.0,-0.01914068268747133,0.4463203285178304,0.12822659813247506,0.12430502013268797,0.0,0.0,0.0,0.41711425167777016,0.12430502013268797,0.0,0.0,0.14513563350294817,0.0,0.0,-0.004865007925514052,0.0,1.5147976509624408,0.0,5.083010227181399,0.0,0.24760992199120171,0.0,87.04381536329444,-1.6384117747725655,0.0,-5.04452294565885,0.0,0.24760992199120171,0.0
sim_raptor_glider_3dof,raptor_glider_3dof,0.012,-14.856538285728668,0.0,-0.0016097642183141546,11.911386523319448,0.0,-0.30905244730535003,0.0,0.0,0.0,-45.58936850338641,-0.7956845842890925,-0.03338892970782429,0.0,0.0,0.0,0.0,0.0,-0.006016800774124121,-0.34473729052835866,0.0,0.0,11.91539518115541,0.0016097642183141546,0.03501541385628555,-0.025940147608111027,-1.4862609778911393,0.0,0.0,0.019923346833986905,1.1415236873627805,-6.150663038686839,0.0,-17.758803430452538,11.913030412392901,0.0,-0.23737884594763264,0.0,32.78558215625415,0.0,0.0,-0.7956845842890925,0.0,-0.2881518852193315,0.3490658503988659,1.0,0.14,0.14,0.75,0.08726646259971647,5.0,0.184,0.175,0.174,0.0,0.0,0.0,-0.0810951982483846,0.0,0.031157810071236882,0.0,6.002665312815914,0.0,-0.5285204819307525,0.0,0.16236828645955073,0.0,-3.472839769580495,0.0,-0.012800518591161388,0.0,-0.018949955899374298,0.43998132240467974,0.1286290257027606,0.12406818671429021,0.0,0.0,0.0,0.4119221625781909,0.12406818671429021,0.0,0.0,0.144862642116189,0.0,0.0,-0.004674450159095401,0.0,1.510468054221362,0.0,5.014946086323924,0.0,0.24690821921875003,0.0,86.96070939602036,-1.6400337453301959,0.0,-4.974081553989351,0.0,0.24690821921875003,0.0
sim_raptor_glider_3dof,raptor_glider_3dof,0.013000000000000001,-14.844628181686225,0.0,-0.0018512665802620733,11.90523533272511,0.0,-0.32648967329703943,0.0,0.0,0.0,-43.71362248815631,-0.7629466403921635,-0.032030442199672514,0.0,0.0,0.0,0.0,0.0,-0.006796106474324934,-0.3893882181003527,0.0,0.0,11.909711324559298,0.0018512665802620733,0.034998710877661106,-0.02741717005279462,-1.570888130217604,0.0,0.0,0.020621063578469687,1.1814999121172516,-6.151252988106708,0.0,-17.11809153088729,11.90717924135699,0.0,-0.24557350942868736,0.0,32.68974127259972,0.0,0.0,-0.7629466403921635,0.0,-0.2881518852193315,0.3490658503988659,1.0,0.14,0.14,0.75,0.08726646259971647,5.0,0.184,0.175,0.174,0.0,0.0,0.0,-0.08154839462209182,0.0,0.031081632379090455,0.0,6.00204780634204,0.0,-0.5287917851778015,0.0,0.16068109697581057,0.0,-3.4701257999970325,0.0,-0.012252915356914949,0.0,-0.018766842981992365,0.4338538139105613,0.12901611635160493,0.12384409956713333,0.0,0.0,0.0,0.4069390595628619,0.12384409956713333,0.0,0.0,0.14457706929234054,0.0,0.0,-0.004484261907954152,0.0,1.5063018106834418,0.0,4.949553869743111,0.0,0.2461864415239485,0.0,86.87776555641616,-1.6414214611468112,0.0,-4.906400334384047,0.0,0.2461864415239485,0.0
sim_raptor_glider_3dof,raptor_glider_3dof,0.014,-14.832723924942092,0.0,-0.0021008389065412295,11.899084634288089,0.0,-0.34329217494287223,0.0,0.0,0.0,-41.84344566326726,-0.7303058972033561,-0.03067471901742382,0.0,0.0,0.0,0.0,0.0,-0.007542724642041917,-0.43216628801832646,0.0,0.0,11.904035645583724,0.0021008389065412295,0.03498203193036446,-0.028842300712452956,-1.6525421022707216,0.0,0.0,0.02129957607041104,1.2203758142523953,-6.1498040229165,0.0,-16.48881809805001,11.90133548419111,0.0,-0.25353174172375437,0.0,32.59131411053997,0.0,0.0,-0.7303058972033561,0.0,-0.2881518852193315,0.3490658503988659,1.0,0.14,0.14,0.75,0.08726646259971647,5.0,0.184,0.175,0.174,0.0,0.0,0.0,-0.08198490175849034,0.0,0.031006698678668794,0.0,6.001443022767197,0.0,-0.5290515533707868,0.0,0.15905198162749784,0.0,-3.4675009806986394,0.0,-0.011725456411620875,0.0,-0.018591219990317726,0.4279350237913048,0.12938819081420644,0.12363211955520463,0.0,0.0,0.0,0.4021620628121601,0.12363211955520463,0.0,0.0,0.14427923737278656,0.0,0.0,-0.004294460662439335,0.0,1.5022906375558096,0.0,4.886790778290151,0.0,0.24544518656647651,0.0,86.79498054161758,-1.6425925676389697,0.0,-4.8414348004704895,0.0,0.24544518656647651,0.0
sim_raptor_glider_3dof,raptor_glider_3dof,0.015,-14.820825508315124,0.0,-0.0023582553133379485,11.892936345868893,0.0,-0.359471069855717,0.0,0.0,0.0,-39.978980572276555,-0.6977648425770727,-0.029321872506168557,0.0,0.0,0.0,0.0,0.0,-0.00825675174527674,-0.4730770274916337,0.0,0.0,11.898367719017283,0.0023582553133379485,0.03496537576483964,-0.030216394846434895,-1.7312718968015708,0.0,0.0,0.021959643101158156,1.258194869309937,-6.146450887198391,0.0,-15.87086227500025,11.89549898361119,0.0,-0.26126290945652625,0.0,32.49037374612605,0.0,0.0,-0.6977648425770727,0.0,-0.2881518852193315,0.3490658503988659,1.0,0.14,0.14,0.75,0.08726646259971647,5.0,0.184,0.175,0.174,0.0,0.0,0.0,-0.08240504405365048,0.0,0.03093319700590992,0.0,6.000851650472122,0.0,-0.5293001131271704,0.0,0.1574800581490687,0.0,-3.4649643838678954,0.0,-0.011217702761003007,0.0,-0.018422959609132223,0.4222224352882403,0.12974555311975158,0.12343165283521178,0.0,0.0,0.0,0.3975885663049399,0.12343165283521178,0.0,0.0,0.1439694472660581,0.0,0.0,-0.004105062150863598,0.0,1.4984267805935683,0.0,4.826617336190849,0.0,0.24468500468207532,0.0,86.71234798338457,-1.643563560984346,0.0,-4.779143913696522,0.0,0.24468500468207532,0.0
sim_raptor_glider_3dof,raptor_glider_3dof,0.016,-14.808932924600219,0.0,-0.002623292935398057,11.886792313574547,0.0,-0.37503761934245794,0.0,0.0,0.0,-38.120369297867875,-0.6653259563239534,-0.027972014475709017,0.0,0.0,0.0,0.0,0.0,-0.008938288577957592,-0.5121262115869604,0.0,0.0,11.892707207443435,0.002623292935398057,0.034948741389530795,-0.03154032137058997,-1.8071272990210814,0.0,0.0,0.022602032792632377,1.2950010874341211,-6.141323612339166,0.0,-15.264096086707221,11.889669630803963,0.0,-0.2687764727705025,0.0,32.386995732923936,0.0,0.0,-0.6653259563239534,0.0,-0.2881518852193315,0.3490658503988659,1.0,0.14,0.14,0.75,0.08726646259971647,5.0,0.184,0.175,0.174,0.0,0.0,0.0,-0.08280914947489341,0.0,0.030861288799124992,0.0,6.00027429665038,0.0,-0.5295377903239148,0.0,0.1559644282068547,0.0,-3.4625150212233042,0.0,-0.010729221437471799,0.0,-0.018261920070819292,0.4167133625305953,0.13008851707319855,0.12324213297798466,0.0,0.0,0.0,0.3932157962028172,0.12324213297798466,0.0,0.0,0.1436480099146411,0.0,0.0,-0.003916082026599263,0.0,1.4947028700273985,0.0,4.768992266869079,0.0,0.24390646486465017,0.0,86.629862804561,-1.6443500837815177,0.0,-4.719484793183779,0.0,0.24390646486465017,0.0
sim_raptor_glider_3dof,raptor_glider_3dof,0.017,-14.797046166714008,0.0,-0.0028957388162907404,11.880654248596091,0.0,-0.39000294803164937,0.0,0.0,0.0,-36.2677493491784,-0.6329916384311938,-0.026625253402142324,0.0,0.0,0.0,0.0,0.0,-0.009587438511120872,-0.5493197630284157,0.0,0.0,11.88705378443951,0.0028957388162907404,0.034932127845189426,-0.03281493949174409,-1.880157537854107,0.0,0.0,0.02322750098062322,1.3308377748256914,-6.13454717081729,0.0,-14.668388317520218,11.883847295985936,0.0,-0.27608172675040876,0.0,32.281255721526215,0.0,0.0,-0.6329916384311938,0.0,-0.2881518852193315,0.3490658503988659,1.0,0.14,0.14,0.75,0.08726646259971647,5.0,0.184,0.175,0.174,0.0,0.0,0.0,-0.083197542095361,0.0,0.030791112446237036,0.0,5.999711501599728,0.0,-0.5297649052233443,0.0,0.1545042035669235,0.0,-3.4601518881138453,0.0,-0.01025959330004133,0.0,-0.018107950052984927,0.41140505763126833,0.13041739872594155,0.12306302306898405,0.0,0.0,0.0,0.38904092016149067,0.12306302306898405,0.0,0.0,0.14331523764227208,0.0,0.0,-0.003727535476299926,0.0,1.4911119247276095,0.0,4.713873759907706,0.0,0.24311013683881394,0.0,86.54752009764678,-1.64496688929404,0.0,-4.662414023822592,0.0,0.24311013683881394,0.0
sim_raptor_glider_3dof,raptor_glider_3dof,0.018000000000000002,-14.785165227716345,0.0,-0.003175389737264294,11.874523732629704,0.0,-0.404378040718951,0.0,0.0,0.0,-34.42125366192852,-0.6007642090648078,-0.02528169442831017,0.0,0.0,0.0,0.0,0.0,-0.010204307415097839,-0.5846637477391567,0.0,0.0,11.8814071336943,0.003175389737264294,0.03491553420228129,-0.03404109844589178,-1.9504112709389447,0.0,0.0,0.02383679103079394,1.365747523199788,-6.126241586450497,0.0,-14.083605014959618,11.878031829672448,0.0,-0.2831877996841588,0.0,32.173229164414636,0.0,0.0,-0.6007642090648078,0.0,-0.2881518852193315,0.3490658503988659,1.0,0.14,0.14,0.75,0.08726646259971647,5.0,0.184,0.175,0.174,0.0,0.0,0.0,-0.08357054175853772,0.0,0.030722785478335214,0.0,5.999163743175634,0.0,-0.5299817719341131,0.0,0.15309850594082955,0.0,-3.4578739651997576,0.0,-0.009808412320129767,0.0,-0.017960890523989907,0.4062947212115528,0.13073251504793226,0.12289381433395878,0.0,0.0,0.0,0.38506105777030186,0.12289381433395878,0.0,0.0,0.1429714428623028,0.0,0.0,-0.003539437219963424,0.0,1.4876473334303502,0.0,4.661219597621117,0.0,0.24229658883720664,0.0,86.46531511154423,-1.645427868506185,0.0,-4.607887786768771,0.0,0.24229658883720664,0.0
sim_raptor_glider_3dof,raptor_glider_3dof,0.019000000000000003,-14.7732901008154,0.0,-0.0034620509484170987,11.868402237768878,0.0,-0.41817375482496205,0.0,0.0,0.0,-32.58101112223963,-0.5686459177119743,-0.02394143971791828,0.0,0.0,0.0,0.0,0.0,-0.010789003290058826,-0.6181643536731303,0.0,0.0,11.875766963303958,0.0034620509484170987,0.03489895960299732,-0.03521963850274435,-2.017936642183705,0.0,0.0,0.024430635212685525,1.3997722885105748,-6.116522084912101,0.0,-13.50960986378574,11.872223078566323,0.0,-0.2901036701920708,0.0,32.06299124153835,0.0,0.0,-0.5686459177119743,0.0,-0.2881518852193315,0.3490658503988659,1.0,0.14,0.14,0.75,0.08726646259971647,5.0,0.184,0.175,0.174,0.0,0.0,0.0,-0.08392846415940616,0.0,0.030656406527445022,0.0,5.998631440428854,0.0,-0.5301886981633772,0.0,0.15174646543329173,0.0,-3.4556802177596038,0.0,-0.009375284458061644,0.0,-0.017820576270177666,0.40137950691288626,0.13103418304964878,0.1227340246573084,0.0,0.0,0.0,0.38127328468994115,0.1227340246573084,0.0,0.0,0.14261693739615397,0.0,0.0,-0.0033518015605085594,0.0,1.4843028385771946,0.0,4.610987216618025,0.0,0.2414663870400253,0.0,86.38324345915534,-1.6457460835255273,0.0,-4.555861922510772,0.0,0.2414663870400253,0.0
sim_raptor_glider_3dof,raptor_glider_3dof,0.02,-14.761420779376031,0.0,-0.003755536610153743,11.862291123107884,0.0,-0.4314008103487316,0.0,0.0,0.0,-30.747146319478375,-0.5366389388673539,-0.02260458829893206,0.0,0.0,0.0,0.0,0.0,-0.011341636351900103,-0.6498278957360276,0.0,0.0,11.870132996244552,0.003755536610153743,0.03488240323325561,-0.03635139013753913,-2.0827812343144774,0.0,0.0,0.02500975378563903,1.4329533385784496,-6.105499190616111,0.0,-12.946264648336602,11.866420878146693,0.0,-0.29683815660708174,0.0,31.950616523713233,0.0,0.0,-0.5366389388673539,0.0,-0.2881518852193315,0.3490658503988659,1.0,0.14,0.14,0.75,0.08726646259971647,5.0,0.184,0.175,0.174,0.0,0.0,0.0,-0.08427162039667414,0.0,0.030592057230873687,0.0,5.998114957819704,0.0,-0.5303859847057033,0.0,0.15044722113997314,0.0,-3.45356959837673,0.0,-0.008959827267696268,0.0,-0.01768683748856048,0.39665653285837243,0.1313227185478524,0.12258319742026394,0.0,0.0,0.0,0.3776746441716071,0.12258319742026394,0.0,0.0,0.14225203119847438,0.0,0.0,-0.003164642361850489,0.0,1.4810725181572397,0.0,4.563133839376543,0.0,0.24062009304008436,0.0,86.30130097797604,-1.6459337925728081,0.0,-4.506292066718582,0.0,0.24062009304008436,0.0
sim_raptor_glider_3dof,raptor_glider_3dof,0.02,-14.761420779376031,0.0,-0.003755536610153743,11.862291123107884,0.0,-0.4314008103487316,0.0,0.0,0.0,-30.747146319478375,-0.5366389388673539,-0.02260458829893206,0.0,0.0,0.0,0.0,0.0,-0.011341636351900103,-0.6498278957360276,0.0,0.0,11.870132996244552,0.003755536610153743,0.03488240323325561,-0.03635139013753913,-2.0827812343144774,0.0,0.0,0.02500975378563903,1.4329533385784496,-6.0585629754433175,0.0,-13.046133923913473,11.866420878146693,0.0,-0.29683815660708174,0.0,30.84228649539541,0.0,0.0,-0.5366389388673539,0.0,-0.2818824781250583,0.3490658503988659,1.0,0.14,0.14,0.75,0.08726646259971647,5.0,0.184,0.175,0.174,0.0,0.0,0.0,-0.07281461772399558,0.0,0.02836413614955442,0.0,6.000838614364578,0.0,-0.5288571295482992,0.0,0.150296194479522,0.0,-3.4636466758077193,0.0,-0.012322919209245206,0.0,-0.016959552923775698,0.39889792824915826,0.12635626934433086,0.12143298561185245,0.0,0.0,0.0,0.3799074201635119,0.12143298561185245,0.0,0.0,0.1373174723410746,0.0,0.0,-0.003164642361850489,0.0,1.46717544959198,0.0,4.590110645581671,0.0,0.23227325959682285,0.0,86.30130097797604,-1.63302633340029,0.0,-4.533756117502222,0.0,0.23227325959682285,0.0
sim_raptor_glider_3dof,raptor_glider_3dof,0.021,-14.74955723941209,0.0,-0.0040557134685058945,11.8562383335987,0.0,-0.44417467943281574,0.0,0.0,0.0,-28.98308479090565,-0.5058502569859958,-0.021317707795666708,0.0,0.0,0.0,0.0,0.0,-0.011862842988213307,-0.6796908362509843,0.0,0.0,11.86455555716035,0.0040557134685058945,0.034866012980576414,-0.03744586110658457,-2.1454898016403745,0.0,0.0,0.025583018118371263,1.4657989653893901,-6.047033649774679,0.0,-12.503005806974887,11.86067314759309,0.0,-0.30349803114484386,0.0,30.73532290400498,0.0,0.0,-0.5058502569859958,0.0,-0.2818824781250583,0.3490658503988659,1.0,0.14,0.14,0.75,0.08726646259971647,5.0,0.184,0.175,0.174,0.0,0.0,0.0,-0.0731032740790454,0.0,0.028310448321759614,0.0,6.000390287474807,0.0,-0.5290362344289329,0.0,0.14903786007181352,0.0,-3.4617265303710214,0.0,-0.011932083130572096,0.0,-0.01683554772659899,0.3943240298005284,0.12663847991686197,0.12128925078798114,0.0,0.0,0.0,0.3764159904473602,0.12128925078798114,0.0,0.0,0.1369699303668759,0.0,0.0,-0.0029844790913933395,0.0,1.4640620064706953,0.0,4.543653676329129,0.0,0.23146771679006153,0.0,86.22021896058438,-1.6331369435348702,0.0,-4.485658258591685,0.0,0.23146771679006153,0.0
sim_raptor_glider_3dof,raptor_glider_3dof,0.022,-14.737699437115818,0.0,-0.004362458130501518,11.850197608302464,0.0,-0.45641115196378645,0.0,0.0,0.0,-27.225202709581172,-0.475169426805073,-0.020034154640018637,0.0,0.0,0.0,0.0,0.0,-0.012353352553977535,-0.7077949641800693,0.0,0.0,11.858983704156708,0.004362458130501518,0.03484963914354435,-0.03849603913950959,-2.2056605706643286,0.0,0.0,0.02614268658553205,1.4978656064842595,-6.034410789989482,0.0,-11.969992737210012,11.854931482673662,0.0,-0.3099903814108248,0.0,30.626326535141693,0.0,0.0,-0.475169426805073,0.0,-0.2818824781250583,0.3490658503988659,1.0,0.14,0.14,0.75,0.08726646259971647,5.0,0.184,0.175,0.174,0.0,0.0,0.0,-0.07337981566465825,0.0,0.028258541613032595,0.0,5.999955531034597,0.0,-0.5292068080661462,0.0,0.14782972229985905,0.0,-3.4598806020360553,0.0,-0.011557421358784643,0.0,-0.016717485803950168,0.3899329793163377,0.12690826789197907,0.1211535902062917,0.0,0.0,0.0,0.37310441414446016,0.1211535902062917,0.0,0.0,0.13661247751438582,0.0,0.0,-0.0028047816496026092,0.0,1.4610512204980175,0.0,4.499451140744257,0.0,0.2306468651361521,0.0,86.13925620070026,-1.633137024238965,0.0,-4.43988678875075,0.0,0.2306468651361521,0.0
sim_raptor_glider_3dof,raptor_glider_3dof,0.023,-14.725847373541553,0.0,-0.004675615368737288,11.844170005799166,0.0,-0.46811960626295324,0.0,0.0,0.0,-25.473621922267277,-0.444598574951771,-0.018754025434458612,0.0,0.0,0.0,0.0,0.0,-0.012813236269940596,-0.7341443601715458,0.0,0.0,11.853417190499977,0.004675615368737288,0.03483328099709065,-0.03950264871593814,-2.2633350510111363,0.0,0.0,0.026689412445997547,1.5291906908395907,-6.020788531272011,0.0,-11.446970205276935,11.849195699958566,0.0,-0.3163231830325655,0.0,30.51536623198304,0.0,0.0,-0.444598574951771,0.0,-0.2818824781250583,0.3490658503988659,1.0,0.14,0.14,0.75,0.08726646259971647,5.0,0.184,0.175,0.174,0.0,0.0,0.0,-0.07364447934068458,0.0,0.02820845631825282,0.0,5.999534640316305,0.0,-0.5293691108361684,0.0,0.14667102628661177,0.0,-3.458108042892039,0.0,-0.011198622614616073,0.0,-0.016605203415519278,0.38572215698936463,0.1271659180557094,0.12102562900258129,0.0,0.0,0.0,0.3699699974558476,0.12102562900258129,0.0,0.0,0.13624540052251985,0.0,0.0,-0.002625563560824206,0.0,1.4581382312474283,0.0,4.457464110295012,0.0,0.2298112230930643,0.0,86.058409001259,-1.6330365443145176,0.0,-4.396401373956521,0.0,0.2298112230930643,0.0
sim_raptor_glider_3dof,raptor_glider_3dof,0.024,-14.714001043650741,0.0,-0.004995047927079813,11.838156366993633,0.0,-0.4793087701978427,0.0,0.0,0.0,-23.7284397991738,-0.41413940085684486,-0.017477399022032308,0.0,0.0,0.0,0.0,0.0,-0.013242591482063446,-0.7587446017381293,0.0,0.0,11.847855631572342,0.004995047927079813,0.03481693741095049,-0.04046636147198247,-2.3185517245953973,0.0,0.0,0.027223769989919027,1.5598071228572679,-6.006256223338178,0.0,-10.933817033300885,11.84346548046407,0.0,-0.32250345678213904,0.0,30.402504773550802,0.0,0.0,-0.41413940085684486,0.0,-0.2818824781250583,0.3490658503988659,1.0,0.14,0.14,0.75,0.08726646259971647,5.0,0.184,0.175,0.174,0.0,0.0,0.0,-0.07389748652574356,0.0,0.028160225483457965,0.0,5.999127889641724,0.0,-0.5295233884969867,0.0,0.1455610751103182,0.0,-3.4564080723134234,0.0,-0.010855399372962591,0.0,-0.01649854204216744,0.3816891141636447,0.12741170004692293,0.12090501724753072,0.0,0.0,0.0,0.36701023289603874,0.12090501724753072,0.0,0.0,0.13586896327571427,0.0,0.0,-0.0024468358630845236,0.0,1.4553184626770745,0.0,4.417655942528113,0.0,0.2289612634496111,0.0,85.97767167083481,-1.6328447411497489,0.0,-4.355164050373111,0.0,0.2289612634496111,0.0
sim_raptor_glider_3dof,raptor_glider_3dof,0.025,-14.702160440965223,0.0,-0.0053205818703974585,11.832157719433082,0.0,-0.4899900550255602,0.0,0.0,0.0,-21.98978131394203,-0.3837940857218132,-0.016204374016697862,0.0,0.0,0.0,0.0,0.0,-0.013641548721537434,-0.7816031677661789,0.0,0.0,11.842299039948443,0.0053205818703974585,0.03480060842207659,-0.04138807602106684,-2.371362078173735,0.0,0.0,0.027746527299529405,1.5897589104075562,-5.990901563112074,0.0,-10.430373803662338,11.837740818334508,0.0,-0.32854051424572844,0.0,30.287821257308345,0.0,0.0,-0.3837940857218132,0.0,-0.2818824781250583,0.3490658503988659,1.0,0.14,0.14,0.75,0.08726646259971647,5.0,0.184,0.175,0.174,0.0,0.0,0.0,-0.07413911648972007,0.0,0.028113861871191033,0.0,5.99873541602141,0.0,-0.5296699166807852,0.0,0.14449890727255751,0.0,-3.4547794837521777,0.0,-0.010527387863394598,0.0,-0.0163973183061343,0.37783040701241205,0.1276459390692735,0.12079139445414594,0.0,0.0,0.0,0.3642216016892329,0.12079139445414594,0.0,0.0,0.13548349451526434,0.0,0.0,-0.0022686123623377012,0.0,1.4525873263087719,0.0,4.379978267263907,0.0,0.22809758188878915,0.0,85.89704429057733,-1.6325705062086124,0.0,-4.316124778608094,0.0,0.22809758188878915,0.0
sim_raptor_glider_3dof,raptor_glider_3dof,0.026000000000000002,-14.69032556026669,0.0,-0.005652084305847586,11.826174803621711,0.0,-0.5001726979988519,0.0,0.0,0.0,-20.25774438308389,-0.3535643385122013,-0.014935029610733251,0.0,0.0,0.0,0.0,0.0,-0.014010218298495468,-0.8027263785607477,0.0,0.0,11.836747155094615,0.005652084305847586,0.0347842932648465,-0.04226851004726505,-2.421807232014603,0.0,0.0,0.02825829174876958,1.6190808534538552,-5.974806725316219,0.0,-9.936508224986826,11.832021464492415,0.0,-0.33444173996562226,0.0,30.171380411277834,0.0,0.0,-0.3535643385122013,0.0,-0.2818824781250583,0.3490658503988659,1.0,0.14,0.14,0.75,0.08726646259971647,5.0,0.184,0.175,0.174,0.0,0.0,0.0,-0.07436959913391607,0.0,0.028069379291540537,0.0,5.998357393197653,0.0,-0.5298089353912045,0.0,0.14348376631621698,0.0,-3.4532213648466836,0.0,-0.010214293008169464,0.0,-0.016301369881577127,0.3741433080427319,0.12786891131903713,0.12068444006080425,0.0,0.0,0.0,0.3616013177030884,0.12068444006080425,0.0,0.0,0.1350892661861334,0.0,0.0,-0.0020909041455026557,0.0,1.4499406633550174,0.0,4.344391490703416,0.0,0.2272206658773334,0.0,85.81652298130894,-1.6322218849178083,0.0,-4.279242581362033,0.0,0.2272206658773334,0.0
sim_raptor_glider_3dof,raptor_glider_3dof,0.027,-14.678496396354404,0.0,-0.0059894232240175396,11.820208319884003,0.0,-0.5098662067548482,0.0,0.0,0.0,-18.532427791335856,-0.32345188334691133,-0.013669445589428083,0.0,0.0,0.0,0.0,0.0,-0.01434871663530006,-0.8221209046318487,0.0,0.0,11.831199781689326,0.0059894232240175396,0.0347679913652747,-0.0431084055222114,-2.469929697961165,0.0,0.0,0.02875968888691134,1.6478087933293162,-5.958050531058392,0.0,-9.452082640666433,11.826307209695978,0.0,-0.3402147206376333,0.0,30.05324797968553,0.0,0.0,-0.32345188334691133,0.0,-0.2818824781250583,0.3490658503988659,1.0,0.14,0.14,0.75,0.08726646259971647,5.0,0.184,0.175,0.174,0.0,0.0,0.0,-0.07458916886718325,0.0,0.02802678324530339,0.0,5.997993947904672,0.0,-0.5299406820181636,0.0,0.14251486449677217,0.0,-3.451732736853781,0.0,-0.0099158149425795,0.0,-0.016210533211025634,0.3706249518114142,0.12808089611127121,0.12058384664790657,0.0,0.0,0.0,0.3591464565430899,0.12058384664790657,0.0,0.0,0.13468655430826507,0.0,0.0,-0.0019137223825199316,0.0,1.4473745041476649,0.0,4.310854553954223,0.0,0.22633101053501173,0.0,85.73610481615819,-1.631806373947821,0.0,-4.244474985030283,0.0,0.22633101053501173,0.0
sim_raptor_glider_3dof,raptor_glider_3dof,0.028,-14.666672944222396,0.0,-0.006332473635826166,11.814258896408562,0.0,-0.5190799612097324,0.0,0.0,0.0,-16.81392684737349,-0.2934583836761375,-0.012407699216443021,0.0,0.0,0.0,0.0,0.0,-0.014657161751154951,-0.8397935079817577,0.0,0.0,11.82565673768262,0.006332473635826166,0.03475170218837644,-0.04390849524349071,-2.515771462222268,0.0,0.0,0.02925133349233576,1.67597795424051,-5.940708240207956,0.0,-8.976959589584071,11.820597842926885,0.0,-0.34586690112040686,0.0,29.933488183022842,0.0,0.0,-0.2934583836761375,0.0,-0.2818824781250583,0.3490658503988659,1.0,0.14,0.14,0.75,0.08726646259971647,5.0,0.184,0.175,0.174,0.0,0.0,0.0,-0.07479805577377988,0.0,0.027986073391932126,0.0,5.997645176124758,0.0,-0.5300653859900006,0.0,0.14159142126866756,0.0,-3.450312614603571,0.0,-0.009631660612150234,0.0,-0.016124647702312464,0.36727247884917646,0.12828216704322806,0.12048932336716284,0.0,0.0,0.0,0.35685410201985357,0.12048932336716284,0.0,0.0,0.13427562880068608,0.0,0.0,-0.001737077890302023,0.0,1.4448850956472492,0.0,4.279326656668654,0.0,0.22542909950634504,0.0,85.65578706589758,-1.6313309052014986,0.0,-4.211779796218333,0.0,0.22542909950634504,0.0
sim_raptor_glider_3dof,raptor_glider_3dof,0.029,-14.654855199110308,0.0,-0.006681118967642355,11.808327077157331,0.0,-0.5278231849843218,0.0,0.0,0.0,-15.102332710325333,-0.2635854305268161,-0.011149864754574768,0.0,0.0,0.0,0.0,0.0,-0.014935673534422237,-0.8557510577076355,0.0,0.0,11.820117836795621,0.006681118967642355,0.0347354251867396,-0.04466950045677457,-2.559373849130886,0.0,0.0,0.02973382692235233,1.7036227914232502,-5.922851628065738,0.0,-8.511002247919876,11.814893135913913,0.0,-0.3514055529844041,0.0,29.8121634030841,0.0,0.0,-0.2635854305268161,0.0,-0.2818824781250583,0.3490658503988659,1.0,0.14,0.14,0.75,0.08726646259971647,5.0,0.184,0.175,0.174,0.0,0.0,0.0,-0.07499648496563789,0.0,0.027947244398417007,0.0,5.997311146209406,0.0,-0.5301832684572764,0.0,0.1407126660085685,0.0,-3.4489600116822596,0.0,-0.009361544316272844,0.0,-0.01604355639433536,0.36408304920054857,0.12847299116013314,0.12040059546007136,0.0,0.0,0.0,0.35472136005656113,0.12040059546007136,0.0,0.0,0.13385675243452028,0.0,0.0,-0.0015609810656404678,0.0,1.4424688903829488,0.0,4.2497674092119055,0.0,0.22451540258862637,0.0,85.57556694508192,-1.6308018660890582,0.0,-4.181115258598204,0.0,0.22451540258862637,0.0
sim_raptor_glider_3dof,raptor_glider_3dof,0.03,-14.643043156471668,0.0,-0.007035249218392282,11.802413342468805,0.0,-0.536104976500466,0.0,0.0,0.0,-13.39773332272726,-0.23383455878575074,-0.009896014130934125,0.0,0.0,0.0,0.0,0.0,-0.015184373291762199,-0.870000504169143,0.0,0.0,11.814582906404873,0.007035249218392282,0.03471915985308082,-0.04539213339590679,-2.600777666680296,0.0,0.0,0.03020776010414459,1.730777162511153,-5.904549146006996,0.0,-8.054074320829251,11.809192861034544,0.0,-0.356837810783811,0.0,29.689334453403138,0.0,0.0,-0.23383455878575074,0.0,-0.2818824781250583,0.3490658503988659,1.0,0.14,0.14,0.75,0.08726646259971647,5.0,0.184,0.175,0.174,0.0,0.0,0.0,-0.07518467723073884,0.0,0.02791028647233709,0.0,5.996991899743721,0.0,-0.5302945427654137,0.0,0.13987783508039786,0.0,-3.447673936863669,0.0,-0.009105186528086093,0.0,-0.015967106033045683,0.36105383503701555,0.12865362940388836,0.12031740322556651,0.0,0.0,0.0,0.352745350715401,0.12031740322556651,0.0,0.0,0.13343018160361622,0.0,0.0,-0.0013854419783307776,0.0,1.440122537496086,0.0,4.222136747830548,0.0,0.22359037776857904,0.0,85.49544187101978,-1.630225131593084,0.0,-4.152439964732492,0.0,0.22359037776857904,0.0
sim_raptor_glider_3dof,raptor_glider_3dof,0.03,-14.643043156471668,0.0,-0.007035249218392282,11.802413342468805,0.0,-0.536104976500466,0.0,0.0,0.0,-13.39773332272726,-0.23383455878575074,-0.009896014130934125,0.0,0.0,0.0,0.0,0.0,-0.015184373291762199,-0.870000504169143,0.0,0.0,11.814582906404873,0.007035249218392282,0.03471915985308082,-0.04539213339590679,-2.600777666680296,0.0,0.0,0.03020776010414459,1.730777162511153,-5.821733823305988,0.0,-8.232325141767145,11.809192861034544,0.0,-0.356837810783811,0.0,27.700233326933965,0.0,0.0,-0.23383455878575074,0.0,-0.27022899457690097,0.3490658503988659,1.0,0.14,0.14,0.75,0.08726646259971647,5.0,0.184,0.175,0.174,0.0,0.0,0.0,-0.05590326055195603,0.0,0.0242455605414728,0.0,6.002807448866011,0.0,-0.5276637577954719,0.0,0.1396298994165474,0.0,-3.4682018049698558,0.0,-0.014746225135556432,0.0,-0.014772850234163939,0.3650667062115494,0.11968574584706451,0.11823082021469646,0.0,0.0,0.0,0.35675016478405375,0.11823082021469646,0.0,0.0,0.12449073821699232,0.0,0.0,-0.0013854419783307776,0.0,1.4151474703840001,0.0,4.270071816608052,0.0,0.2086104571851397,0.0,85.49544187101978,-1.607450917850307,0.0,-4.201458940490413,0.0,0.2086104571851397,0.0
sim_raptor_glider_3dof,raptor_glider_3dof,0.031,-14.631236772651283,0.0,-0.007394844423928273,11.796600330250705,0.0,-0.5441216816718855,0.0,0.0,0.0,-11.813829152292694,-0.2061902159755981,-0.008730109536320778,0.0,0.0,0.0,0.0,0.0,-0.015404367257590328,-0.88260522992944,0.0,0.0,11.80914254957304,0.007394844423928273,0.03470317243989844,-0.04609262648083442,-2.6409129640247486,0.0,0.0,0.030688259223244092,1.7583077340953086,-5.804312493636411,0.0,-7.801668170124239,11.803582242285245,0.0,-0.36234514726278866,0.0,27.588598578227078,0.0,0.0,-0.2061902159755981,0.0,-0.27022899457690097,0.3490658503988659,1.0,0.14,0.14,0.75,0.08726646259971647,5.0,0.184,0.175,0.174,0.0,0.0,0.0,-0.0560413601596813,0.0,0.024219497765788967,0.0,6.002554242352501,0.0,-0.5277601293271355,0.0,0.13881972694623412,0.0,-3.4670852278183726,0.0,-0.014508671108992108,0.0,-0.014703427740241174,0.3621247333736227,0.11986577057432811,0.1181508237517113,0.0,0.0,0.0,0.3547883195289405,0.1181508237517113,0.0,0.0,0.12410329530781408,0.0,0.0,-0.0012222153350849088,0.0,1.412887856586527,0.0,4.242679757989585,0.0,0.20776973589262812,0.0,85.41672244015156,-1.6068742773381512,0.0,-4.173073050040369,0.0,0.20776973589262812,0.0
sim_raptor_glider_3dof,raptor_glider_3dof,0.032,-14.619435993831932,0.0,-0.007759893927816798,11.790804894712492,0.0,-0.5517121880744531,0.0,0.0,0.0,-10.236358374887319,-0.17865815705587973,-0.007567884306073411,0.0,0.0,0.0,0.0,0.0,-0.015596791453222725,-0.8936303242153761,0.0,0.0,11.8037056216955,0.007759893927816798,0.03468719510328102,-0.04675762760837032,-2.6790147220039966,0.0,0.0,0.031160836155147597,1.7853843977886206,-5.786558172136527,0.0,-7.379345185300458,11.797975399823944,0.0,-0.3677538154731139,0.0,27.475518920353046,0.0,0.0,-0.17865815705587973,0.0,-0.27022899457690097,0.3490658503988659,1.0,0.14,0.14,0.75,0.08726646259971647,5.0,0.184,0.175,0.174,0.0,0.0,0.0,-0.05617230817262407,0.0,0.02419471153468842,0.0,6.002312051703688,0.0,-0.5278510464740783,0.0,0.13805032219026578,0.0,-3.4660237677088097,0.0,-0.014283254663967078,0.0,-0.014637966626377754,0.35933133967034214,0.12003624210553901,0.1180758008516804,0.0,0.0,0.0,0.35297186722566803,0.1180758008516804,0.0,0.0,0.12370850746819594,0.0,0.0,-0.0010595038028502776,0.0,1.4106908457316771,0.0,4.2170722392265745,0.0,0.2069181329891788,0.0,85.33808884730753,-1.6062574998737962,0.0,-4.146526712464996,0.0,0.2069181329891788,0.0
sim_raptor_glider_3dof,raptor_glider_3dof,0.033,-14.607640820074252,0.0,-0.008130305971952214,11.785027352323858,0.0,-0.5588844782784665,0.0,0.0,0.0,-8.665406430738573,-0.15123987323987806,-0.006409407817628519,0.0,0.0,0.0,0.0,0.0,-0.015761740478162315,-0.9030812071792127,0.0,0.0,11.798271973262953,0.008130305971952214,0.03467122740387009,-0.047387762054369044,-2.7151187662855376,0.0,0.0,0.031626021576206725,1.812037559106325,-5.768526188611576,0.0,-6.965236330627082,11.792372118313375,0.0,-0.3730702056013486,0.0,27.361048200983944,0.0,0.0,-0.15123987323987806,0.0,-0.27022899457690097,0.3490658503988659,1.0,0.14,0.14,0.75,0.08726646259971647,5.0,0.184,0.175,0.174,0.0,0.0,0.0,-0.05629625004681676,0.0,0.024171190663534278,0.0,6.002080935658374,0.0,-0.5279366801201186,0.0,0.13732100330735475,0.0,-3.465016651463251,0.0,-0.014069746534442873,0.0,-0.014576342676833765,0.3566840057543676,0.12019738279088321,0.11800553867939735,0.0,0.0,0.0,0.3512982359284209,0.11800553867939735,0.0,0.0,0.12330660146485743,0.0,0.0,-0.0008973170944679928,0.0,1.408553693554159,0.0,4.1932135838165445,0.0,0.2060560540016101,0.0,85.25953886313395,-1.605605111899708,0.0,-4.121783096157557,0.0,0.2060560540016101,0.0
sim_raptor_glider_3dof,raptor_glider_3dof,0.034,-14.595851248368733,0.0,-0.008506001994865333,11.779267924824778,0.0,-0.5656457023595871,0.0,0.0,0.0,-7.101042014935359,-0.12393656348307437,-0.0052547371514919386,0.0,0.0,0.0,0.0,0.0,-0.015899314496280334,-0.9109636177880316,0.0,0.0,11.792841383882159,0.008506001994865333,0.03465526869400264,-0.04798358611664512,-2.7492569703862966,0.0,0.0,0.032084271620364785,1.8382933525982652,-5.75026885350797,0.0,-6.5592312811691205,11.786772126227893,0.0,-0.37829981467198076,0.0,27.245233907007087,0.0,0.0,-0.12393656348307437,0.0,-0.27022899457690097,0.3490658503988659,1.0,0.14,0.14,0.75,0.08726646259971647,5.0,0.184,0.175,0.174,0.0,0.0,0.0,-0.05641331638477819,0.0,0.02414892438264824,0.0,6.0018609555816065,0.0,-0.528017186149725,0.0,0.13663116565984323,0.0,-3.464063199566315,0.0,-0.013867942497386935,0.0,-0.014518441649156853,0.35418048637039895,0.12034939385845954,0.11793984264244772,0.0,0.0,0.0,0.34976513812660526,0.11793984264244772,0.0,0.0,0.12289777768104233,0.0,0.0,-0.0007356632012088714,0.0,1.4064738662911522,0.0,4.171071582706461,0.0,0.20518385655367039,0.0,85.18106923829247,-1.6049212059417366,0.0,-4.098808949846271,0.0,0.20518385655367039,0.0
sim_raptor_glider_3dof,raptor_glider_3dof,0.034999999999999996,-14.584067274932352,0.0,-0.008886883539936313,11.773526857436146,0.0,-0.5720052458370865,0.0,0.0,0.0,-5.543353557137801,-0.09674977117419424,-0.004103943944649777,0.0,0.0,0.0,0.0,0.0,-0.016009647917461414,-0.9172852571609468,0.0,0.0,11.787413824246409,0.008886883539936313,0.034639318887555934,-0.04854584646046841,-2.781472115074946,0.0,0.0,0.032536198543006996,1.864186857913999,-5.731836602171693,0.0,-6.1611878756261245,11.781175271639187,0.0,-0.38344997451126867,0.0,27.128135862555343,0.0,0.0,-0.09674977117419424,0.0,-0.27022899457690097,0.3490658503988659,1.0,0.14,0.14,0.75,0.08726646259971647,5.0,0.184,0.175,0.174,0.0,0.0,0.0,-0.05652367387677082,0.0,0.024127892930069124,0.0,6.001652080763753,0.0,-0.5280927405762778,0.0,0.13597998156698826,0.0,-3.4631624117353303,0.0,-0.01367757540947708,0.0,-0.014464134188369168,0.3518177224870828,0.12049252152194483,0.11787850741351964,0.0,0.0,0.0,0.3483694603670185,0.11787850741351964,0.0,0.0,0.12248228893920202,0.0,0.0,-0.0005745521522509689,0.0,1.404448756900292,0.0,4.150604434090162,0.0,0.2043019911809043,0.0,85.10267948855558,-1.6042096214571102,0.0,-4.0775611545962285,0.0,0.2043019911809043,0.0
sim_raptor_glider_3dof,raptor_glider_3dof,0.036,-14.572288896884306,0.0,-0.009272877889880233,11.767804290091215,0.0,-0.5779706804854852,0.0,0.0,0.0,-3.9924099761018277,-0.06968069917244502,-0.0029570855306798286,0.0,0.0,0.0,0.0,0.0,-0.016092853339045945,-0.9220525766503471,0.0,0.0,11.781989132459342,0.009272877889880233,0.034623377508769995,-0.04907513779260048,-2.8117982745389707,0.0,0.0,0.03298228445355454,1.889745697888624,-5.713276856577178,0.0,-5.770988591314751,11.775581306349919,0.0,-0.3885264661930133,0.0,27.00980234570104,0.0,0.0,-0.06968069917244502,0.0,-0.27022899457690097,0.3490658503988659,1.0,0.14,0.14,0.75,0.08726646259971647,5.0,0.184,0.175,0.174,0.0,0.0,0.0,-0.05662745802543399,0.0,0.02410808060163779,0.0,6.001454315727787,0.0,-0.5281634933559307,0.0,0.1353667966590241,0.0,-3.4623135152191615,0.0,-0.013498431041744823,0.0,-0.014413309207377111,0.34959328133430306,0.1206269695831456,0.11782135434646533,0.0,0.0,0.0,0.34710872741349263,0.11782135434646533,0.0,0.0,0.12206033959094005,0.0,0.0,-0.000413991974295176,0.0,1.4024760537116794,0.0,4.1317779865289985,0.0,0.20341082146547454,0.0,85.02436721685078,-1.6034737465560809,0.0,-4.058004479458558,0.0,0.20341082146547454,0.0
sim_raptor_glider_3dof,raptor_glider_3dof,0.037,-14.560516111454417,0.0,-0.009663914377310621,11.762100327424234,0.0,-0.5835497874257293,0.0,0.0,0.0,-2.4482806332266014,-0.04273055806261587,-0.0018142196032830409,0.0,0.0,0.0,0.0,0.0,-0.016149049056918434,-0.9252723541111486,0.0,0.0,11.776567176677501,0.009663914377310621,0.03460744417020042,-0.049572073833030986,-2.840270612343581,0.0,0.0,0.03342302477611255,1.9149982582324325,-5.694634759041589,0.0,-5.388512503754482,11.769989995725965,0.0,-0.3935352173676706,0.0,26.890282076264437,0.0,0.0,-0.04273055806261587,0.0,-0.27022899457690097,0.3490658503988659,1.0,0.14,0.14,0.75,0.08726646259971647,5.0,0.184,0.175,0.174,0.0,0.0,0.0,-0.05672480677953029,0.0,0.024089469601254396,0.0,6.00126763855575,0.0,-0.5282295917526906,0.0,0.13479093204062453,0.0,-3.461515692162602,0.0,-0.013330290039619365,0.0,-0.014365857212316336,0.34750463963435846,0.12075294315344585,0.11776821200927204,0.0,0.0,0.0,0.3459803731991402,0.11776821200927204,0.0,0.0,0.12163213610105691,0.0,0.0,-0.0002539907444596258,0.0,1.4005535462591037,0.0,4.114557148765693,0.0,0.20251071431634748,0.0,84.9461304639924,-1.6027166483558952,0.0,-4.040102735263135,0.0,0.20251071431634748,0.0
sim_raptor_glider_3dof,raptor_glider_3dof,0.038,-14.548748916091661,0.0,-0.010059927803764036,11.756415032865357,0.0,-0.5887502374016489,0.0,0.0,0.0,-0.9110323353068303,-0.015900513843237173,-0.0006754020113873938,0.0,0.0,0.0,0.0,0.0,-0.016178354511804542,-0.9269514329928337,0.0,0.0,11.77114783132992,0.010059927803764036,0.03459151850283558,-0.0500372602549009,-2.866923831003519,0.0,0.0,0.03385890574309636,1.9399723980106856,-5.675953162892044,0.0,-5.013639827932153,11.764401103910576,0.0,-0.39848203639650304,0.0,26.769622359477875,0.0,0.0,-0.015900513843237173,0.0,-0.27022899457690097,0.3490658503988659,1.0,0.14,0.14,0.75,0.08726646259971647,5.0,0.184,0.175,0.174,0.0,0.0,0.0,-0.05681585523479298,0.0,0.02407204126126452,0.0,6.001092011947742,0.0,-0.5282911768458114,0.0,0.13425171568560973,0.0,-3.4607681235811234,0.0,-0.013172936982457905,0.0,-0.014321672935046107,0.34554929868821666,0.12087064178630261,0.1177189187338198,0.0,0.0,0.0,0.344981857742062,0.1177189187338198,0.0,0.0,0.1211978791515283,0.0,0.0,-0.00009455628159423513,0.0,1.3986791494645485,0.0,4.098907266200899,0.0,0.20160202598922788,0.0,84.86796736477316,-1.6019410744969822,0.0,-4.023820191546941,0.0,0.20160202598922788,0.0
sim_raptor_glider_3dof,raptor_glider_3dof,0.039,-14.536987308516446,0.0,-0.010460859525919861,11.750748422042637,0.0,-0.593579565472252,0.0,0.0,0.0,0.619271158701233,0.010808320681976846,0.00045931360799632065,0.0,0.0,0.0,0.0,0.0,-0.016180890452681784,-0.9270967317021943,0.0,0.0,11.765730966611626,0.010460859525919861,0.034575600125221505,-0.05047129254944972,-2.891792049653546,0.0,0.0,0.03429040209676794,1.9646953179513515,-5.657272697264643,0.0,-4.64625225542413,11.7588143847988,0.0,-0.40337258525160224,0.0,26.64786889892903,0.0,0.0,0.010808320681976846,0.0,-0.27022899457690097,0.3490658503988659,1.0,0.14,0.14,0.75,0.08726646259971647,5.0,0.184,0.175,0.174,0.0,0.0,0.0,-0.056900735240796016,0.0,0.02405577630935203,0.0,6.000927385078304,0.0,-0.5283483834256876,0.0,0.13374848498584876,0.0,-3.460069993472082,0.0,-0.013026161006570985,0.0,-0.014280655511773899,0.3437247945987816,0.12098025899494634,0.117673322404959,0.0,0.0,0.0,0.34411067766398057,0.117673322404959,0.0,0.0,0.12075776298237934,0.0,0.0,0.0000643039051194849,0.0,1.396850898070826,0.0,4.084794236339463,0.0,0.20068510067783454,0.0,84.78987599632134,-1.6011494676908995,0.0,-4.009121695182938,0.0,0.20068510067783454,0.0
sim_raptor_glider_3dof,raptor_glider_3dof,0.04,-14.525231286678197,0.0,-0.010866656019581204,11.745100474668616,0.0,-0.5980451988429561,0.0,0.0,0.0,2.142568441590844,0.037394873755084046,0.0015898753186149534,0.0,0.0,0.0,0.0,0.0,-0.01615677862071089,-0.9257152254939335,0.0,0.0,11.76031645917405,0.010866656019581204,0.03455968867487745,-0.05087475831925798,-2.914908935441556,0.0,0.0,0.03471797969854709,1.9891937099476225,-5.638631872708309,0.0,-4.286232722086783,11.753229592223667,0.0,-0.4082124108818328,0.0,26.525066049819962,0.0,0.0,0.037394873755084046,0.0,-0.27022899457690097,0.3490658503988659,1.0,0.14,0.14,0.75,0.08726646259971647,5.0,0.184,0.175,0.174,0.0,0.0,0.0,-0.05697957587811766,0.0,0.024040654948496273,0.0,6.000773693729599,0.0,-0.5284013404785359,0.0,0.13328058417009037,0.0,-3.4594204857883706,0.0,-0.012889754938163541,0.0,-0.014242708225065952,0.34202868974710754,0.12108198290185891,0.11763127979497848,0.0,0.0,0.0,0.34336435722546316,0.11763127979497848,0.0,0.0,0.12031197628726968,0.0,0.0,0.0002225825446060935,0.0,1.395066940740804,0.0,4.072184407317892,0.0,0.19976027242119415,0.0,84.71185453224744,-1.6003439862204805,0.0,-3.9959725652360056,0.0,0.19976027242119415,0.0
sim_raptor_glider_3dof,raptor_glider_3dof,0.04,-14.525231286678197,0.0,-0.010866656019581204,11.745100474668616,0.0,-0.5980451988429561,0.0,0.0,0.0,2.142568441590844,0.037394873755084046,0.0015898753186149534,0.0,0.0,0.0,0.0,0.0,-0.01615677862071089,-0.9257152254939335,0.0,0.0,11.76031645917405,0.010866656019581204,0.03455968867487745,-0.05087475831925798,-2.914908935441556,0.0,0.0,0.03471797969854709,1.9891937099476225,-5.533190068351342,0.0,-4.5161077757403945,11.753229592223667,0.0,-0.4082124108818328,0.0,23.948800085760006,0.0,0.0,0.037394873755084046,0.0,-0.2544898263400585,0.3490658503988659,1.0,0.14,0.14,0.75,0.08726646259971647,5.0,0.184,0.175,0.174,0.0,0.0,0.0,-0.035669627119905255,0.0,0.019823087659309985,0.0,6.008912528257449,0.0,-0.5254639078095323,0.0,0.1330277154678967,0.0,-3.487987152840431,0.0,-0.019125344869581756,0.0,-0.012844603926989474,0.34722595616671587,0.1094029548113511,0.11491841335832363,0.0,0.0,0.0,0.3485634352075708,0.11491841335832363,0.0,0.0,0.10862658975531851,0.0,0.0,0.0002225825446060935,0.0,1.3628932681681791,0.0,4.133843702598988,0.0,0.18035841344585862,0.0,84.71185453224744,-1.5713474900223146,0.0,-4.059188204990749,0.0,0.18035841344585862,0.0
sim_raptor_glider_3dof,raptor_glider_3dof,0.041,-14.51348079425717,0.0,-0.011277378214354981,11.739575761055633,0.0,-0.6023961483318789,0.0,0.0,0.0,3.5116337822740484,0.061289571624943834,0.002606952863012922,0.0,0.0,0.0,0.0,0.0,-0.016107435812939636,-0.9228880908593153,0.0,0.0,11.755021062043658,0.011277378214354981,0.034544127250414815,-0.051268315028797015,-2.9374580738971985,0.0,0.0,0.03516087921585738,2.0145699830378834,-5.51623793003333,0.0,-4.185807852799563,11.747755518242043,0.0,-0.4132317179303665,0.0,23.840600817786026,0.0,0.0,0.061289571624943834,0.0,-0.2544898263400585,0.3490658503988659,1.0,0.14,0.14,0.75,0.08726646259971647,5.0,0.184,0.175,0.174,0.0,0.0,0.0,-0.035719684044727286,0.0,0.0198143572669215,0.0,6.008797710904178,0.0,-0.5255087589978112,0.0,0.13257105774943373,0.0,-3.487435693940572,0.0,-0.018998928309353492,0.0,-0.012810040275983477,0.34556774521445244,0.10950609039347434,0.11487737686463692,0.0,0.0,0.0,0.3477607965498514,0.11487737686463692,0.0,0.0,0.10823326912810947,0.0,0.0,0.00036497340082180916,0.0,1.3611799455117937,0.0,4.120611342445984,0.0,0.17954356475874658,0.0,84.63558414960454,-1.5705557139187052,0.0,-4.045442303263673,0.0,0.17954356475874658,0.0
sim_raptor_glider_3dof,raptor_glider_3dof,0.042,-14.501735775161775,0.0,-0.011693095693343217,11.734067961872713,0.0,-0.6064201091447122,0.0,0.0,0.0,4.8744709584620916,0.08507556751800725,0.0036203208768388613,0.0,0.0,0.0,0.0,0.0,-0.016034253250561955,-0.9186950389011213,0.0,0.0,11.749727498228319,0.011693095693343217,0.03452857121346004,-0.05163435973888947,-2.958430890898586,0.0,0.0,0.03560010648832751,2.0397358519974644,-5.499360375888606,0.0,-3.8621141965799417,11.742282672691514,0.0,-0.41820320088608154,0.0,23.731390719700002,0.0,0.0,0.08507556751800725,0.0,-0.2544898263400585,0.3490658503988659,1.0,0.14,0.14,0.75,0.08726646259971647,5.0,0.184,0.175,0.174,0.0,0.0,0.0,-0.03576620679999577,0.0,0.01980623681046096,0.0,6.008690344120594,0.0,-0.5255502943514361,0.0,0.13214625158043472,0.0,-3.486922326744514,0.0,-0.018881373600034685,0.0,-0.01277802505764448,0.34402537481375717,0.10960189721274521,0.11483950176896715,0.0,0.0,0.0,0.34707084900709634,0.11483950176896715,0.0,0.0,0.1078345683353852,0.0,0.0,0.0005068449227574406,0.0,1.3595059013292894,0.0,4.108733146141356,0.0,0.17872110351006074,0.0,84.55937450514497,-1.5697515577680876,0.0,-4.033091172888913,0.0,0.17872110351006074,0.0
sim_raptor_glider_3dof,raptor_glider_3dof,0.043000000000000003,-14.48999622840871,0.0,-0.012113763191602202,11.728576988410572,0.0,-0.6101236279924646,0.0,0.0,0.0,6.231023032249297,0.10875186768035104,0.004629931603863275,0.0,0.0,0.0,0.0,0.0,-0.01593733954245597,-0.9131422924496856,0.0,0.0,11.744435661814862,0.012113763191602202,0.03451302025276929,-0.05197341221264372,-2.9778571666781746,0.0,0.0,0.03603607267018775,2.064714874228489,-5.482586487661368,0.0,-3.5449240611511854,11.736810833537453,0.0,-0.42313174339274856,0.0,23.621209276293783,0.0,0.0,0.10875186768035104,0.0,-0.2544898263400585,0.3490658503988659,1.0,0.14,0.14,0.75,0.08726646259971647,5.0,0.184,0.175,0.174,0.0,0.0,0.0,-0.03580926875585423,0.0,0.019798715396909996,0.0,6.008590400063242,0.0,-0.5255886113762642,0.0,0.1317527090161913,0.0,-3.486446421100682,0.0,-0.01877250836559492,0.0,-0.012748484969778585,0.3425966770162483,0.10969053642523803,0.1148046714166737,0.0,0.0,0.0,0.3464913877785574,0.1148046714166737,0.0,0.0,0.10743065523940583,0.0,0.0,0.0006481904245408585,0.0,1.357869628649642,0.0,4.098179335800416,0.0,0.17789132705976848,0.0,84.48322403943766,-1.568936563233443,0.0,-4.0221041579426915,0.0,0.17789132705976848,0.0
sim_raptor_glider_3dof,raptor_glider_3dof,0.044,-14.478262153212532,0.0,-0.012539344845981683,11.72310273849724,0.0,-0.6135123582564834,0.0,0.0,0.0,7.581242106976555,0.13231763615757305,0.005635743974741547,0.0,0.0,0.0,0.0,0.0,-0.015816791019968055,-0.9062353708845902,0.0,0.0,11.739145421669113,0.012539344845981683,0.034497473982982495,-0.05228591723041256,-2.99576238527299,0.0,0.0,0.0364691262104445,2.0895270143883997,-5.465943861257496,0.0,-3.234147235881151,11.731339771776712,0.0,-0.42802148336834206,0.0,23.51009030891037,0.0,0.0,0.13231763615757305,0.0,-0.2544898263400585,0.3490658503988659,1.0,0.14,0.14,0.75,0.08726646259971647,5.0,0.184,0.175,0.174,0.0,0.0,0.0,-0.03584893312449975,0.0,0.019791783545002193,0.0,6.008497860791284,0.0,-0.5256237955096786,0.0,0.13138992773178473,0.0,-3.4860074425817427,0.0,-0.018672184887162126,0.0,-0.012721355707646409,0.34127979591606467,0.10977214733781675,0.11477278285502363,0.0,0.0,0.0,0.34602052570233294,0.11477278285502363,0.0,0.0,0.10702167297615595,0.0,0.0,0.0007890041564638168,0.0,1.3562697817935314,0.0,4.088923969746238,0.0,0.177054490116404,0.0,84.40713083311977,-1.5681120489840497,0.0,-4.012454554658863,0.0,0.177054490116404,0.0
