name,vehicle,t,north,east,down,u,v,w,p_rad,p_deg,p_hat_div_b,q_deg,q_rad,q_hat_div_c,r_rad,r_deg,r_hat_div_b,phi_rad,phi_deg,theta_rad,theta_deg,psi_rad,psi_deg,speed,altitude,mach,alpha_rad,alpha_deg,beta_rad,beta_deg,gamma_rad,gamma_deg,u_dot,v_dot,w_dot,north_dot,east_dot,down_dot,p_rad_dot,q_rad_dot,r_rad_dot,phi_rad_dot,theta_rad_dot,psi_rad_dot,del_tail_alt_rad,del_tail_splay_rad,DIM_b,DIM_c_bar,DIM_S,DIM_wing_position,DIM_wing_incidence_rad,DIM_wing_incidence_deg,DIM_empennage_length,DIM_nose_length,DIM_tail_length,CDp,CDq,CDr,CYp,CYq,CYr,CLp,CLq,CLr,Clp,Clq,Clr,Cmp,Cmq,Cmr,Cnp,Cnq,Cnr,CL_0,Cm_0,CD_0,Cl_0,CY_0,Cn_0,CL,CD,CY,Cl,Cm,Cn,p_hat,q_hat,r_hat,drag_force_wind,side_force_wind,lift_force_wind,roll_moment_wind,pitch_moment_wind,yaw_moment_wind,qbar,X_total,Y_total,Z_total,L_total,M_total,N_total
sim_raptor_glider_3dof,raptor_glider_3dof,0.0,-15.0,0.0,0.0,12.0,0.0,0.0,0.0,0.0,0.0,0.0,0.0,0.0,0.0,0.0,0.0,0.0,0.0,0.0,0.0,0.0,0.0,12.0,-0.0,0.035264039495724236,0.0,0.0,0.0,0.0,0.0,0.0,-7.487178041450953,0.0,-25.024054441263395,12.0,0.0,0.0,0.0,-89.41363838472799,0.0,0.0,0.0,0.0,0.4363323129985824,0.3490658503988659,1.0,0.14,0.14,0.75,0.08726646259971647,5.0,0.184,0.175,0.174,0.0,0.0,0.0,-0.053153656886407115,0.0,0.055671173493162154,0.0,6.024209384397437,0.0,-0.5269202128147928,0.0,0.19813275846416445,0.0,-3.4552995296441478,0.0,-0.03588346466142729,0.0,-0.029845922084054996,0.7757079658211316,-0.38952171953159265,0.1667455120831285,0.0,0.0,0.0,0.7757079658211316,0.1667455120831285,0.0,0.0,-0.38952171953159265,0.0,0.0,0.0,0.0,2.0589739613990123,0.0,9.578443721347433,0.0,-0.6733741106753866,0.0,88.20001620075907,-2.0589739613990123,0.0,-9.578443721347433,0.0,-0.6733741106753866,0.0
sim_raptor_glider_3dof,raptor_glider_3dof,0.001,-14.988003746590733,0.0,-0.000012415174634177188,11.992502827180262,0.0,-0.02526770405029525,0.0,0.0,0.0,-5.103039651887635,-0.0890648437852645,-0.0037133468875430262,0.0,0.0,0.0,0.0,0.0,-0.000044590487564095195,-0.0025548467438532376,0.0,0.0,11.992529446150822,0.000012415174634177188,0.03524208600355821,-0.002106955238988487,-0.12071964281701804,0.0,0.0,0.002062364751424392,0.1181647960731648,-7.507675599275719,0.0,-25.508550485583747,11.99250394195709,0.0,-0.024732952477174667,0.0,-88.71856693472195,0.0,0.0,-0.0890648437852645,0.0,0.4363323129985824,0.3490658503988659,1.0,0.14,0.14,0.75,0.08726646259971647,5.0,0.184,0.175,0.174,0.0,0.0,0.0,-0.053430186057496054,0.0,0.0554080780660455,0.0,6.0240249874908525,0.0,-0.5274002219771142,0.0,0.1957017793236076,0.0,-3.453669819760639,0.0,-0.03525814560644711,0.0,-0.029499655008724115,0.7671435812705255,-0.38877083359862435,0.165760584735996,0.0,0.0,0.0,0.7640118800492363,0.165760584735996,0.0,0.0,-0.386975379228011,0.0,0.0,-0.0005198685642560238,0.0,2.0442643995802876,0.0,9.422277857722193,0.0,-0.6681395275853911,0.0,88.09023322213056,-2.064112165078258,0.0,-9.417949773357746,0.0,-0.6681395275853911,0.0
sim_raptor_glider_3dof,raptor_glider_3dof,0.002,-14.976014997218163,0.0,-0.000049270492086499364,11.984983638081903,0.0,-0.051011581957007696,0.0,0.0,0.0,-10.166686259086081,-0.1774421492383174,-0.0074026192836820276,0.0,0.0,0.0,0.0,0.0,-0.00017790069037163533,-0.010192958730758345,0.0,0.0,11.985092197667264,0.000049270492086499364,0.03522023038486956,-0.004256265628603735,-0.24386605700559036,0.0,0.0,0.0040783649382321,0.233673098274832,-7.5312069778045,0.0,-25.97647568606275,11.984992523423195,0.0,-0.04887944429772272,0.0,-88.03854836579413,0.0,0.0,-0.1774421492383174,0.0,0.4363323129985824,0.3490658503988659,1.0,0.14,0.14,0.75,0.08726646259971647,5.0,0.184,0.175,0.174,0.0,0.0,0.0,-0.05371000072613438,0.0,0.05518325282971427,0.0,6.023796383437123,0.0,-0.5278990096560925,0.0,0.1932332307470952,0.0,-3.4519868033346692,0.0,-0.03462545852853912,0.0,-0.029153229463314653,0.758374006898808,-0.388063512765844,0.16478068235403653,0.0,0.0,0.0,0.7521311449211472,0.16478068235403653,0.0,0.0,-0.38448598859501065,0.0,0.0,-0.001036366699715484,0.0,2.0296598650783366,0.0,9.264255835778041,0.0,-0.6630183077427956,0.0,87.98100758981425,-2.069072495287059,0.0,-9.25553317577674,0.0,-0.6630183077427956,0.0
sim_raptor_glider_3dof,raptor_glider_3dof,0.003,-14.964033765483153,0.0,-0.00010997650410396534,11.977439408842296,0.0,-0.07721526894416839,0.0,0.0,0.0,-15.191799193026208,-0.2651469152201249,-0.011068367643203196,0.0,0.0,0.0,0.0,0.0,-0.0003992506169425001,-0.022875375318799577,0.0,0.0,11.97768829909372,0.00010997650410396534,0.035198472770559576,-0.006446636600632963,-0.3693650692708328,0.0,0.0,0.006047385983690463,0.3464896939520332,-7.557751963901034,0.0,-26.428240508352538,11.977469282477013,0.0,-0.07243326284374174,0.0,-87.37346069275941,0.0,0.0,-0.2651469152201249,0.0,0.4363323129985824,0.3490658503988659,1.0,0.14,0.14,0.75,0.08726646259971647,5.0,0.184,0.175,0.174,0.0,0.0,0.0,-0.0539933342342998,0.0,0.0549956890768542,0.0,6.023523849844041,0.0,-0.5284156910211553,0.0,0.1907277346999606,0.0,-3.450251759098094,0.0,-0.033984927296559594,0.0,-0.028807107836358457,0.7494038488665931,-0.387399686775176,0.16380724554970857,0.0,0.0,0.0,0.7400699681597184,0.16380724554970857,0.0,0.0,-0.38205327508479314,0.0,0.0,-0.0015495714700484477,0.0,2.015177614704102,0.0,9.104435082498677,0.0,-0.6580095324771711,0.0,87.87233904709669,-2.0738283182350847,0.0,-9.09125486919839,0.0,-0.6580095324771711,0.0
sim_raptor_glider_3dof,raptor_glider_3dof,0.004,-14.95206006146447,0.0,-0.00019393750269191865,11.969867139046595,0.0,-0.10386280993339823,0.0,0.0,0.0,-20.179227607931264,-0.35219396226773997,-0.01471113674262299,0.0,0.0,0.0,0.0,0.0,-0.0007079751977142588,-0.040563990828967035,0.0,0.0,11.970317740549529,0.00019393750269191865,0.03517681313159225,-0.008676805031272569,-0.49714430794979647,0.0,0.0,0.00796882983355831,0.4565803171208294,-7.587282867422961,0.0,-26.864252771312174,11.96993767151242,0.0,-0.09538841555743248,0.0,-86.72306067972036,0.0,0.0,-0.35219396226773997,0.0,0.4363323129985824,0.3490658503988659,1.0,0.14,0.14,0.75,0.08726646259971647,5.0,0.184,0.175,0.174,0.0,0.0,0.0,-0.054280487125545326,0.0,0.054843901706905056,0.0,6.023207997132767,0.0,-0.5289492506950555,0.0,0.18818569052618506,0.0,-3.4484661334741316,0.0,-0.033335929119057396,0.0,-0.028461722112779208,0.7402377623774763,-0.38677875516894367,0.16284159593212236,0.0,0.0,0.0,0.727832609270965,0.16284159593212236,0.0,0.0,-0.37967643521108574,0.0,0.0,-0.0020595591439672187,0.0,2.000833340210975,0.0,8.942873240625298,0.0,-0.6531113699789741,0.0,87.76422654166264,-2.078352616244555,0.0,-8.925175978978858,0.0,-0.6531113699789741,0.0
sim_raptor_glider_3dof,raptor_glider_3dof,0.005,-14.94009389182307,0.0,-0.0003005518855746,11.962263859629724,0.0,-0.13093865674169305,0.0,0.0,0.0,-25.12980322664479,-0.4385978066832464,-0.01833146045868009,0.0,0.0,0.0,0.0,0.0,-0.0011034240774344013,-0.06322154265010774,0.0,0.0,11.962980463882431,0.0003005518855746,0.035155251297077285,-0.010945539172903748,-0.6271331991024985,0.0,0.0,0.009842115095469346,0.5639116564523908,-7.619764933048298,0.0,-27.284916404279006,11.96240105817221,0.0,-0.11773912974501546,0.0,-86.08698535636344,0.0,0.0,-0.4385978066832464,0.0,0.4363323129985824,0.3490658503988659,1.0,0.14,0.14,0.75,0.08726646259971647,5.0,0.184,0.175,0.174,0.0,0.0,0.0,-0.05457182683161292,0.0,0.05472593032343835,0.0,6.022849768199583,0.0,-0.529498543215881,0.0,0.18560727572066893,0.0,-3.446631540314975,0.0,-0.03267769521599154,0.0,-0.028117473742245224,0.7308804509402165,-0.3861995880247053,0.16188493539638366,0.0,0.0,0.0,0.7154233824078116,0.16188493539638366,0.0,0.0,-0.37735413745313595,0.0,0.0,-0.002566404464215213,0.0,1.9866411722863777,0.0,8.779628219436473,0.0,-0.6483210867187731,0.0,87.65666831823584,-2.0826180146542357,0.0,-8.757357879177162,0.0,-0.6483210867187731,0.0
sim_raptor_glider_3dof,raptor_glider_3dof,0.006,-14.92813525992473,0.0,-0.0004292124397594923,11.954626639550906,0.0,-0.15842765930436845,0.0,0.0,0.0,-30.04433358782197,-0.5243725426750143,-0.02192985685369944,0.0,0.0,0.0,0.0,0.0,-0.0015849610904613313,-0.09081158117588696,0.0,0.0,11.955676367913814,0.0004292124397594923,0.03513378696968413,-0.01325163807797221,-0.7592629335026617,0.0,0.0,0.01166667698751088,0.6684513523267749,-7.65515672930522,0.0,-27.690630360815796,11.954862725505864,0.0,-0.13947985016959272,0.0,-85.46475387002384,0.0,0.0,-0.5243725426750143,0.0,0.4363323129985824,0.3490658503988659,1.0,0.14,0.14,0.75,0.08726646259971647,5.0,0.184,0.175,0.174,0.0,0.0,0.0,-0.05486778710977721,0.0,0.05463934182373924,0.0,6.022450437086101,0.0,-0.5300622937916623,0.0,0.18299244783751023,0.0,-3.444749760445701,0.0,-0.03200931203935526,0.0,-0.02777473367758559,0.7213366671206888,-0.3856605284654083,0.16093834608201854,0.0,0.0,0.0,0.7028466604815571,0.16093834608201854,0.0,0.0,-0.37508452678533377,0.0,0.0,-0.003070179959517922,0.0,1.9726136922696764,0.0,8.61475825857789,0.0,-0.6436350613951496,0.0,87.54966199755503,-2.0865968109073574,0.0,-8.58786227075033,0.0,-0.6436350613951496,0.0
sim_raptor_glider_3dof,raptor_glider_3dof,0.007,-14.916184165882276,0.0,-0.0005793064854676666,11.946952592434664,0.0,-0.18631506489291877,0.0,0.0,0.0,-34.923595341205655,-0.6095317253381911,-0.025506823267053384,0.0,0.0,0.0,0.0,0.0,-0.00215196395569408,-0.12329845232554847,0.0,0.0,11.94840531406963,0.0005793064854676666,0.03511241974218939,-0.015593931681301612,-0.8934664713539263,0.0,0.0,0.013441967725607532,0.7701680190283778,-7.693410528399182,0.0,-28.081787400130356,11.947325872576652,0.0,-0.1606052419691676,0.0,-84.85576962259707,0.0,0.0,-0.6095317253381911,0.0,0.4363323129985824,0.3490658503988659,1.0,0.14,0.14,0.75,0.08726646259971647,5.0,0.184,0.175,0.174,0.0,0.0,0.0,-0.05516886739682447,0.0,0.05458123429015566,0.0,6.022011606567932,0.0,-0.5306390995932566,0.0,0.18034094615955698,0.0,-3.442822740123928,0.0,-0.031329722669104235,0.0,-0.027433842397851762,0.7116112100401488,-0.3851593965008954,0.16000279048359145,0.0,0.0,0.0,0.6901068760336266,0.16000279048359145,0.0,0.0,-0.3728652305367967,0.0,0.0,-0.0035709552573874744,0.0,1.9587619456352325,0.0,8.448321951825605,0.0,-0.6390488010277785,0.0,87.4432046606849,-2.090261009781001,0.0,-8.416751218395161,0.0,-0.6390488010277785,0.0
sim_raptor_glider_3dof,raptor_glider_3dof,0.008,-14.904240606651282,0.0,-0.0007502161182813057,11.939238882633015,0.0,-0.21458650998107728,0.0,0.0,0.0,-39.768327695755914,-0.6940882563029905,-0.02906283149078703,0.0,0.0,0.0,0.0,0.0,-0.0028038236298313884,-0.16064726048838937,0.0,0.0,11.941167131685324,0.0007502161182813057,0.035091149113066274,-0.017971280258754233,-1.0296785112733915,0.0,0.0,0.015167456628922844,0.8690312507850021,-7.734472659743328,0.0,-28.458772998507442,11.939793614875626,0.0,-0.18111019026309105,0.0,-84.25932271685393,0.0,0.0,-0.6940882563029905,0.0,0.4363323129985824,0.3490658503988659,1.0,0.14,0.14,0.75,0.08726646259971647,5.0,0.184,0.175,0.174,0.0,0.0,0.0,-0.05547563193059443,0.0,0.054548242134604644,0.0,6.021535204946049,0.0,-0.5312274312413525,0.0,0.17765229454057654,0.0,-3.440852589499303,0.0,-0.030637728722487007,0.0,-0.027095110104628704,0.7017089249620452,-0.38469349440195466,0.1590791122370665,0.0,0.0,0.0,0.6772085241452388,0.1590791122370665,0.0,0.0,-0.37069336574289874,0.0,0.0,-0.004068796408710184,0.0,1.9450954633896698,0.0,8.280378294547667,0.0,-0.634556959380627,0.0,87.33729292823296,-2.0935823601488033,0.0,-8.244087212286694,0.0,-0.634556959380627,0.0
sim_raptor_glider_3dof,raptor_glider_3dof,0.009000000000000001,-14.892304576113405,0.0,-0.0009413184291606596,11.931482731000013,0.0,-0.24322801242629782,0.0,0.0,0.0,-44.57922600410458,-0.7780542717623,-0.03259832301805841,0.0,0.0,0.0,0.0,0.0,-0.0035399435977275817,-0.2028238278641469,0.0,0.0,11.933961623290918,0.0009413184291606596,0.03506997450201568,-0.020382573901800104,-1.1678354601866447,0.0,0.0,0.01684263030407252,0.9650116323224979,-7.778283843616755,0.0,-28.821964269395146,11.932268984822977,0.0,-0.20098980076623565,0.0,-83.67459264387269,0.0,0.0,-0.7780542717623,0.0,0.4363323129985824,0.3490658503988659,1.0,0.14,0.14,0.75,0.08726646259971647,5.0,0.184,0.175,0.174,0.0,0.0,0.0,-0.055788708736007504,0.0,0.0545365423304085,0.0,6.021023482042527,0.0,-0.531825634606743,0.0,0.17492580464570248,0.0,-3.4388415806117196,0.0,-0.029931992558805562,0.0,-0.02675881698380161,0.6916347024036031,-0.3842596132891834,0.15816803727685969,0.0,0.0,0.0,0.6641561648322319,0.15816803727685969,0.0,0.0,-0.3685655476778038,0.0,0.0,-0.004563765222528177,0.0,1.9316222876944662,0.0,8.110986723910683,0.0,-0.6301533572010052,0.0,87.23192303897322,-2.096532395351765,0.0,-8.0699332223392,0.0,-0.6301533572010052,0.0
sim_raptor_glider_3dof,raptor_glider_3dof,0.01,-14.88037606515921,0.0,-0.0011519857253842968,11.923681420343334,0.0,-0.27222596258209436,0.0,0.0,0.0,-49.356935507178044,-0.8614410332947542,-0.03611370438294382,0.0,0.0,0.0,0.0,0.0,-0.004359739052099519,-0.24979464746366856,0.0,0.0,11.926788569792983,0.0011519857253842968,0.03504889526519434,-0.022826731891997996,-1.3078753974881616,0.0,0.0,0.01846699283989848,1.058080750024493,-7.824779502619,0.0,-29.171728920063018,11.924754932281528,0.0,-0.22023940058925584,0.0,-83.10065118556057,0.0,0.0,-0.8614410332947542,0.0,0.4363323129985824,0.3490658503988659,1.0,0.14,0.14,0.75,0.08726646259971647,5.0,0.184,0.175,0.174,0.0,0.0,0.0,-0.05610878847395166,0.0,0.05454186162840115,0.0,6.020479004498773,0.0,-0.5324319328652451,0.0,0.17216057968112747,0.0,-3.4367921450673697,0.0,-0.02921103978427371,0.0,-0.02642521354291394,0.6813934773072167,-0.3838540408424605,0.15727017538811427,0.0,0.0,0.0,0.6509544254455103,0.15727017538811427,0.0,0.0,-0.3664778994650984,0.0,0.0,-0.0050559186136121355,0.0,1.9183490019530007,0.0,7.940207158086878,0.0,-0.6258310040784566,0.0,87.12709092666549,-2.099082476605616,0.0,-7.894352751368246,0.0,-0.6258310040784566,0.0
sim_raptor_glider_3dof,raptor_glider_3dof,0.01,-14.88037606515921,0.0,-0.0011519857253842968,11.923681420343334,0.0,-0.27222596258209436,0.0,0.0,0.0,-49.356935507178044,-0.8614410332947542,-0.03611370438294382,0.0,0.0,0.0,0.0,0.0,-0.004359739052099519,-0.24979464746366856,0.0,0.0,11.926788569792983,0.0011519857253842968,0.03504889526519434,-0.022826731891997996,-1.3078753974881616,0.0,0.0,0.01846699283989848,1.058080750024493,-5.256337188481417,0.0,-21.073937028833413,11.924754932281528,0.0,-0.22023940058925584,0.0,10.653382050375425,0.0,0.0,-0.8614410332947542,0.0,-0.1445374446154455,0.3490658503988659,1.0,0.14,0.14,0.75,0.08726646259971647,5.0,0.184,0.175,0.174,0.0,0.0,0.0,-0.00036104278980947,0.0,0.005084845786360047,0.0,6.05575630467501,0.0,-0.5177699648483688,0.0,0.16569860098851358,0.0,-3.6846648357258984,0.0,-0.03803309832439132,0.0,-0.009791374296986644,0.4977324904937401,0.02835256566425612,0.10354657381701228,0.0,0.0,0.0,0.46711507947343467,0.10354657381701228,0.0,0.0,0.04698193119212479,0.0,0.0,-0.0050559186136121355,0.0,1.2630396452939314,0.0,5.697772920349792,0.0,0.08023062022137734,0.0,87.12709092666549,-1.3927608402177807,0.0,-5.667459981280104,0.0,0.08023062022137734,0.0
sim_raptor_glider_3dof,raptor_glider_3dof,0.011,-14.868453797557956,0.0,-0.0013775758975028138,11.918416661372644,0.0,-0.2930664356644116,0.0,0.0,0.0,-48.74467659623723,-0.8507550994241622,-0.03567999177117541,0.0,0.0,0.0,0.0,0.0,-0.005215838508793672,-0.2988455331756863,0.0,0.0,11.92201927736229,0.0013775758975028138,0.035034879888807456,-0.024584422503012845,-1.4085836511890835,0.0,0.0,0.019368583994219174,1.1097381180133972,-5.272953406928196,0.0,-20.607969354996385,11.9197831219182,0.0,-0.23089819451891008,0.0,10.718071638027189,0.0,0.0,-0.8507550994241622,0.0,-0.1445374446154455,0.3490658503988659,1.0,0.14,0.14,0.75,0.08726646259971647,5.0,0.184,0.175,0.174,0.0,0.0,0.0,-0.0003756576669848348,0.0,0.005090001815645187,0.0,6.055856771947048,0.0,-0.5179816993810132,0.0,0.16366425494335107,0.0,-3.6833750424351606,0.0,-0.03751520576786822,0.0,-0.009618295364239764,0.4903898190140221,0.0289058498206165,0.10322274826164488,0.0,0.0,0.0,0.46013961024335387,0.10322274826164488,0.0,0.0,0.047305040589210014,0.0,0.0,-0.004995198847964557,0.0,1.2580829183190594,0.0,5.608199679219899,0.0,0.08071779750598276,0.0,87.05742397638672,-1.3955632111044998,0.0,-5.575578857408447,0.0,0.08071779750598276,0.0
sim_raptor_glider_3dof,raptor_glider_3dof,0.012,-14.85653649783018,0.0,-0.0016136641448291139,11.91313619657288,0.0,-0.3134442122336707,0.0,0.0,0.0,-48.128803881912035,-0.8400060927859931,-0.035243259168737495,0.0,0.0,0.0,0.0,0.0,-0.006061223657239016,-0.3472825342446451,0.0,0.0,11.917258968079771,0.0016136641448291139,0.03502089091092824,-0.02630473696849886,-1.507150409496736,0.0,0.0,0.020243513311259842,1.159867875252091,-5.287707018860329,0.0,-20.14854501069685,11.914817206110975,0.0,-0.2412307137153404,0.0,10.779460830462192,0.0,0.0,-0.8400060927859931,0.0,-0.1445374446154455,0.3490658503988659,1.0,0.14,0.14,0.75,0.08726646259971647,5.0,0.184,0.175,0.174,0.0,0.0,0.0,-0.0003899800706040134,0.0,0.005095013934455444,0.0,6.055941207024607,0.0,-0.5181851681952695,0.0,0.1616721298483408,0.0,-3.6821015527457135,0.0,-0.03700872540852288,0.0,-0.009451019901883725,0.48319029978629147,0.029446305977689338,0.1029119153576361,0.0,0.0,0.0,0.45330994502051875,0.1029119153576361,0.0,0.0,0.04761400228095325,0.0,0.0,-0.004934056283623251,0.0,1.253293027253516,0.0,5.520548240741061,0.0,0.08118011951421077,0.0,86.98791603188815,-1.398059274110741,0.0,-5.485674667402765,0.0,0.08118011951421077,0.0
sim_raptor_glider_3dof,raptor_glider_3dof,0.013000000000000001,-14.844624161095382,0.0,-0.0018599336325511168,11.907841824470736,0.0,-0.3333656548432994,0.0,0.0,0.0,-47.509501326243246,-0.8291972241235573,-0.034803639778888285,0.0,0.0,0.0,0.0,0.0,-0.006895831371797256,-0.3951020338378916,0.0,0.0,11.912507274979674,0.0018599336325511168,0.03500692725316546,-0.0279881618603316,-1.6036035509260191,0.0,0.0,0.021092330488534344,1.2085015170881277,-5.300676197019976,0.0,-19.69565301968222,11.90985751694798,0.0,-0.2512439102572912,0.0,10.837626594495982,0.0,0.0,-0.8291972241235573,0.0,-0.1445374446154455,0.3490658503988659,1.0,0.14,0.14,0.75,0.08726646259971647,5.0,0.184,0.175,0.174,0.0,0.0,0.0,-0.0004040193050460562,0.0,0.005099871644617668,0.0,6.056010508677798,0.0,-0.5183806763875883,0.0,0.15972174573442544,0.0,-3.6808447356854983,0.0,-0.03651348357249098,0.0,-0.009289361031454942,0.47613334126798645,0.02997417271360439,0.10261364484925545,0.0,0.0,0.0,0.4466253721142207,0.10261364484925545,0.0,0.0,0.04790912391039854,0.0,0.0,-0.00487250956904436,0.0,1.248664257242613,0.0,5.434804887361483,0.0,0.08161816588314924,0.0,86.91856158095061,-1.4002655672975914,0.0,-5.39773312901298,0.0,0.08161816588314924,0.0
sim_raptor_glider_3dof,raptor_glider_3dof,0.014,-14.832716780657686,0.0,-0.0021160541592376353,11.902535375165588,0.0,-0.35283757476403166,0.0,0.0,0.0,-46.88695980448233,-0.8183318248384533,-0.03436127164831043,0.0,0.0,0.0,0.0,0.0,-0.007719600605984823,-0.4423005342495631,0.0,0.0,11.907763967732715,0.0021160541592376353,0.03499298823865736,-0.029635221809838214,-1.6979731346377787,0.0,0.0,0.02191562120385339,1.2556726003882155,-5.311937802696419,0.0,-19.24927191662138,11.904904465696527,0.0,-0.2609451549128,0.0,10.89264791287987,0.0,0.0,-0.8183318248384533,0.0,-0.1445374446154455,0.3490658503988659,1.0,0.14,0.14,0.75,0.08726646259971647,5.0,0.184,0.175,0.174,0.0,0.0,0.0,-0.000417784218850827,0.0,0.005104566270636516,0.0,6.056065544410222,0.0,-0.5185685232305335,0.0,0.15781257377483868,0.0,-3.6796049019013997,0.0,-0.03602929700454124,0.0,-0.009133133987755343,0.46921808047109637,0.03048969563284134,0.10232750903512822,0.0,0.0,0.0,0.440084904610293,0.10232750903512822,0.0,0.0,0.04819072213581775,0.0,0.0,-0.004810578030763461,0.0,1.244190972458848,0.0,5.350952745693931,0.0,0.0820325314318983,0.0,86.8493571132978,-1.4021981203075422,0.0,-5.311736711660651,0.0,0.0820325314318983,0.0
sim_raptor_glider_3dof,raptor_glider_3dof,0.015,-14.820814349840475,0.0,-0.002381722872047056,11.897218486605581,0.0,-0.3718663592196752,0.0,0.0,0.0,-46.261354080983125,-0.807412945144071,-0.03391628153147526,0.0,0.0,0.0,0.0,0.0,-0.008532477473012239,-0.48887494799405107,0.0,0.0,11.903028703113712,0.002381722872047056,0.03497907285877843,-0.031246406825979622,-1.790287236077399,0.0,0.0,0.022713929352967385,1.3014122880833479,-5.321565776059875,0.0,-18.809378729272606,11.899958314445273,0.0,-0.2703413057853074,0.0,10.944598417689152,0.0,0.0,-0.807412945144071,0.0,-0.1445374446154455,0.3490658503988659,1.0,0.14,0.14,0.75,0.08726646259971647,5.0,0.184,0.175,0.174,0.0,0.0,0.0,-0.0004312826597094599,0.0,0.00510909061537781,0.0,6.056107148106621,0.0,-0.5187489940076079,0.0,0.1559441207160115,0.0,-3.678382358714085,0.0,-0.03555599418078492,0.0,-0.008982162943663684,0.4624436946113086,0.030993104806455382,0.10205309572229365,0.0,0.0,0.0,0.4336876057085136,0.10205309572229365,0.0,0.0,0.04845909203865363,0.0,0.0,-0.004748279414406536,0.0,1.2398677207479885,0.0,5.26897552103363,0.0,0.082423770683617,0.0,86.78029747811094,-1.4038722688857843,0.0,-5.227668472546618,0.0,0.082423770683617,0.0
sim_raptor_glider_3dof,raptor_glider_3dof,0.016,-14.80891686162014,0.0,-0.0026566378733088197,11.891892758971855,0.0,-0.3904584832700155,0.0,0.0,0.0,-45.632858165754115,-0.7964436220879896,-0.033468795643237924,0.0,0.0,0.0,0.0,0.0,-0.009334409898509737,-0.534822291429747,0.0,0.0,11.898301190423982,0.0026566378733088197,0.03496518025926117,-0.03282221491195961,-1.8805743887266404,0.0,0.0,0.02348780501344987,1.3457520972968933,-5.329632147566549,0.0,-18.37594466057994,11.895019331845488,0.0,-0.27943928332800677,0.0,10.993551001848301,0.0,0.0,-0.7964436220879896,0.0,-0.1445374446154455,0.3490658503988659,1.0,0.14,0.14,0.75,0.08726646259971647,5.0,0.184,0.175,0.174,0.0,0.0,0.0,-0.0004445218870857809,0.0,0.00511343895697013,0.0,6.056136122670814,0.0,-0.5189223652985636,0.0,0.15411587973393276,0.0,-3.6771773792718223,0.0,-0.0350934026980305,0.0,-0.008836276728942787,0.45580922925589373,0.031484628374173824,0.10179000062666771,0.0,0.0,0.0,0.42743240773707164,0.10179000062666771,0.0,0.0,0.04871452612928384,0.0,0.0,-0.00468563139005331,0.0,1.23568917518632,0.0,5.188855448598454,0.0,0.08279243259491956,0.0,86.71137829837542,-1.4053027836076646,0.0,-5.145509954368669,0.0,0.08279243259491956,0.0
sim_raptor_glider_3dof,raptor_glider_3dof,0.017,-14.797024308707993,0.0,-0.002940504345192296,11.886559719452828,0.0,-0.4086203902443046,0.0,0.0,0.0,-45.00164182298609,-0.7854268186142904,-0.03301893721767763,0.0,0.0,0.0,0.0,0.0,-0.010125348895079902,-0.5801397577855297,0.0,0.0,11.8935811506645,0.002940504345192296,0.03495130962021952,-0.03436314213347601,-1.9688630150563506,0.0,0.0,0.024237793238396105,1.3887232572708208,-5.336206819838521,0.0,-17.948936483908064,11.890087756939058,0.0,-0.2882459361895806,0.0,11.03957682584234,0.0,0.0,-0.7854268186142904,0.0,-0.1445374446154455,0.3490658503988659,1.0,0.14,0.14,0.75,0.08726646259971647,5.0,0.184,0.175,0.174,0.0,0.0,0.0,-0.0004575085436753215,0.0,0.00511760690056742,0.0,6.056153240342243,0.0,-0.5190889041138917,0.0,0.1523273421513645,0.0,-3.6759902107953524,0.0,-0.03464135212930697,0.0,-0.008695309622289003,0.44931364626309034,0.03196448964776537,0.1015378291383426,0.0,0.0,0.0,0.421318162155801,0.1015378291383426,0.0,0.0,0.048957310245392266,0.0,0.0,-0.004622651210474869,0.0,1.231650146333352,0.0,5.110573866662849,0.0,0.08313905307541868,0.0,86.64259537449699,-1.4065038522646898,0.0,-5.065241775388892,0.0,0.08313905307541868,0.0
sim_raptor_glider_3dof,raptor_glider_3dof,0.018000000000000002,-14.78513668357522,0.0,-0.0032330347234608143,11.881220821821714,0.0,-0.42635848625846623,0.0,0.0,0.0,-44.367870522894094,-0.7743654227230401,-0.032566826475984786,0.0,0.0,0.0,0.0,0.0,-0.010905248594662542,-0.6248247190151359,0.0,0.0,11.888868313497902,0.0032330347234608143,0.0349374601472212,-0.03586968217947832,-2.0551814013597283,0.0,0.0,0.02496443358481578,1.4303566823445923,-5.341357578995517,0.0,-17.528316896994397,11.885163798141976,0.0,-0.29676803572799854,0.0,11.082745338126045,0.0,0.0,-0.7743654227230401,0.0,-0.1445374446154455,0.3490658503988659,1.0,0.14,0.14,0.75,0.08726646259971647,5.0,0.184,0.175,0.174,0.0,0.0,0.0,-0.0004702487027918888,0.0,0.005121591264594473,0.0,6.056159243451343,0.0,-0.5192488681394881,0.0,0.15057799815182518,0.0,-3.6748210757598927,0.0,-0.034199674088043974,0.0,-0.008559101227410087,0.4429558316290972,0.03243290718530077,0.10129619636802463,0.0,0.0,0.0,0.4153436474221596,0.10129619636802463,0.0,0.0,0.04918772362793976,0.0,0.0,-0.004559355706637871,0.0,1.2277455815207396,0.0,5.034111311372319,0.0,0.08346415514142726,0.0,86.57394463969177,-1.407489090146536,0.0,-4.986843728186087,0.0,0.08346415514142726,0.0
sim_raptor_glider_3dof,raptor_glider_3dof,0.019000000000000003,-14.773253978512528,0.0,-0.003533947757338402,11.875877457519021,0.0,-0.4436791399181624,0.0,0.0,0.0,-43.731706058167354,-0.7632622582293712,-0.03211258105013142,0.0,0.0,0.0,0.0,0.0,-0.011674065798235987,-0.6688746999969445,0.0,0.0,11.884162425901414,0.003533947757338402,0.03492363109671578,-0.03734232632238188,-2.1395576954727624,0.0,0.0,0.02566826052414589,1.4706829954758178,-5.345150135289139,0.0,-17.114044948936687,11.880247643608243,0.0,-0.30501228130639885,0.0,11.123124395441758,0.0,0.0,-0.7632622582293712,0.0,-0.1445374446154455,0.3490658503988659,1.0,0.14,0.14,0.75,0.08726646259971647,5.0,0.184,0.175,0.174,0.0,0.0,0.0,-0.0004827479160969601,0.0,0.005125389974714982,0.0,6.056154845181498,0.0,-0.519402506020083,0.0,0.1488673370215454,0.0,-3.673670172757526,0.0,-0.03376820217748563,0.0,-0.008427496315002916,0.4367346013277325,0.03289009498111066,0.1010647271118335,0.0,0.0,0.0,0.40950757446320735,0.1010647271118335,0.0,0.0,0.04940603934548835,0.0,0.0,-0.004495761347018399,0.0,1.2239705655794901,0.0,4.959447592137509,0.0,0.08376824982207189,0.0,86.50542228568186,-1.4082715542581967,0.0,-4.9102948581557415,0.0,0.08376824982207189,0.0
sim_raptor_glider_3dof,raptor_glider_3dof,0.02,-14.761376185632598,0.0,-0.0038429688719036383,11.87053095315222,0.0,-0.4605886771275601,0.0,0.0,0.0,-43.09330636992743,-0.7521200817258792,-0.03165631586550723,0.0,0.0,0.0,0.0,0.0,-0.01243176010442777,-0.7122873859028268,0.0,0.0,11.879463247101826,0.0038429688719036383,0.03490982176115027,-0.038781563002803214,-2.2220198829813236,0.0,0.0,0.026349802898375442,1.5097324970784969,-5.3476481393386255,0.0,-16.70607632554029,11.875339458096917,0.0,-0.31298529391884217,0.0,11.160780266458849,0.0,0.0,-0.7521200817258792,0.0,-0.1445374446154455,0.3490658503988659,1.0,0.14,0.14,0.75,0.08726646259971647,5.0,0.184,0.175,0.174,0.0,0.0,0.0,-0.0004950112552614787,0.0,0.0051290019631619384,0.0,6.056140730327505,0.0,-0.5195500575974623,0.0,0.14719484781907768,0.0,-3.6725376776362917,0.0,-0.033346772052623305,0.0,-0.008300344701655455,0.43064870842307046,0.03333626253034454,0.10084305586235563,0.0,0.0,0.0,0.4038085938791409,0.10084305586235563,0.0,0.0,0.049612524315516854,0.0,0.0,-0.004431884221171013,0.0,1.2203203192928642,0.0,4.8865618757964215,0.0,0.08405183618670159,0.0,86.43702468846556,-1.4088637546047984,0.0,-4.835573551154708,0.0,0.08405183618670159,0.0
sim_raptor_glider_3dof,raptor_glider_3dof,0.02,-14.761376185632598,0.0,-0.0038429688719036383,11.87053095315222,0.0,-0.4605886771275601,0.0,0.0,0.0,-43.09330636992743,-0.7521200817258792,-0.03165631586550723,0.0,0.0,0.0,0.0,0.0,-0.01243176010442777,-0.7122873859028268,0.0,0.0,11.879463247101826,0.0038429688719036383,0.03490982176115027,-0.038781563002803214,-2.2220198829813236,0.0,0.0,0.026349802898375442,1.5097324970784969,-5.361969079153936,0.0,-16.66946829832602,11.875339458096917,0.0,-0.31298529391884217,0.0,11.573647544216112,0.0,0.0,-0.7521200817258792,0.0,-0.14758505372883235,0.3490658503988659,1.0,0.14,0.14,0.75,0.08726646259971647,5.0,0.184,0.175,0.174,0.0,0.0,0.0,0.00008442003838624597,0.0,0.005292980461994219,0.0,6.05509029329434,0.0,-0.5194779913417049,0.0,0.14716562384027018,0.0,-3.6684915360649097,0.0,-0.03350211660833334,0.0,-0.008380101920019244,0.42982537735145426,0.03518949526323405,0.10120051027405817,0.0,0.0,0.0,0.4029899182228373,0.10120051027405817,0.0,0.0,0.05144782501741953,0.0,0.0,-0.004431884221171013,0.0,1.224645940706171,0.0,4.876654931488215,0.0,0.08716113965549153,0.0,86.43702468846556,-1.4128020130540087,0.0,-4.825506343670783,0.0,0.08716113965549153,0.0
sim_raptor_glider_3dof,raptor_glider_3dof,0.021,-14.749503309542783,0.0,-0.004159806613112461,11.865168433229567,0.0,-0.47705481936296645,0.0,0.0,0.0,-42.42925502986314,-0.7405301994394768,-0.031180862572558952,0.0,0.0,0.0,0.0,0.0,-0.013178072613744797,-0.7550479428845104,0.0,0.0,11.8747548711367,0.004159806613112461,0.03489598539815069,-0.04018468092771219,-2.302412618237762,0.0,0.0,0.027006608313967395,1.5473646753532517,-5.363000296716229,0.0,-16.264112787172486,11.870424667178233,0.0,-0.3206578713073541,0.0,11.605896112073333,0.0,0.0,-0.7405301994394768,0.0,-0.14758505372883235,0.3490658503988659,1.0,0.14,0.14,0.75,0.08726646259971647,5.0,0.184,0.175,0.174,0.0,0.0,0.0,0.0000748330637040835,0.0,0.005297069125969701,0.0,6.055065673190734,0.0,-0.5196187662431235,0.0,0.14553469228873037,0.0,-3.667373235475782,0.0,-0.03309207383735868,0.0,-0.008257876843874993,0.42388788218023654,0.035622837858856476,0.1009898571685753,0.0,0.0,0.0,0.39745557829293543,0.1009898571685753,0.0,0.0,0.051632098378927654,0.0,0.0,-0.004365320760158254,0.0,1.2211282348277661,0.0,4.805871028544481,0.0,0.08740400362002428,0.0,86.36852035471685,-1.4132128454287287,0.0,-4.752933826849686,0.0,0.08740400362002428,0.0
sim_raptor_glider_3dof,raptor_glider_3dof,0.022,-14.737635338760175,0.0,-0.004484191238679235,11.859805422569893,0.0,-0.4931189342557674,0.0,0.0,0.0,-41.763425698540026,-0.7289092853515362,-0.030703708912584206,0.0,0.0,0.0,0.0,0.0,-0.013912794595614928,-0.7971444115611562,0.0,0.0,11.870052693418836,0.004484191238679235,0.03488216724975414,-0.04155507116857074,-2.3809301953248734,0.0,0.0,0.02764227657295581,1.583785783763717,-5.36285172896758,0.0,-15.865050946515556,11.865518055519523,0.0,-0.32807349585116075,0.0,11.635550251364263,0.0,0.0,-0.7289092853515362,0.0,-0.14758505372883235,0.3490658503988659,1.0,0.14,0.14,0.75,0.08726646259971647,5.0,0.184,0.175,0.174,0.0,0.0,0.0,0.00006541660722000475,0.0,0.005300960801954095,0.0,6.055032708061798,0.0,-0.5197539037718883,0.0,0.14394125009129527,0.0,-3.6662740613826688,0.0,-0.03269181974269358,0.0,-0.008139827050185266,0.4180843037641267,0.03604549305677566,0.10078829658448117,0.0,0.0,0.0,0.39205662912269584,0.10078829658448117,0.0,0.0,0.05180504267719885,0.0,0.0,-0.004298519247761789,0.0,1.2177260803198933,0.0,4.73683550991297,0.0,0.08762732894302427,0.0,86.3001333053153,-1.4134577227511387,0.0,-4.68215812640484,0.0,0.08762732894302427,0.0
sim_raptor_glider_3dof,raptor_glider_3dof,0.023,-14.72577226969123,0.0,-0.004815845735590262,11.854443215185094,0.0,-0.5087876193891512,0.0,0.0,0.0,-41.09598177173139,-0.7172601912562855,-0.030224973910061306,0.0,0.0,0.0,0.0,0.0,-0.014635879153249843,-0.838574104944721,0.0,0.0,11.865356664832778,0.004815845735590262,0.03486836717162649,-0.04289324637237031,-2.4576019867516474,0.0,0.0,0.02825736721912047,1.6190278818069266,-5.361582698814958,0.0,-15.472226849185423,11.860619862143293,0.0,-0.3352391227521257,0.0,11.66267579232874,0.0,0.0,-0.7172601912562855,0.0,-0.14758505372883235,0.3490658503988659,1.0,0.14,0.14,0.75,0.08726646259971647,5.0,0.184,0.175,0.174,0.0,0.0,0.0,0.000056167877100743414,0.0,0.005304656803045418,0.0,6.054992004004235,0.0,-0.5198836229979816,0.0,0.1423847485846729,0.0,-3.6651941000999484,0.0,-0.03230118659947147,0.0,-0.008025813249111014,0.4124130956632795,0.036457668628824914,0.1005954854335773,0.0,0.0,0.0,0.3867914191147474,0.1005954854335773,0.0,0.0,0.051966924075941334,0.0,0.0,-0.004231496347408583,0.0,1.2144350526119176,0.0,4.66952423757246,0.0,0.08783161139202775,0.0,86.23186271925572,-1.4135476887891016,0.0,-4.613154239108873,0.0,0.08783161139202775,0.0
sim_raptor_glider_3dof,raptor_glider_3dof,0.024,-14.71391409572408,0.0,-0.005154572443430269,11.849082679983384,0.0,-0.5240658448410912,0.0,0.0,0.0,-40.42703776456242,-0.7055849158197024,-0.02974474187425341,0.0,0.0,0.0,0.0,0.0,-0.015347304661150921,-0.8793357839854038,0.0,0.0,11.860666312092723,0.005154572443430269,0.03485458377293697,-0.04419958424500868,-2.5324496334719244,0.0,0.0,0.02885227958385776,1.6531138494865207,-5.3592481611412195,0.0,-15.085597657432832,11.855729924772337,0.0,-0.34215978382756784,0.0,11.687323593727289,0.0,0.0,-0.7055849158197024,0.0,-0.14758505372883235,0.3490658503988659,1.0,0.14,0.14,0.75,0.08726646259971647,5.0,0.184,0.175,0.174,0.0,0.0,0.0,0.000047085276594310065,0.0,0.005308158787501205,0.0,6.054944145969107,0.0,-0.520008122503806,0.0,0.14086479322035747,0.0,-3.66413352503901,0.0,-0.03192004704978736,0.0,-0.007915711858962369,0.4068732269716402,0.03685952781777248,0.10041110890812084,0.0,0.0,0.0,0.381658841875758,0.10041110890812084,0.0,0.0,0.05211794664308418,0.0,0.0,-0.004164263862395478,0.0,1.2112509957351705,0.0,4.603919399756337,0.0,0.08801723398436022,0.0,86.16370161389649,-1.4134931093541387,0.0,-4.5459036553726655,0.0,0.08801723398436022,0.0
sim_raptor_glider_3dof,raptor_glider_3dof,0.025,-14.702060807229236,0.0,-0.0055000934896717365,11.843725019734487,0.0,-0.5389606805884879,0.0,0.0,0.0,-39.756754899086665,-0.6938862728974483,-0.029263130342178496,0.0,0.0,0.0,0.0,0.0,-0.016047042200831935,-0.9194277917759939,0.0,0.0,11.855981653085715,0.0055000934896717365,0.034840817106249714,-0.045474638695442444,-2.605504872131152,0.0,0.0,0.02942759649461051,1.686077080355158,-5.355904068380172,0.0,-14.70509484284909,11.850848481677255,0.0,-0.3488426903820096,0.0,11.70956047251689,0.0,0.0,-0.6938862728974483,0.0,-0.14758505372883235,0.3490658503988659,1.0,0.14,0.14,0.75,0.08726646259971647,5.0,0.184,0.175,0.174,0.0,0.0,0.0,0.000038166218855731315,0.0,0.0053114695336448645,0.0,6.054889688261732,0.0,-0.5201276105983541,0.0,0.13938078176133115,0.0,-3.6630923457506515,0.0,-0.03154822324757391,0.0,-0.007809388463147853,0.4014628673593839,0.03725128528218837,0.10023483590207569,0.0,0.0,0.0,0.3766569636976677,0.10023483590207569,0.0,0.0,0.05225838210986765,0.0,0.0,-0.00409683824790499,0.0,1.2081696710701402,0.0,4.539993664293167,0.0,0.08818469991852469,0.0,86.09565015118667,-1.4133040963463046,0.0,-4.480378104263812,0.0,0.08818469991852469,0.0
sim_raptor_glider_3dof,raptor_glider_3dof,0.026000000000000002,-14.690212395925133,0.0,-0.005852181110756483,11.838371185993516,0.0,-0.5534780518291379,0.0,0.0,0.0,-39.08526563983551,-0.6821665744317379,-0.028780236434901105,0.0,0.0,0.0,0.0,0.0,-0.016735070398131522,-0.9588489036672545,0.0,0.0,11.85130247235375,0.005852181110756483,0.03482706653840474,-0.04671886875978133,-2.676794003561061,0.0,0.0,0.02998379836164981,1.7179450998938064,-5.351603001719274,0.0,-14.330659992856912,11.845975544107398,0.0,-0.35529382154429284,0.0,11.729443114912453,0.0,0.0,-0.6821665744317379,0.0,-0.14758505372883235,0.3490658503988659,1.0,0.14,0.14,0.75,0.08726646259971647,5.0,0.184,0.175,0.174,0.0,0.0,0.0,0.000029408974679523933,0.0,0.005314592125068459,0.0,6.054829163833416,0.0,-0.5202422793735791,0.0,0.13793221974862954,0.0,-3.662070627674021,0.0,-0.031185565936942255,0.0,-0.007706720714922798,0.3961805398547143,0.0376331237722442,0.10006635779910754,0.0,0.0,0.0,0.37178422176758585,0.10006635779910754,0.0,0.0,0.052388459963051304,0.0,0.0,-0.0040292331008861555,0.0,1.2051870767558455,0.0,4.47772407501395,0.0,0.08833443609840569,0.0,86.02770510511561,-1.4129901755464587,0.0,-4.416553808768555,0.0,0.08833443609840569,0.0
sim_raptor_glider_3dof,raptor_glider_3dof,0.027,-14.678368853292932,0.0,-0.006210606333297182,11.833022112053825,0.0,-0.5676239982054323,0.0,0.0,0.0,-38.412703371222726,-0.6704281484197622,-0.02829615795205648,0.0,0.0,0.0,0.0,0.0,-0.01741136927315516,-0.9975979748955546,0.0,0.0,11.846628605121944,0.006210606333297182,0.03481333158518306,-0.04793274379003243,-2.746343919650764,0.0,0.0,0.030521374516877267,1.7487459447552094,-5.346395936050504,0.0,-13.962231236405687,11.841111144536725,0.0,-0.3615192531825391,0.0,11.747028295969008,0.0,0.0,-0.6704281484197622,0.0,-0.14758505372883235,0.3490658503988659,1.0,0.14,0.14,0.75,0.08726646259971647,5.0,0.184,0.175,0.174,0.0,0.0,0.0,0.000020811918897240045,0.0,0.0053175301744833245,0.0,6.054763081688498,0.0,-0.520352315115608,0.0,0.13651859828199484,0.0,-3.6610684078726083,0.0,-0.030831923705862803,0.0,-0.0076075892513351165,0.39102467858185197,0.03800522666557937,0.09990537324157622,0.0,0.0,0.0,0.36703896402880865,0.09990537324157622,0.0,0.0,0.05250841045752199,0.0,0.0,-0.0039614621132879075,0.0,1.2022993214036863,0.0,4.417086719785186,0.0,0.0884668700969426,0.0,85.95986399024561,-1.4125604370298785,0.0,-4.3544060169084355,0.0,0.0884668700969426,0.0
sim_raptor_glider_3dof,raptor_glider_3dof,0.028,-14.666530170784704,0.0,-0.006575146390417179,11.82767867967898,0.0,-0.5814044950382724,0.0,0.0,0.0,-37.73919816738284,-0.6586732650834406,-0.02781099036673419,0.0,0.0,0.0,0.0,0.0,-0.018075921212983286,-1.035673996314938,0.0,0.0,11.841959894231335,0.006575146390417179,0.034799611784746345,-0.049116728527197936,-2.8141812480982535,0.0,0.0,0.03104080731421465,1.7785072517833158,-5.340332039379377,0.0,-13.59974534022208,11.836255300314894,0.0,-0.3675249683368212,0.0,11.76237146894754,0.0,0.0,-0.6586732650834406,0.0,-0.14758505372883235,0.3490658503988659,1.0,0.14,0.14,0.75,0.08726646259971647,5.0,0.184,0.175,0.174,0.0,0.0,0.0,0.000012373610012131662,0.0,0.005320287722748662,0.0,6.054691928115627,0.0,-0.5204578971135695,0.0,0.13513941151751857,0.0,-3.6600857078309987,0.0,-0.030487147300778002,0.0,-0.00751187881810755,0.38599369541332873,0.038367773510478556,0.09975159011365416,0.0,0.0,0.0,0.36241951836923736,0.09975159011365416,0.0,0.0,0.05261845868114587,0.0,0.0,-0.0038935386513427868,0.0,1.1995026386953105,0.0,4.358057531747337,0.0,0.08858241953264392,0.0,85.89212443549813,-1.4120235310587392,0.0,-4.29390982415713,0.0,0.08858241953264392,0.0
sim_raptor_glider_3dof,raptor_glider_3dof,0.029,-14.654696339841355,0.0,-0.006945584841586294,11.822341719112524,0.0,-0.5948254498108377,0.0,0.0,0.0,-37.06487675446817,-0.6469041362113795,-0.027324826799325477,0.0,0.0,0.0,0.0,0.0,-0.018728710995723798,-1.0730760957752312,0.0,0.0,11.837296187863643,0.006945584841586294,0.03478590669095078,-0.05027128280996135,-2.880332335719351,0.0,0.0,0.03154257181423755,1.8072562399441199,-5.333458713074435,0.0,-13.24313789851822,11.831408012827398,0.0,-0.37331685364417955,0.0,11.775526776019191,0.0,0.0,-0.6469041362113795,0.0,-0.14758505372883235,0.3490658503988659,1.0,0.14,0.14,0.75,0.08726646259971647,5.0,0.184,0.175,0.174,0.0,0.0,0.0,4.092770199782411e-6,0.0,0.005322869182182181,0.0,6.0546161674229015,0.0,-0.5205591978704499,0.0,0.13379415713306955,0.0,-3.659122534391075,0.0,-0.03015108967165336,0.0,-0.007419478157150713,0.3810859843701702,0.03872094006784821,0.09960472542811298,0.0,0.0,0.0,0.3579241970345985,0.09960472542811298,0.0,0.0,0.05271882459641251,0.0,0.0,-0.003825475751905567,0.0,1.1967933850408408,0.0,4.300612340588401,0.0,0.08868149215020053,0.0,85.82448415093332,-1.411387682620282,0.0,-4.23504022647324,0.0,0.08868149215020053,0.0
sim_raptor_glider_3dof,raptor_glider_3dof,0.03,-14.64286735190968,0.0,-0.007321710717561877,11.8170120171882,0.0,-0.6078927088069139,0.0,0.0,0.0,-36.38986299054628,-0.6351229235346627,-0.026837758352928422,0.0,0.0,0.0,0.0,0.0,-0.019369725442556048,-1.1098035181856323,0.0,0.0,11.832637345908601,0.007321710717561877,0.03477221589205854,-0.051396862104734944,-2.9448232788171897,0.0,0.0,0.03202713666217889,1.8350197606315573,-5.325821655393143,0.0,-12.892343477817944,11.826569274799626,0.0,-0.37890071015549837,0.0,11.78654717130832,0.0,0.0,-0.6351229235346627,0.0,-0.14758505372883235,0.3490658503988659,1.0,0.14,0.14,0.75,0.08726646259971647,5.0,0.184,0.175,0.174,0.0,0.0,0.0,-4.0317389099989384e-6,0.0,0.0053252792858193496,0.0,6.054536242606923,0.0,-0.5206563833796404,0.0,0.13248233583052874,0.0,-3.658178879984582,0.0,-0.029823605779699915,0.0,-0.007330279832108787,0.3762999223336153,0.03906489859804564,0.09946450510328315,0.0,0.0,0.0,0.3535512970470769,0.09946450510328315,0.0,0.0,0.0528097235090394,0.0,0.0,-0.0037572861694099794,0.0,1.1941680376799606,0.0,4.244726881971653,0.0,0.08876448674712295,0.0,85.75694101988198,-1.4106607078602806,0.0,-4.177772130220643,0.0,0.08876448674712295,0.0
sim_raptor_glider_3dof,raptor_glider_3dof,0.03,-14.64286735190968,0.0,-0.007321710717561877,11.8170120171882,0.0,-0.6078927088069139,0.0,0.0,0.0,-36.38986299054628,-0.6351229235346627,-0.026837758352928422,0.0,0.0,0.0,0.0,0.0,-0.019369725442556048,-1.1098035181856323,0.0,0.0,11.832637345908601,0.007321710717561877,0.03477221589205854,-0.051396862104734944,-2.9448232788171897,0.0,0.0,0.03202713666217889,1.8350197606315573,-5.334376067008106,0.0,-12.870655901998978,11.826569274799626,0.0,-0.37890071015549837,0.0,12.030968295990832,0.0,0.0,-0.6351229235346627,0.0,-0.14940567096502894,0.3490658503988659,1.0,0.14,0.14,0.75,0.08726646259971647,5.0,0.184,0.175,0.174,0.0,0.0,0.0,0.0003381389132731095,0.0,0.005430764174028536,0.0,6.053894445909109,0.0,-0.52061199193718,0.0,0.13246620566052958,0.0,-3.6557011826187464,0.0,-0.02991447870629699,0.0,-0.007380966669147693,0.3758114734930592,0.04016933891631465,0.09968570810007206,0.0,0.0,0.0,0.35306525962037705,0.09968570810007206,0.0,0.0,0.05390485440926377,0.0,0.0,-0.0037572861694099794,0.0,1.1968237946088272,0.0,4.2388915303607595,0.0,0.09060522223710696,0.0,85.75694101988198,-1.4130131710543956,0.0,-4.171808046870428,0.0,0.09060522223710696,0.0
sim_raptor_glider_3dof,raptor_glider_3dof,0.031,-14.63104321550831,0.0,-0.007703306763188078,11.811681919970464,0.0,-0.6205888068174393,0.0,0.0,0.0,-35.70032752629448,-0.6230882593742012,-0.026339602993118647,0.0,0.0,0.0,0.0,0.0,-0.0199987980561639,-1.1458467239526262,0.0,0.0,11.827973632271263,0.007703306763188078,0.034758510776899884,-0.05249199176298746,-3.0075695862546628,0.0,0.0,0.03249319370682356,1.861722862302037,-5.325859509774764,0.0,-12.523473296346099,11.821730149179505,0.0,-0.3842610124440839,0.0,12.038309358780541,0.0,0.0,-0.6230882593742012,0.0,-0.14940567096502894,0.3490658503988659,1.0,0.14,0.14,0.75,0.08726646259971647,5.0,0.184,0.175,0.174,0.0,0.0,0.0,0.0003312424256058081,0.0,0.00543332112513085,0.0,6.053810190395408,0.0,-0.5207047809719825,0.0,0.13118967505346057,0.0,-3.6547754119890214,0.0,-0.029596238755738195,0.0,-0.007295152749574929,0.3711540841688659,0.040503142607516016,0.09955260783282835,0.0,0.0,0.0,0.3488303901873664,0.09955260783282835,0.0,0.0,0.05398028928082836,0.0,0.0,-0.003687544419036611,0.0,1.1942838100575912,0.0,4.1847471053336465,0.0,0.09066050778097626,0.0,85.68935389008934,-1.4122036638574196,0.0,-4.116321533402328,0.0,0.09066050778097626,0.0
sim_raptor_glider_3dof,raptor_glider_3dof,0.032,-14.61922390067436,0.0,-0.00809015025496602,11.806360657795723,0.0,-0.6329415474819007,0.0,0.0,0.0,-35.010430969785084,-0.6110472929649411,-0.025840777994261745,0.0,0.0,0.0,0.0,0.0,-0.02061586584006174,-1.181202103643463,0.0,0.0,11.8233145515323,0.00809015025496602,0.034744819276300506,-0.05355894501669837,-3.0687015046300488,0.0,0.0,0.03294307917663663,1.8874994009865858,-5.316664369448503,0.0,-12.182008259167082,11.816899526556124,0.0,-0.3894259412944523,0.0,12.043623193779936,0.0,0.0,-0.6110472929649411,0.0,-0.14940567096502894,0.3490658503988659,1.0,0.14,0.14,0.75,0.08726646259971647,5.0,0.184,0.175,0.174,0.0,0.0,0.0,0.0003244749284604512,0.0,0.005435711775984042,0.0,6.053722643365825,0.0,-0.5207937704029862,0.0,0.12994570435525765,0.0,-3.6538692902138443,0.0,-0.029286310608078587,0.0,-0.007212337209976023,0.3666154774008554,0.04082805119840992,0.09942561806426503,0.0,0.0,0.0,0.3447148709996082,0.09942561806426503,0.0,0.0,0.054046686719195255,0.0,0.0,-0.003617708919196645,0.0,1.1918208960757033,0.0,4.132118003830993,0.0,0.09070052627235671,0.0,85.62186050518937,-1.411317987824918,0.0,-4.062390648761976,0.0,0.09070052627235671,0.0
sim_raptor_glider_3dof,raptor_glider_3dof,0.033,-14.60740941223864,0.0,-0.00848206351818015,11.801048909533387,0.0,-0.6449556541598503,0.0,0.0,0.0,-34.32028678971667,-0.5990020047092706,-0.025341367250076307,0.0,0.0,0.0,0.0,0.0,-0.021220890500798045,-1.215867463204988,0.0,0.0,11.818659956231581,0.00848206351818015,0.03473114095692374,-0.05459808457185963,-3.128239815465891,0.0,0.0,0.033377194071061586,1.9123723522609033,-5.306831443693885,0.0,-11.846207604733374,11.812077354633262,0.0,-0.3944004680423074,0.0,12.046952195012214,0.0,0.0,-0.5990020047092706,0.0,-0.14940567096502894,0.3490658503988659,1.0,0.14,0.14,0.75,0.08726646259971647,5.0,0.184,0.175,0.174,0.0,0.0,0.0,0.00031784004859648735,0.0,0.005437946631834492,0.0,6.0536322032556225,0.0,-0.5208790996069178,0.0,0.12873389653702688,0.0,-3.652982834778175,0.0,-0.028984577390287945,0.0,-0.007132431205217281,0.3621943335758458,0.04114419577355968,0.09930449652337,0.0,0.0,0.0,0.3407173092155033,0.09930449652337,0.0,0.0,0.05410421691396708,0.0,0.0,-0.0035477914150106836,0.0,1.189431941832685,0.0,4.0809838920116865,0.0,0.09072559698063698,0.0,85.55445865094968,-1.4103627837289796,0.0,-4.009994350293148,0.0,0.09072559698063698,0.0
sim_raptor_glider_3dof,raptor_glider_3dof,0.034,-14.595599742819495,0.0,-0.008878881101667204,11.79574722014493,0.0,-0.6566360828108778,0.0,0.0,0.0,-33.62999399768246,-0.5869541226854892,-0.02484144423872185,0.0,0.0,0.0,0.0,0.0,-0.021813868953078807,-1.2498426258628752,0.0,0.0,11.81400962530529,0.008878881101667204,0.034717475169136,-0.05560979391496812,-3.1862064909199606,0.0,0.0,0.03379592496188931,1.936363865057085,-5.296399761131702,0.0,-11.516010437772302,11.80726349598268,0.0,-0.39918938267556964,0.0,12.048338334951351,0.0,0.0,-0.5869541226854892,0.0,-0.14940567096502894,0.3490658503988659,1.0,0.14,0.14,0.75,0.08726646259971647,5.0,0.184,0.175,0.174,0.0,0.0,0.0,0.00031134121389085335,0.0,0.0054400362718711095,0.0,6.053539248686973,0.0,-0.5209609047559207,0.0,0.12755382875786406,0.0,-3.6521160308488696,0.0,-0.028690916794028416,0.0,-0.00705534705876878,0.3578892191581873,0.04145171229040493,0.0991890057316609,0.0,0.0,0.0,0.33683620708114326,0.0991890057316609,0.0,0.0,0.05415304943311934,0.0,0.0,-0.003477802193421059,0.0,1.1871138888677417,0.0,4.0313231970619565,0.0,0.09073603600051863,0.0,85.48714505137205,-1.4093443424666443,0.0,-3.959110332975047,0.0,0.09073603600051863,0.0
sim_raptor_glider_3dof,raptor_glider_3dof,0.034999999999999996,-14.583794882774527,0.0,-0.009280390459411446,11.790456268678213,0.0,-0.6679892889760309,0.0,0.0,0.0,-32.93968032162685,-0.5749058761667734,-0.024341103190712397,0.0,0.0,0.0,0.0,0.0,-0.02239479898800618,-1.2831274650566014,0.0,0.0,11.809363603251448,0.009280390459411446,0.03470382204370227,-0.05659458322697115,-3.242630762207326,0.0,0.0,0.03419978423896497,1.959503297150725,-5.285408261604976,0.0,-11.191336896036512,11.80245801148924,0.0,-0.4037989609118974,0.0,12.047834707382604,0.0,0.0,-0.5749058761667734,0.0,-0.14940567096502894,0.3490658503988659,1.0,0.14,0.14,0.75,0.08726646259971647,5.0,0.184,0.175,0.174,0.0,0.0,0.0,0.0003049804972843707,0.0,0.005441990818333945,0.0,6.053444126897698,0.0,-0.5210393274700083,0.0,0.126404928879432,0.0,-3.6512687403525512,0.0,-0.028405170451666614,0.0,-0.006980990058746032,0.3536981377389082,0.0417507747406875,0.09907890184364287,0.0,0.0,0.0,0.33306948659762414,0.09907890184364287,0.0,0.0,0.054193402026719656,0.0,0.0,-0.003407754446699736,0.0,1.1848636655306064,0.0,3.9831076588762095,0.0,0.0907322431812984,0.0,85.41992027730788,-1.4082686454986593,0.0,-3.909709445751476,0.0,0.0907322431812984,0.0
sim_raptor_glider_3dof,raptor_glider_3dof,0.036,-14.571994824054478,0.0,-0.00968642159545251,11.785176574225963,0.0,-0.6790205626975858,0.0,0.0,0.0,-32.249448737245444,-0.5628590624180607,-0.02384042054964966,0.0,0.0,0.0,0.0,0.0,-0.02296368133465232,-1.3157220225589232,0.0,0.0,11.804721759120396,0.00968642159545251,0.03469018119580474,-0.05755286557632466,-3.2975362964071633,0.0,0.0,0.034589184241672344,1.9818142738482403,-5.273893442660161,0.0,-10.87211988378226,11.797660809729805,0.0,-0.40823428177459564,0.0,12.045485240183929,0.0,0.0,-0.5628590624180607,0.0,-0.14940567096502894,0.3490658503988659,1.0,0.14,0.14,0.75,0.08726646259971647,5.0,0.184,0.175,0.174,0.0,0.0,0.0,0.00029876009152961946,0.0,0.005443819512959313,0.0,6.05334717458798,0.0,-0.5211144967644147,0.0,0.12528673657820388,0.0,-3.6504408939071014,0.0,-0.028127208867112084,0.0,-0.006909275491901186,0.3496194843672605,0.042041527078783836,0.09897396020349104,0.0,0.0,0.0,0.32941547643473096,0.09897396020349104,0.0,0.0,0.05422545353311764,0.0,0.0,-0.0033376588769509527,0.0,1.1826784038593243,0.0,3.9363138453324678,0.0,0.09071454934382517,0.0,85.35278236155179,-1.4071413287978707,0.0,-3.861767493868615,0.0,0.09071454934382517,0.0
sim_raptor_glider_3dof,raptor_glider_3dof,0.037,-14.560199558424515,0.0,-0.010096803091129973,11.779908641547465,0.0,-0.6897353186590026,0.0,0.0,0.0,-31.559403579202062,-0.550815502422759,-0.02333947378726211,0.0,0.0,0.0,0.0,0.0,-0.023520518346077463,-1.347626433190262,0.0,0.0,11.800084000252298,0.010096803091129973,0.03467655235314672,-0.058485065237787605,-3.350947402672514,0.0,0.0,0.03496454689171014,2.0033209694822522,-5.261890579374617,0.0,-10.558289885167788,11.792871818421883,0.0,-0.4125005300374838,0.0,12.041334540261232,0.0,0.0,-0.550815502422759,0.0,-0.14940567096502894,0.3490658503988659,1.0,0.14,0.14,0.75,0.08726646259971647,5.0,0.184,0.175,0.174,0.0,0.0,0.0,0.000292681654461815,0.0,0.005445530991460446,0.0,6.053248709082604,0.0,-0.5211865380698818,0.0,0.12419877710141539,0.0,-3.6496323988353288,0.0,-0.02785689992691593,0.0,-0.006840120249765886,0.3456515865566754,0.04232411615462716,0.09887396256502995,0.0,0.0,0.0,0.32587243701639773,0.09887396256502995,0.0,0.0,0.054249386113433516,0.0,0.0,-0.0032675263302166958,0.0,1.1805553290739372,0.0,3.890917610033007,0.0,0.09068329042270734,0.0,85.2857298934258,-1.4059677219298017,0.0,-3.8152595583998425,0.0,0.09068329042270734,0.0
sim_raptor_glider_3dof,raptor_glider_3dof,0.038,-14.548409077707674,0.0,-0.010511368119034463,11.77465294366912,0.0,-0.7001389132789593,0.0,0.0,0.0,-30.869646943747714,-0.5387769780966024,-0.022838338807942265,0.0,0.0,0.0,0.0,0.0,-0.024065314059203414,-1.378840928249199,0.0,0.0,11.795450243282081,0.010511368119034463,0.03466293527074578,-0.059391602318064445,-3.4028881513444893,0.0,0.0,0.03532628825886103,2.02404722309529,-5.249433602058002,0.0,-10.24977723417873,11.788090962400462,0.0,-0.4166028131396265,0.0,12.035426510303958,0.0,0.0,-0.5387769780966024,0.0,-0.14940567096502894,0.3490658503988659,1.0,0.14,0.14,0.75,0.08726646259971647,5.0,0.184,0.175,0.174,0.0,0.0,0.0,0.0002867464428857636,0.0,0.005447133292128159,0.0,6.05314903038722,0.0,-0.5212555721310488,0.0,0.12314057927313847,0.0,-3.6488431527977863,0.0,-0.027594113326720952,0.0,-0.006773443926216868,0.34179277145236864,0.04259868702580887,0.09877869865678256,0.0,0.0,0.0,0.32243862987483557,0.09877869865678256,0.0,0.0,0.054265379291097926,0.0,0.0,-0.0031973674331119174,0.0,1.178491772061036,0.0,3.8468949021331906,0.0,0.09063879704909912,0.0,85.2187615987239,-1.4047528570351293,0.0,-3.7701608262149158,0.0,0.09063879704909912,0.0
sim_raptor_glider_3dof,raptor_glider_3dof,0.039,-14.536623373815,0.0,-0.010929955592923478,11.769409915812144,0.0,-0.7102366241964783,0.0,0.0,0.0,-30.180278100840592,-0.5267452220272095,-0.022337089529107127,0.0,0.0,0.0,0.0,0.0,-0.024598074509276015,-1.4093658535298492,0.0,0.0,11.790820405246075,0.010929955592923478,0.034649329704799066,-0.06027289104854709,-3.4533822761335875,0.0,0.0,0.03567481653927108,2.0440164226037383,-5.236555110913282,0.0,-9.946512380486283,11.783318156411758,0.0,-0.4205461372361529,0.0,12.027804172180655,0.0,0.0,-0.5267452220272095,0.0,-0.14940567096502894,0.3490658503988659,1.0,0.14,0.14,0.75,0.08726646259971647,5.0,0.184,0.175,0.174,0.0,0.0,0.0,0.0002809553569889547,0.0,0.005448633891606009,0.0,6.0530484220469765,0.0,-0.5213217150268354,0.0,0.12211167755894603,0.0,-3.6480730457626924,0.0,-0.027338721030969987,0.0,-0.006709168863860157,0.3380413747289051,0.04286538243095815,0.09868796614935146,0.0,0.0,0.0,0.31911232689508534,0.09868796614935146,0.0,0.0,0.054273609223427485,0.0,0.0,-0.003127192534074998,0.0,1.1764851667889584,0.0,3.8042218700039983,0.0,0.09058139322069252,0.0,85.15187621099041,-1.4035014797693848,0.0,-3.726446696274657,0.0,0.09058139322069252,0.0
sim_raptor_glider_3dof,raptor_glider_3dof,0.04,-14.524842438740194,0.0,-0.011352409004566223,11.764179963837034,0.0,-0.7200336647018506,0.0,0.0,0.0,-29.491394067093523,-0.5147219274739034,-0.021835798287124474,0.0,0.0,0.0,0.0,0.0,-0.025118807307927583,-1.4392016451466196,0.0,0.0,11.786194411252882,0.011352409004566223,0.03463573543522549,-0.06112934096155307,-3.5024532415131766,0.0,0.0,0.036010533653625484,2.0632515963665568,-5.223286439138752,0.0,-9.648425858887048,11.778553312934845,0.0,-0.42433542652041,0.0,12.018509810418312,0.0,0.0,-0.5147219274739034,0.0,-0.14940567096502894,0.3490658503988659,1.0,0.14,0.14,0.75,0.08726646259971647,5.0,0.184,0.175,0.174,0.0,0.0,0.0,0.000275308963803445,0.0,0.005450039743674987,0.0,6.052947151679954,0.0,-0.5213850784099899,0.0,0.12111161076154313,0.0,-3.647321959461315,0.0,-0.027090596898398694,0.0,-0.006647219988200624,0.3343957370999605,0.04312434313947185,0.09860157031568487,0.0,0.0,0.0,0.31589180647342135,0.09860157031568487,0.0,0.0,0.05427424926277141,0.0,0.0,-0.0030570117601974264,0.0,1.1745330473848414,0.0,3.762874819470395,0.0,0.09051139738226031,0.0,85.08507258225717,-1.402218062278677,0.0,-3.6840927366480494,0.0,0.09051139738226031,0.0
sim_raptor_glider_3dof,raptor_glider_3dof,0.04,-14.524842438740194,0.0,-0.011352409004566223,11.764179963837034,0.0,-0.7200336647018506,0.0,0.0,0.0,-29.491394067093523,-0.5147219274739034,-0.021835798287124474,0.0,0.0,0.0,0.0,0.0,-0.025118807307927583,-1.4392016451466196,0.0,0.0,11.786194411252882,0.011352409004566223,0.03463573543522549,-0.06112934096155307,-3.5024532415131766,0.0,0.0,0.036010533653625484,2.0632515963665568,-5.226488914403207,0.0,-9.640354848191176,11.778553312934845,0.0,-0.42433542652041,0.0,12.109524054126801,0.0,0.0,-0.5147219274739034,0.0,-0.15008999396887424,0.3490658503988659,1.0,0.14,0.14,0.75,0.08726646259971647,5.0,0.184,0.175,0.174,0.0,0.0,0.0,0.00040380987432163157,0.0,0.005491505138936294,0.0,6.052702179482934,0.0,-0.5213678880104251,0.0,0.12110598718237027,0.0,-3.6463752222940586,0.0,-0.027124533245911804,0.0,-0.006666946995151275,0.33421352442721186,0.0435382474952249,0.09868674805207145,0.0,0.0,0.0,0.3157103426835599,0.09868674805207145,0.0,0.0,0.05468525943187034,0.0,0.0,-0.0030570117601974264,0.0,1.1755476769284399,0.0,3.7607132391079974,0.0,0.09119682565162894,0.0,85.08507258225717,-1.4030987429764026,0.0,-3.6818732087066848,0.0,0.09119682565162894,0.0
sim_raptor_glider_3dof,raptor_glider_3dof,0.041,-14.51306628984277,0.0,-0.011778579456913567,11.75896038873593,0.0,-0.7295256272757752,0.0,0.0,0.0,-28.797902158252487,-0.502618210328687,-0.021330700109273303,0.0,0.0,0.0,0.0,0.0,-0.02562741581802177,-1.4683427661994535,0.0,0.0,11.781568531596834,0.011778579456913567,0.03462214150165104,-0.06196056347143554,-3.5500787831657132,0.0,0.0,0.03633314765341377,2.0817360169662598,-5.212795142302892,0.0,-9.346602154671627,11.773792976747766,0.0,-0.42796729477586076,0.0,12.098012947650476,0.0,0.0,-0.502618210328687,0.0,-0.15008999396887424,0.3490658503988659,1.0,0.14,0.14,0.75,0.08726646259971647,5.0,0.184,0.175,0.174,0.0,0.0,0.0,0.0003986060956279949,0.0,0.005492913305775396,0.0,6.052600379954372,0.0,-0.5214284420573533,0.0,0.12013526053922101,0.0,-3.6456428049989302,0.0,-0.026883853705821123,0.0,-0.006607342131489607,0.33067552211395906,0.04378921119985792,0.098604722964738,0.0,0.0,0.0,0.3126006536119078,0.098604722964738,0.0,0.0,0.05467618707291262,0.0,0.0,-0.002986298015298263,0.0,1.1736487846606871,0.0,3.720748521619528,0.0,0.09111013550875574,0.0,85.01829681847093,-1.4017888130931715,0.0,-3.640935203262514,0.0,0.09111013550875574,0.0
sim_raptor_glider_3dof,raptor_glider_3dof,0.042,-14.501294873154075,0.0,-0.012208291008820009,11.753754605905138,0.0,-0.7387278702016233,0.0,0.0,0.0,-28.105112143403577,-0.4905267435446331,-0.020825718629682178,0.0,0.0,0.0,0.0,0.0,-0.026123988301307376,-1.4967942737140494,0.0,0.0,11.776946386990513,0.012208291008820009,0.034608558544155024,-0.06276781281853622,-3.596330763769273,0.0,0.0,0.03664382451722884,2.099536490055224,-5.19877013745204,0.0,-9.057884000842165,11.769040407293751,0.0,-0.4314557839869637,0.0,12.084920387961823,0.0,0.0,-0.4905267435446331,0.0,-0.15008999396887424,0.3490658503988659,1.0,0.14,0.14,0.75,0.08726646259971647,5.0,0.184,0.175,0.174,0.0,0.0,0.0,0.0003935384396931083,0.0,0.0054942370466986735,0.0,6.0524984129142805,0.0,-0.5214864352592996,0.0,0.11919238831998138,0.0,-3.644929127410909,0.0,-0.026650175922420305,0.0,-0.006549914327777562,0.32723971935068075,0.044032738440101186,0.09852665389521645,0.0,0.0,0.0,0.30959305129712766,0.09852665389521645,0.0,0.0,0.05465989602066415,0.0,0.0,-0.0029156006081555055,0.0,1.1717995806482269,0.0,3.682059557887741,0.0,0.0910115354417405,0.0,84.9516011528385,-1.4004551087720796,0.0,-3.6013056428681542,0.0,0.0910115354417405,0.0
sim_raptor_glider_3dof,raptor_glider_3dof,0.043000000000000003,-14.48952820520381,0.0,-0.012641421368484809,11.748562999561303,0.0,-0.7476438877332934,0.0,0.0,0.0,-27.413116630723618,-0.4784491434393417,-0.020320923267297293,0.0,0.0,0.0,0.0,0.0,-0.026608476247567032,-1.5245533882596887,0.0,0.0,11.772327889484128,0.012641421368484809,0.03459498630428202,-0.06355135474120739,-3.6412244090098977,0.0,0.0,0.03694287849364036,2.116671020750209,-5.184441882042844,0.0,-8.774156306660206,11.764295506198982,0.0,-0.43480476118857125,0.0,12.070277998667736,0.0,0.0,-0.4784491434393417,0.0,-0.15008999396887424,0.3490658503988659,1.0,0.14,0.14,0.75,0.08726646259971647,5.0,0.184,0.175,0.174,0.0,0.0,0.0,0.00038860758962256113,0.0,0.005495481744461819,0.0,6.052396517979676,0.0,-0.5215419574437619,0.0,0.11827707416580845,0.0,-3.6442341632205983,0.0,-0.026423416828341484,0.0,-0.006494605116492272,0.32390503182626035,0.0442689249163332,0.0984523804000331,0.0,0.0,0.0,0.3066863918947432,0.0984523804000331,0.0,0.0,0.05463651330817488,0.0,0.0,-0.002844929257421621,0.0,1.1699980263978236,0.0,3.644629736548233,0.0,0.09090126360796673,0.0,84.88498425358179,-1.3991014201015655,0.0,-3.562967374896412,0.0,0.09090126360796673,0.0
sim_raptor_glider_3dof,raptor_glider_3dof,0.044,-14.477766279275684,0.0,-0.013077848977001394,11.743385826844555,0.0,-0.7562780626442285,0.0,0.0,0.0,-26.721993225444116,-0.4663867644796192,-0.019816372474228825,0.0,0.0,0.0,0.0,0.0,-0.027080892467132772,-1.5516208438143313,0.0,0.0,11.767712912293982,0.013077848977001394,0.034581424409456586,-0.06431153141081185,-3.6847793238625437,0.0,0.0,0.037230638943679076,2.1331584800482126,-5.169836843440966,0.0,-8.49535753700068,11.759558120406982,0.0,-0.43801826325014925,0.0,12.054120923006566,0.0,0.0,-0.4663867644796192,0.0,-0.15008999396887424,0.3490658503988659,1.0,0.14,0.14,0.75,0.08726646259971647,5.0,0.184,0.175,0.174,0.0,0.0,0.0,0.00038381349449514713,0.0,0.0054966525338610425,0.0,6.052294912147782,0.0,-0.5215951006929759,0.0,0.11738893158593151,0.0,-3.643557808797534,0.0,-0.02620347162786402,0.0,-0.0064413523746741225,0.3206700399318018,0.04449788889553865,0.09838174038486402,0.0,0.0,0.0,0.30387920568938176,0.09838174038486402,0.0,0.0,0.054606182709411026,0.0,0.0,-0.002774292146392036,0.0,1.168242062427651,0.0,3.608438604508128,0.0,0.09077958467116246,0.0,84.81844423115446,-1.3977312633146326,0.0,-3.5258993171221804,0.0,0.09077958467116246,0.0
