name,vehicle,t,north,east,down,u,v,w,p_rad,p_deg,p_hat_div_b,q_deg,q_rad,q_hat_div_c,r_rad,r_deg,r_hat_div_b,phi_rad,phi_deg,theta_rad,theta_deg,psi_rad,psi_deg,speed,altitude,mach,alpha_rad,alpha_deg,beta_rad,beta_deg,gamma_rad,gamma_deg,u_dot,v_dot,w_dot,north_dot,east_dot,down_dot,p_rad_dot,q_rad_dot,r_rad_dot,phi_rad_dot,theta_rad_dot,psi_rad_dot,del_tail_alt_rad,del_tail_splay_rad,DIM_b,DIM_c_bar,DIM_S,DIM_wing_position,DIM_wing_incidence_rad,DIM_wing_incidence_deg,DIM_empennage_length,DIM_nose_length,DIM_tail_length,CDp,CDq,CDr,CYp,CYq,CYr,CLp,CLq,CLr,Clp,Clq,Clr,Cmp,Cmq,Cmr,Cnp,Cnq,Cnr,CL_0,Cm_0,CD_0,Cl_0,CY_0,Cn_0,CL,CD,CY,Cl,Cm,Cn,p_hat,q_hat,r_hat,drag_force_wind,side_force_wind,lift_force_wind,roll_moment_wind,pitch_moment_wind,yaw_moment_wind,qbar,X_total,Y_total,Z_total,L_total,M_total,N_total
sim_raptor_glider_3dof,raptor_glider_3dof,0.0,-15.0,0.0,0.0,12.0,0.0,0.0,0.0,0.0,0.0,0.0,0.0,0.0,0.0,0.0,0.0,0.0,0.0,0.0,0.0,0.0,0.0,12.0,-0.0,0.035264039495724236,0.0,0.0,0.0,0.0,0.0,0.0,-7.487178041450953,0.0,-25.024054441263395,12.0,0.0,0.0,0.0,-89.41363838472799,0.0,0.0,0.0,0.0,0.4363323129985824,0.3490658503988659,1.0,0.14,0.14,0.75,0.08726646259971647,5.0,0.184,0.175,0.174,0.0,0.0,0.0,-0.053153656886407115,0.0,0.055671173493162154,0.0,6.024209384397437,0.0,-0.5269202128147928,0.0,0.19813275846416445,0.0,-3.4552995296441478,0.0,-0.03588346466142729,0.0,-0.029845922084054996,0.7757079658211316,-0.38952171953159265,0.1667455120831285,0.0,0.0,0.0,0.7757079658211316,0.1667455120831285,0.0,0.0,-0.38952171953159265,0.0,0.0,0.0,0.0,2.0589739613990123,0.0,9.578443721347433,0.0,-0.6733741106753866,0.0,88.20001620075907,-2.0589739613990123,0.0,-9.578443721347433,0.0,-0.6733741106753866,0.0
sim_raptor_glider_3dof,raptor_glider_3dof,0.001,-14.988003746590733,0.0,-0.000012415174634177188,11.992502827180262,0.0,-0.02526770405029525,0.0,0.0,0.0,-5.103039651887635,-0.0890648437852645,-0.0037133468875430262,0.0,0.0,0.0,0.0,0.0,-0.000044590487564095195,-0.0025548467438532376,0.0,0.0,11.992529446150822,0.000012415174634177188,0.03524208600355821,-0.002106955238988487,-0.12071964281701804,0.0,0.0,0.002062364751424392,0.1181647960731648,-7.507675599275719,0.0,-25.508550485583747,11.99250394195709,0.0,-0.024732952477174667,0.0,-88.71856693472195,0.0,0.0,-0.0890648437852645,0.0,0.4363323129985824,0.3490658503988659,1.0,0.14,0.14,0.75,0.08726646259971647,5.0,0.184,0.175,0.174,0.0,0.0,0.0,-0.053430186057496054,0.0,0.0554080780660455,0.0,6.0240249874908525,0.0,-0.5274002219771142,0.0,0.1957017793236076,0.0,-3.453669819760639,0.0,-0.03525814560644711,0.0,-0.029499655008724115,0.7671435812705255,-0.38877083359862435,0.165760584735996,0.0,0.0,0.0,0.7640118800492363,0.165760584735996,0.0,0.0,-0.386975379228011,0.0,0.0,-0.0005198685642560238,0.0,2.0442643995802876,0.0,9.422277857722193,0.0,-0.6681395275853911,0.0,88.09023322213056,-2.064112165078258,0.0,-9.417949773357746,0.0,-0.6681395275853911,0.0
sim_raptor_glider_3dof,raptor_glider_3dof,0.002,-14.976014997218163,0.0,-0.000049270492086499364,11.984983638081903,0.0,-0.051011581957007696,0.0,0.0,0.0,-10.166686259086081,-0.1774421492383174,-0.0074026192836820276,0.0,0.0,0.0,0.0,0.0,-0.00017790069037163533,-0.010192958730758345,0.0,0.0,11.985092197667264,0.000049270492086499364,0.03522023038486956,-0.004256265628603735,-0.24386605700559036,0.0,0.0,0.0040783649382321,0.233673098274832,-7.5312069778045,0.0,-25.97647568606275,11.984992523423195,0.0,-0.04887944429772272,0.0,-88.03854836579413,0.0,0.0,-0.1774421492383174,0.0,0.4363323129985824,0.3490658503988659,1.0,0.14,0.14,0.75,0.08726646259971647,5.0,0.184,0.175,0.174,0.0,0.0,0.0,-0.05371000072613438,0.0,0.05518325282971427,0.0,6.023796383437123,0.0,-0.5278990096560925,0.0,0.1932332307470952,0.0,-3.4519868033346692,0.0,-0.03462545852853912,0.0,-0.029153229463314653,0.758374006898808,-0.388063512765844,0.16478068235403653,0.0,0.0,0.0,0.7521311449211472,0.16478068235403653,0.0,0.0,-0.38448598859501065,0.0,0.0,-0.001036366699715484,0.0,2.0296598650783366,0.0,9.264255835778041,0.0,-0.6630183077427956,0.0,87.98100758981425,-2.069072495287059,0.0,-9.25553317577674,0.0,-0.6630183077427956,0.0
sim_raptor_glider_3dof,raptor_glider_3dof,0.003,-14.964033765483153,0.0,-0.00010997650410396534,11.977439408842296,0.0,-0.07721526894416839,0.0,0.0,0.0,-15.191799193026208,-0.2651469152201249,-0.011068367643203196,0.0,0.0,0.0,0.0,0.0,-0.0003992506169425001,-0.022875375318799577,0.0,0.0,11.97768829909372,0.00010997650410396534,0.035198472770559576,-0.006446636600632963,-0.3693650692708328,0.0,0.0,0.006047385983690463,0.3464896939520332,-7.557751963901034,0.0,-26.428240508352538,11.977469282477013,0.0,-0.07243326284374174,0.0,-87.37346069275941,0.0,0.0,-0.2651469152201249,0.0,0.4363323129985824,0.3490658503988659,1.0,0.14,0.14,0.75,0.08726646259971647,5.0,0.184,0.175,0.174,0.0,0.0,0.0,-0.0539933342342998,0.0,0.0549956890768542,0.0,6.023523849844041,0.0,-0.5284156910211553,0.0,0.1907277346999606,0.0,-3.450251759098094,0.0,-0.033984927296559594,0.0,-0.028807107836358457,0.7494038488665931,-0.387399686775176,0.16380724554970857,0.0,0.0,0.0,0.7400699681597184,0.16380724554970857,0.0,0.0,-0.38205327508479314,0.0,0.0,-0.0015495714700484477,0.0,2.015177614704102,0.0,9.104435082498677,0.0,-0.6580095324771711,0.0,87.87233904709669,-2.0738283182350847,0.0,-9.09125486919839,0.0,-0.6580095324771711,0.0
sim_raptor_glider_3dof,raptor_glider_3dof,0.004,-14.95206006146447,0.0,-0.00019393750269191865,11.969867139046595,0.0,-0.10386280993339823,0.0,0.0,0.0,-20.179227607931264,-0.35219396226773997,-0.01471113674262299,0.0,0.0,0.0,0.0,0.0,-0.0007079751977142588,-0.040563990828967035,0.0,0.0,11.970317740549529,0.00019393750269191865,0.03517681313159225,-0.008676805031272569,-0.49714430794979647,0.0,0.0,0.00796882983355831,0.4565803171208294,-7.587282867422961,0.0,-26.864252771312174,11.96993767151242,0.0,-0.09538841555743248,0.0,-86.72306067972036,0.0,0.0,-0.35219396226773997,0.0,0.4363323129985824,0.3490658503988659,1.0,0.14,0.14,0.75,0.08726646259971647,5.0,0.184,0.175,0.174,0.0,0.0,0.0,-0.054280487125545326,0.0,0.054843901706905056,0.0,6.023207997132767,0.0,-0.5289492506950555,0.0,0.18818569052618506,0.0,-3.4484661334741316,0.0,-0.033335929119057396,0.0,-0.028461722112779208,0.7402377623774763,-0.38677875516894367,0.16284159593212236,0.0,0.0,0.0,0.727832609270965,0.16284159593212236,0.0,0.0,-0.37967643521108574,0.0,0.0,-0.0020595591439672187,0.0,2.000833340210975,0.0,8.942873240625298,0.0,-0.6531113699789741,0.0,87.76422654166264,-2.078352616244555,0.0,-8.925175978978858,0.0,-0.6531113699789741,0.0
sim_raptor_glider_3dof,raptor_glider_3dof,0.005,-14.94009389182307,0.0,-0.0003005518855746,11.962263859629724,0.0,-0.13093865674169305,0.0,0.0,0.0,-25.12980322664479,-0.4385978066832464,-0.01833146045868009,0.0,0.0,0.0,0.0,0.0,-0.0011034240774344013,-0.06322154265010774,0.0,0.0,11.962980463882431,0.0003005518855746,0.035155251297077285,-0.010945539172903748,-0.6271331991024985,0.0,0.0,0.009842115095469346,0.5639116564523908,-7.619764933048298,0.0,-27.284916404279006,11.96240105817221,0.0,-0.11773912974501546,0.0,-86.08698535636344,0.0,0.0,-0.4385978066832464,0.0,0.4363323129985824,0.3490658503988659,1.0,0.14,0.14,0.75,0.08726646259971647,5.0,0.184,0.175,0.174,0.0,0.0,0.0,-0.05457182683161292,0.0,0.05472593032343835,0.0,6.022849768199583,0.0,-0.529498543215881,0.0,0.18560727572066893,0.0,-3.446631540314975,0.0,-0.03267769521599154,0.0,-0.028117473742245224,0.7308804509402165,-0.3861995880247053,0.16188493539638366,0.0,0.0,0.0,0.7154233824078116,0.16188493539638366,0.0,0.0,-0.37735413745313595,0.0,0.0,-0.002566404464215213,0.0,1.9866411722863777,0.0,8.779628219436473,0.0,-0.6483210867187731,0.0,87.65666831823584,-2.0826180146542357,0.0,-8.757357879177162,0.0,-0.6483210867187731,0.0
sim_raptor_glider_3dof,raptor_glider_3dof,0.006,-14.92813525992473,0.0,-0.0004292124397594923,11.954626639550906,0.0,-0.15842765930436845,0.0,0.0,0.0,-30.04433358782197,-0.5243725426750143,-0.02192985685369944,0.0,0.0,0.0,0.0,0.0,-0.0015849610904613313,-0.09081158117588696,0.0,0.0,11.955676367913814,0.0004292124397594923,0.03513378696968413,-0.01325163807797221,-0.7592629335026617,0.0,0.0,0.01166667698751088,0.6684513523267749,-7.65515672930522,0.0,-27.690630360815796,11.954862725505864,0.0,-0.13947985016959272,0.0,-85.46475387002384,0.0,0.0,-0.5243725426750143,0.0,0.4363323129985824,0.3490658503988659,1.0,0.14,0.14,0.75,0.08726646259971647,5.0,0.184,0.175,0.174,0.0,0.0,0.0,-0.05486778710977721,0.0,0.05463934182373924,0.0,6.022450437086101,0.0,-0.5300622937916623,0.0,0.18299244783751023,0.0,-3.444749760445701,0.0,-0.03200931203935526,0.0,-0.02777473367758559,0.7213366671206888,-0.3856605284654083,0.16093834608201854,0.0,0.0,0.0,0.7028466604815571,0.16093834608201854,0.0,0.0,-0.37508452678533377,0.0,0.0,-0.003070179959517922,0.0,1.9726136922696764,0.0,8.61475825857789,0.0,-0.6436350613951496,0.0,87.54966199755503,-2.0865968109073574,0.0,-8.58786227075033,0.0,-0.6436350613951496,0.0
sim_raptor_glider_3dof,raptor_glider_3dof,0.007,-14.916184165882276,0.0,-0.0005793064854676666,11.946952592434664,0.0,-0.18631506489291877,0.0,0.0,0.0,-34.923595341205655,-0.6095317253381911,-0.025506823267053384,0.0,0.0,0.0,0.0,0.0,-0.00215196395569408,-0.12329845232554847,0.0,0.0,11.94840531406963,0.0005793064854676666,0.03511241974218939,-0.015593931681301612,-0.8934664713539263,0.0,0.0,0.013441967725607532,0.7701680190283778,-7.693410528399182,0.0,-28.081787400130356,11.947325872576652,0.0,-0.1606052419691676,0.0,-84.85576962259707,0.0,0.0,-0.6095317253381911,0.0,0.4363323129985824,0.3490658503988659,1.0,0.14,0.14,0.75,0.08726646259971647,5.0,0.184,0.175,0.174,0.0,0.0,0.0,-0.05516886739682447,0.0,0.05458123429015566,0.0,6.022011606567932,0.0,-0.5306390995932566,0.0,0.18034094615955698,0.0,-3.442822740123928,0.0,-0.031329722669104235,0.0,-0.027433842397851762,0.7116112100401488,-0.3851593965008954,0.16000279048359145,0.0,0.0,0.0,0.6901068760336266,0.16000279048359145,0.0,0.0,-0.3728652305367967,0.0,0.0,-0.0035709552573874744,0.0,1.9587619456352325,0.0,8.448321951825605,0.0,-0.6390488010277785,0.0,87.4432046606849,-2.090261009781001,0.0,-8.416751218395161,0.0,-0.6390488010277785,0.0
sim_raptor_glider_3dof,raptor_glider_3dof,0.008,-14.904240606651282,0.0,-0.0007502161182813057,11.939238882633015,0.0,-0.21458650998107728,0.0,0.0,0.0,-39.768327695755914,-0.6940882563029905,-0.02906283149078703,0.0,0.0,0.0,0.0,0.0,-0.0028038236298313884,-0.16064726048838937,0.0,0.0,11.941167131685324,0.0007502161182813057,0.035091149113066274,-0.017971280258754233,-1.0296785112733915,0.0,0.0,0.015167456628922844,0.8690312507850021,-7.734472659743328,0.0,-28.458772998507442,11.939793614875626,0.0,-0.18111019026309105,0.0,-84.25932271685393,0.0,0.0,-0.6940882563029905,0.0,0.4363323129985824,0.3490658503988659,1.0,0.14,0.14,0.75,0.08726646259971647,5.0,0.184,0.175,0.174,0.0,0.0,0.0,-0.05547563193059443,0.0,0.054548242134604644,0.0,6.021535204946049,0.0,-0.5312274312413525,0.0,0.17765229454057654,0.0,-3.440852589499303,0.0,-0.030637728722487007,0.0,-0.027095110104628704,0.7017089249620452,-0.38469349440195466,0.1590791122370665,0.0,0.0,0.0,0.6772085241452388,0.1590791122370665,0.0,0.0,-0.37069336574289874,0.0,0.0,-0.004068796408710184,0.0,1.9450954633896698,0.0,8.280378294547667,0.0,-0.634556959380627,0.0,87.33729292823296,-2.0935823601488033,0.0,-8.244087212286694,0.0,-0.634556959380627,0.0
sim_raptor_glider_3dof,raptor_glider_3dof,0.009000000000000001,-14.892304576113405,0.0,-0.0009413184291606596,11.931482731000013,0.0,-0.24322801242629782,0.0,0.0,0.0,-44.57922600410458,-0.7780542717623,-0.03259832301805841,0.0,0.0,0.0,0.0,0.0,-0.0035399435977275817,-0.2028238278641469,0.0,0.0,11.933961623290918,0.0009413184291606596,0.03506997450201568,-0.020382573901800104,-1.1678354601866447,0.0,0.0,0.01684263030407252,0.9650116323224979,-7.778283843616755,0.0,-28.821964269395146,11.932268984822977,0.0,-0.20098980076623565,0.0,-83.67459264387269,0.0,0.0,-0.7780542717623,0.0,0.4363323129985824,0.3490658503988659,1.0,0.14,0.14,0.75,0.08726646259971647,5.0,0.184,0.175,0.174,0.0,0.0,0.0,-0.055788708736007504,0.0,0.0545365423304085,0.0,6.021023482042527,0.0,-0.531825634606743,0.0,0.17492580464570248,0.0,-3.4388415806117196,0.0,-0.029931992558805562,0.0,-0.02675881698380161,0.6916347024036031,-0.3842596132891834,0.15816803727685969,0.0,0.0,0.0,0.6641561648322319,0.15816803727685969,0.0,0.0,-0.3685655476778038,0.0,0.0,-0.004563765222528177,0.0,1.9316222876944662,0.0,8.110986723910683,0.0,-0.6301533572010052,0.0,87.23192303897322,-2.096532395351765,0.0,-8.0699332223392,0.0,-0.6301533572010052,0.0
sim_raptor_glider_3dof,raptor_glider_3dof,0.01,-14.88037606515921,0.0,-0.0011519857253842968,11.923681420343334,0.0,-0.27222596258209436,0.0,0.0,0.0,-49.356935507178044,-0.8614410332947542,-0.03611370438294382,0.0,0.0,0.0,0.0,0.0,-0.004359739052099519,-0.24979464746366856,0.0,0.0,11.926788569792983,0.0011519857253842968,0.03504889526519434,-0.022826731891997996,-1.3078753974881616,0.0,0.0,0.01846699283989848,1.058080750024493,-7.824779502619,0.0,-29.171728920063018,11.924754932281528,0.0,-0.22023940058925584,0.0,-83.10065118556057,0.0,0.0,-0.8614410332947542,0.0,0.4363323129985824,0.3490658503988659,1.0,0.14,0.14,0.75,0.08726646259971647,5.0,0.184,0.175,0.174,0.0,0.0,0.0,-0.05610878847395166,0.0,0.05454186162840115,0.0,6.020479004498773,0.0,-0.5324319328652451,0.0,0.17216057968112747,0.0,-3.4367921450673697,0.0,-0.02921103978427371,0.0,-0.02642521354291394,0.6813934773072167,-0.3838540408424605,0.15727017538811427,0.0,0.0,0.0,0.6509544254455103,0.15727017538811427,0.0,0.0,-0.3664778994650984,0.0,0.0,-0.0050559186136121355,0.0,1.9183490019530007,0.0,7.940207158086878,0.0,-0.6258310040784566,0.0,87.12709092666549,-2.099082476605616,0.0,-7.894352751368246,0.0,-0.6258310040784566,0.0
sim_raptor_glider_3dof,raptor_glider_3dof,0.01,-14.88037606515921,0.0,-0.0011519857253842968,11.923681420343334,0.0,-0.27222596258209436,0.0,0.0,0.0,-49.356935507178044,-0.8614410332947542,-0.03611370438294382,0.0,0.0,0.0,0.0,0.0,-0.004359739052099519,-0.24979464746366856,0.0,0.0,11.926788569792983,0.0011519857253842968,0.03504889526519434,-0.022826731891997996,-1.3078753974881616,0.0,0.0,0.01846699283989848,1.058080750024493,-6.150596439706193,0.0,-19.058672729482417,11.924754932281528,0.0,-0.22023940058925584,0.0,33.15000081778677,0.0,0.0,-0.8614410332947542,0.0,-0.28914785299263307,0.3490658503988659,1.0,0.14,0.14,0.75,0.08726646259971647,5.0,0.184,0.175,0.174,0.0,0.0,0.0,-0.0819618669587616,0.0,0.03169711813639066,0.0,6.003618906771766,0.0,-0.5281764958747293,0.0,0.16594348619434207,0.0,-3.4771995918820924,0.0,-0.013418906241672631,0.0,-0.019467224234914607,0.45250663760766385,0.1286126721865883,0.12473947781901797,0.0,0.0,0.0,0.42215282902788276,0.12473947781901797,0.0,0.0,0.1461931103264295,0.0,0.0,-0.0050559186136121355,0.0,1.5215462956515293,0.0,5.149332708752597,0.0,0.24965265615875218,0.0,87.12709092666549,-1.638682134304594,0.0,-5.113262298958581,0.0,0.24965265615875218,0.0
sim_raptor_glider_3dof,raptor_glider_3dof,0.011,-14.868454248860388,0.0,-0.0013765820351619642,11.917528198390976,0.0,-0.2909510805561039,0.0,0.0,0.0,-47.460201481520045,-0.8283367795124155,-0.034742524605284895,0.0,0.0,0.0,0.0,0.0,-0.005204615749706884,-0.2982025164455213,0.0,0.0,11.921079267026153,0.0013765820351619642,0.03503211750867246,-0.024408861574221768,-1.3985247509219578,0.0,0.0,0.01920424582451488,1.1003222344764365,-6.155585238375316,0.0,-18.393125475232758,11.91888106934359,0.0,-0.22892126498828536,0.0,33.05824932567048,0.0,0.0,-0.8283367795124155,0.0,-0.28914785299263307,0.3490658503988659,1.0,0.14,0.14,0.75,0.08726646259971647,5.0,0.184,0.175,0.174,0.0,0.0,0.0,-0.08245951257542804,0.0,0.03161727447319227,0.0,6.0029652237516045,0.0,-0.5284740291602141,0.0,0.16413930732492987,0.0,-3.4742767909458308,0.0,-0.012827456731643698,0.0,-0.019267947763984942,0.44596052342761283,0.12902943816757678,0.12448951697370321,0.0,0.0,0.0,0.4167623800488925,0.12448951697370321,0.0,0.0,0.1459281587328776,0.0,0.0,-0.004863953444739886,0.0,1.5170438766603433,0.0,5.078715317122783,0.0,0.24896167567162442,0.0,87.04369615893033,-1.64054532727962,0.0,-5.040176824798037,0.0,0.24896167567162442,0.0
sim_raptor_glider_3dof,raptor_glider_3dof,0.012,-14.856538301431218,0.0,-0.0016097323052891661,11.911371139289718,0.0,-0.3090165496993683,0.0,0.0,0.0,-45.56880002888203,-0.7953255966868785,-0.03337391136611638,0.0,0.0,0.0,0.0,0.0,-0.006016440953251244,-0.3447166743109621,0.0,0.0,11.915378871269354,0.0016097323052891661,0.03501536592691338,-0.02593716939732976,-1.4860903389828721,0.0,0.0,0.019920728444078516,1.1413736646719101,-6.158246242020317,0.0,-17.739294978773323,11.913014727252444,0.0,-0.2373473281048862,0.0,32.96377425195534,0.0,0.0,-0.7953255966868785,0.0,-0.28914785299263307,0.3490658503988659,1.0,0.14,0.14,0.75,0.08726646259971647,5.0,0.184,0.175,0.174,0.0,0.0,0.0,-0.0829393769796229,0.0,0.03153825168870362,0.0,6.002323219170307,0.0,-0.5287592635354798,0.0,0.16239519610141245,0.0,-3.471446355530064,0.0,-0.012257253212978964,0.0,-0.019076415664429476,0.439628701982559,0.1294305761479541,0.12425297327004386,0.0,0.0,0.0,0.4115837615475269,0.12425297327004386,0.0,0.0,0.14565038016539045,0.0,0.0,-0.004672347591256293,0.0,1.5127135967809957,0.0,5.010812505500951,0.0,0.2482501838914757,0.0,86.96047133118587,-1.6421565173667172,0.0,-4.969896011350824,0.0,0.2482501838914757,0.0
sim_raptor_glider_3dof,raptor_glider_3dof,0.013000000000000001,-14.844628216979862,0.0,-0.0018511956612487892,11.905212420782421,0.0,-0.3264335072945081,0.0,0.0,0.0,-43.68288133972032,-0.7624101061361112,-0.03200798281740034,0.0,0.0,0.0,0.0,0.0,-0.006795298751684234,-0.3893419390020234,0.0,0.0,11.909686881637008,0.0018511956612487892,0.03499863904797969,-0.027412508570721396,-1.5706210469685324,0.0,0.0,0.020617209819037162,1.181279107966509,-6.158725021913551,0.0,-17.097072869909553,11.907155749922294,0.0,-0.24552711811339142,0.0,32.86664459472986,0.0,0.0,-0.7624101061361112,0.0,-0.28914785299263307,0.3490658503988659,1.0,0.14,0.14,0.75,0.08726646259971647,5.0,0.184,0.175,0.174,0.0,0.0,0.0,-0.08340179186166183,0.0,0.03146030253390588,0.0,6.001693744415505,0.0,-0.5290325290980541,0.0,0.16071027248658248,0.0,-3.468707417394827,0.0,-0.011707828398728816,0.0,-0.018892535761744326,0.43350892215136505,0.1298163712513425,0.12402918719750589,0.0,0.0,0.0,0.40661462671684795,0.12402918719750589,0.0,0.0,0.14536005708938127,0.0,0.0,-0.004481117594436048,0.0,1.5085468184918482,0.0,4.9455875294028075,0.0,0.2475187004429106,0.0,86.87740894923479,-1.6435340406703804,0.0,-4.902381602009796,0.0,0.2475187004429106,0.0
sim_raptor_glider_3dof,raptor_glider_3dof,0.014,-14.83272398762203,0.0,-0.002100714418300973,11.89905430640583,0.0,-0.343214251772927,0.0,0.0,0.0,-41.80260536657344,-0.7295930995585577,-0.030644863515552782,0.0,0.0,0.0,0.0,0.0,-0.007541292146518686,-0.43208421207067393,0.0,0.0,11.904003083392375,0.002100714418300973,0.03498193624083098,-0.02883583094293694,-1.6521714117830317,0.0,0.0,0.021294538796418253,1.2200871997123577,-6.157163664293684,0.0,-16.466329063704976,11.901304206340122,0.0,-0.25347109808838025,0.0,32.766939347877745,0.0,0.0,-0.7295930995585577,0.0,-0.28914785299263307,0.3490658503988659,1.0,0.14,0.14,0.75,0.08726646259971647,5.0,0.184,0.175,0.174,0.0,0.0,0.0,-0.08384711982461258,0.0,0.031383642694247635,0.0,6.001077522596131,0.0,-0.5292941725966659,0.0,0.15908354466828165,0.0,-3.466058887545726,0.0,-0.011178691563840949,0.0,-0.018716185705206095,0.42759838816989404,0.13018714413227983,0.12381751725964703,0.0,0.0,0.0,0.4018520799422246,0.12381751725964703,0.0,0.0,0.1450575103486789,0.0,0.0,-0.00429028089217739,0.0,1.504535229158879,0.0,4.88299737036393,0.0,0.2467678202288673,0.0,86.79450570585881,-1.6446955321991938,0.0,-4.837588880953531,0.0,0.2467678202288673,0.0
sim_raptor_glider_3dof,raptor_glider_3dof,0.015,-14.820825606159385,0.0,-0.0023580633233831988,11.892898714822032,0.0,-0.35936993866420686,0.0,0.0,0.0,-39.92811405766125,-0.6968770544180217,-0.02928466546082816,0.0,0.0,0.0,0.0,0.0,-0.008254518850852065,-0.4729490920650016,0.0,0.0,11.898327050213028,0.0023580633233831988,0.034965256252646355,-0.030207994663356857,-1.730790601764062,0.0,0.0,0.021953475812504793,1.2578415096990605,-6.15369740941652,0.0,-15.846941815525167,11.89545993566436,0.0,-0.2611886537257548,0.0,32.664731258256616,0.0,0.0,-0.6968770544180217,0.0,-0.28914785299263307,0.3490658503988659,1.0,0.14,0.14,0.75,0.08726646259971647,5.0,0.184,0.175,0.174,0.0,0.0,0.0,-0.08427569369916292,0.0,0.03130846369497347,0.0,6.000475235472812,0.0,-0.5295445209658264,0.0,0.15751412800523162,0.0,-3.463499814275879,0.0,-0.010669399185566879,0.0,-0.018547239435254933,0.42189456917298174,0.1305431988866678,0.1236173676684378,0.0,0.0,0.0,0.397293501790229,0.1236173676684378,0.0,0.0,0.14474303956052714,0.0,0.0,-0.004099853164515942,0.0,1.5006710496016282,0.0,4.8230023626661795,0.0,0.2459980911059306,0.0,86.71175521611377,-1.6456574758613594,0.0,-4.775476610929806,0.0,0.2459980911059306,0.0
sim_raptor_glider_3dof,raptor_glider_3dof,0.016,-14.8089330653719,0.0,-0.002623020157675912,11.88674749268717,0.0,-0.374911867860191,0.0,0.0,0.0,-38.05954891027403,-0.6642644403081017,-0.027927500122906075,0.0,0.0,0.0,0.0,0.0,-0.008935080926322907,-0.5119424266861446,0.0,0.0,11.892658443912662,0.002623020157675912,0.03494859808960787,-0.03152987160370696,-1.8065285714817894,0.0,0.0,0.022594790677384055,1.2945861447956448,-6.148456763285544,0.0,-15.23878225570376,11.889622825918549,0.0,-0.26868926469770066,0.0,32.560095612467755,0.0,0.0,-0.6642644403081017,0.0,-0.28914785299263307,0.3490658503988659,1.0,0.14,0.14,0.75,0.08726646259971647,5.0,0.184,0.175,0.174,0.0,0.0,0.0,-0.08468784990919145,0.0,0.031234929875055495,0.0,5.999887482857332,0.0,-0.5297839006151348,0.0,0.1560011217873312,0.0,-3.4610291851492314,0.0,-0.010179513952526411,0.0,-0.018385556006112566,0.41639476490514377,0.13088484960825467,0.1234281703346243,0.0,0.0,0.0,0.39293610472705487,0.1234281703346243,0.0,0.0,0.1444169546273638,0.0,0.0,-0.003909850017206851,0.0,1.4969468888191355,0.0,4.765561037494133,0.0,0.2452100800574947,0.0,86.62915239115446,-1.6464355013363563,0.0,-4.716001710131873,0.0,0.2452100800574947,0.0
sim_raptor_glider_3dof,raptor_glider_3dof,0.017,-14.79704635816467,0.0,-0.0028953726357491103,11.880602351189964,0.0,-0.38985120157955605,0.0,0.0,0.0,-36.19704686111062,-0.6317576472250589,-0.026573475645673937,0.0,0.0,0.0,0.0,0.0,-0.009583083002083645,-0.5490702107429516,0.0,0.0,11.886996937261888,0.0028953726357491103,0.03493196079009635,-0.032802323853515655,-1.879434715027754,0.0,0.0,0.02321924085143201,1.3303645042848022,-6.141567149817798,0.0,-14.64171829355147,11.883792744197036,0.0,-0.2759822447973304,0.0,32.4531078396832,0.0,0.0,-0.6317576472250589,0.0,-0.28914785299263307,0.3490658503988659,1.0,0.14,0.14,0.75,0.08726646259971647,5.0,0.184,0.175,0.174,0.0,0.0,0.0,-0.08508392080783393,0.0,0.031163182027466825,0.0,5.9993147972362095,0.0,-0.5300126324715707,0.0,0.1545436355386289,0.0,-3.458645971786348,0.0,-0.009708612633596556,0.0,-0.01823098456973585,0.4110962134089767,0.13121241280101353,0.12324938695930375,0.0,0.0,0.0,0.3887770430172644,0.12324938695930375,0.0,0.0,0.14407956703077174,0.0,0.0,-0.003720286590394351,0.0,1.4933557479010455,0.0,4.710631396759068,0.0,0.24440435514065417,0.0,86.54669231128817,-1.6470443479739723,0.0,-4.659120567417029,0.0,0.24440435514065417,0.0
sim_raptor_glider_3dof,raptor_glider_3dof,0.018000000000000002,-14.785165477589167,0.0,-0.003174918227093414,11.874464871590547,0.0,-0.4041989613231792,0.0,0.0,0.0,-34.34074028670509,-0.5993589855752653,-0.02522269684774341,0.0,0.0,0.0,0.0,0.0,-0.010198632195593913,-0.5843385816137715,0.0,0.0,11.881342213191767,0.003174918227093414,0.034915343422350836,-0.03402620346711986,-1.9495578515193768,0.0,0.0,0.023827571271525946,1.3652192699056052,-6.13314902172264,0.0,-14.055615120949552,11.877969538016956,0.0,-0.28307674032654795,0.0,32.34384321001269,0.0,0.0,-0.5993589855752653,0.0,-0.28914785299263307,0.3490658503988659,1.0,0.14,0.14,0.75,0.08726646259971647,5.0,0.184,0.175,0.174,0.0,0.0,0.0,-0.08546423434288841,0.0,0.031093339644542084,0.0,5.998757648288863,0.0,-0.5302310314217394,0.0,0.15314078883673593,0.0,-3.4563491315233974,0.0,-0.009256285340897808,0.0,-0.018083366269178478,0.4059961015368012,0.13152620602178483,0.12308050763113501,0.0,0.0,0.0,0.3848134231491791,0.12308050763113501,0.0,0.0,0.14373118850999744,0.0,0.0,-0.0035311775586840777,0.0,1.4898910009119026,0.0,4.658171039546751,0.0,0.2435814832146056,0.0,86.4643702139728,-1.6474978918580738,0.0,-4.604789172654219,0.0,0.2435814832146056,0.0
sim_raptor_glider_3dof,raptor_glider_3dof,0.019000000000000003,-14.773290416847955,0.0,-0.003461462886904753,11.868336525151998,0.0,-0.41796604042061214,0.0,0.0,0.0,-32.4907575223555,-0.5670706952322186,-0.023875265573122095,0.0,0.0,0.0,0.0,0.0,-0.010781837745197292,-0.6177537981946527,0.0,0.0,11.875693979098733,0.003461462886904753,0.034898745126506016,-0.03520235347544339,-2.0169462830705918,0.0,0.0,0.0244205157302461,1.3991924848759392,-6.1233180114851775,0.0,-13.48033558509129,11.872153051213617,0.0,-0.2899817472894718,0.0,32.23237675367662,0.0,0.0,-0.5670706952322186,0.0,-0.28914785299263307,0.3490658503988659,1.0,0.14,0.14,0.75,0.08726646259971647,5.0,0.184,0.175,0.174,0.0,0.0,0.0,-0.08582911414700616,0.0,0.03102550292159329,0.0,5.998216446573818,0.0,-0.5304394060488592,0.0,0.15179170973794318,0.0,-3.4541376066772336,0.0,-0.008822134383630522,0.0,-0.017942535808484497,0.4010915694528728,0.13182654697476714,0.12292104931872572,0.0,0.0,0.0,0.38104230796509014,0.12292104931872572,0.0,0.0,0.14337213035074098,0.0,0.0,-0.0033425371802370935,0.0,1.4865463784072062,0.0,4.608137223566131,0.0,0.2427420293319386,0.0,86.38218170154167,-1.6478091792086202,0.0,-4.552963179654231,0.0,0.2427420293319386,0.0
sim_raptor_glider_3dof,raptor_glider_3dof,0.02,-14.761421169303087,0.0,-0.003754821497686532,11.862218669742935,0.0,-0.4311631939519938,0.0,0.0,0.0,-30.647222614457583,-0.5348949412139495,-0.02253128053435871,0.0,0.0,0.0,0.0,0.0,-0.011332811095383387,-0.6493222457844995,0.0,0.0,11.87005195728379,0.003754821497686532,0.03488216508649619,-0.03633160705500379,-2.081647747179443,0.0,0.0,0.0249987959596204,1.4323255013949436,-6.112185028647073,0.0,-12.915740651921361,11.866343116495303,0.0,-0.2967061007483735,0.0,32.11878291786677,0.0,0.0,-0.5348949412139495,0.0,-0.28914785299263307,0.3490658503988659,1.0,0.14,0.14,0.75,0.08726646259971647,5.0,0.184,0.175,0.174,0.0,0.0,0.0,-0.0861788790841805,0.0,0.030959754706091077,0.0,5.997691547806461,0.0,-0.5306380581035033,0.0,0.15049553536519272,0.0,-3.4520103272442473,0.0,-0.008405773858214364,0.0,-0.017808323086296218,0.3963797221227696,0.13211375225128874,0.12277055468620843,0.0,0.0,0.0,0.37746072820766446,0.12277055468620843,0.0,0.0,0.14300270208397883,0.0,0.0,-0.00315437927481022,0.0,1.4833159489750953,0.0,4.560486997010193,0.0,0.24188655415445462,0.0,86.30012260131048,-1.6479904513529673,0.0,-4.503598042302663,0.0,0.24188655415445462,0.0
sim_raptor_glider_3dof,raptor_glider_3dof,0.02,-14.761421169303087,0.0,-0.003754821497686532,11.862218669742935,0.0,-0.4311631939519938,0.0,0.0,0.0,-30.647222614457583,-0.5348949412139495,-0.02253128053435871,0.0,0.0,0.0,0.0,0.0,-0.011332811095383387,-0.6493222457844995,0.0,0.0,11.87005195728379,0.003754821497686532,0.03488216508649619,-0.03633160705500379,-2.081647747179443,0.0,0.0,0.0249987959596204,1.4323255013949436,-6.064169689594294,0.0,-13.017858165609933,11.866343116495303,0.0,-0.2967061007483735,0.0,30.98559138905392,0.0,0.0,-0.5348949412139495,0.0,-0.28275277038251606,0.3490658503988659,1.0,0.14,0.14,0.75,0.08726646259971647,5.0,0.184,0.175,0.174,0.0,0.0,0.0,-0.07433991452030758,0.0,0.028666299501724276,0.0,6.000468747862863,0.0,-0.5290579714915545,0.0,0.15033886551130438,0.0,-3.4622802387473888,0.0,-0.01188051527028986,0.0,-0.017060455408317823,0.39867155811913124,0.12703603977121578,0.12159396674134997,0.0,0.0,0.0,0.3797438038617262,0.12159396674134997,0.0,0.0,0.13795738479990552,0.0,0.0,-0.00315437927481022,0.0,1.469100393230144,0.0,4.588071156249696,0.0,0.23335248875096506,0.0,86.30012260131048,-1.634786233113453,0.0,-4.53168035856702,0.0,0.23335248875096506,0.0
sim_raptor_glider_3dof,raptor_glider_3dof,0.021,-14.74955771042676,0.0,-0.0040548626554246445,11.856160320205403,0.0,-0.44390828896269335,0.0,0.0,0.0,-28.874980258507122,-0.5039634769593127,-0.021238351889859196,0.0,0.0,0.0,0.0,0.0,-0.011852202178789972,-0.6790811627804241,0.0,0.0,11.864467628487292,0.0040548626554246445,0.03486575458722646,-0.03742367021367555,-2.144218357133061,0.0,0.0,0.025571468034885577,1.4651371943526366,-6.052547822436342,0.0,-12.473731244693482,11.860588752303206,0.0,-0.3033587911393365,0.0,30.87758652928648,0.0,0.0,-0.5039634769593127,0.0,-0.28275277038251606,0.3490658503988659,1.0,0.14,0.14,0.75,0.08726646259971647,5.0,0.184,0.175,0.174,0.0,0.0,0.0,-0.07463363683702713,0.0,0.0286115296278899,0.0,6.000014009895457,0.0,-0.5292380852469094,0.0,0.14908345701966688,0.0,-3.4603477040787047,0.0,-0.011489129214705998,0.0,-0.016936125315919887,0.3941083081328573,0.1273170668786263,0.12145055200194665,0.0,0.0,0.0,0.376268050888783,0.12145055200194665,0.0,0.0,0.13760595838669487,0.0,0.0,-0.0029733692645802874,0.0,1.4659873168916158,0.0,4.541800603307622,0.0,0.23253910415205647,0.0,86.21894100266762,-1.6348920321131921,0.0,-4.48377068735962,0.0,0.23253910415205647,0.0
sim_raptor_glider_3dof,raptor_glider_3dof,0.022,-14.73769999584493,0.0,-0.004361464780297196,11.850114126271473,0.0,-0.4561150040593969,0.0,0.0,0.0,-27.108976715277088,-0.47314090052806257,-0.019948787146986106,0.0,0.0,0.0,0.0,0.0,-0.012340754118922864,-0.7070731270229669,0.0,0.0,11.858888889882847,0.004361464780297196,0.03484936051568617,-0.03847135591977897,-2.20424632634897,0.0,0.0,0.026130601800856103,1.4971731993260031,-6.039834453339609,0.0,-11.9397470508891,11.854840446069298,0.0,-0.3098446398217804,0.0,30.767556538915183,0.0,0.0,-0.47314090052806257,0.0,-0.28275277038251606,0.3490658503988659,1.0,0.14,0.14,0.75,0.08726646259971647,5.0,0.184,0.175,0.174,0.0,0.0,0.0,-0.07491498406477023,0.0,0.028558587475549697,0.0,5.999573209529029,0.0,-0.5294096054895722,0.0,0.14787833157466845,0.0,-3.4584902348916553,0.0,-0.011114007267757967,0.0,-0.016817770465365943,0.3897282521077487,0.12758566982576802,0.12131520995717156,0.0,0.0,0.0,0.372972462857597,0.12131520995717156,0.0,0.0,0.13724464580217774,0.0,0.0,-0.002792830200578055,0.0,1.4629768795158706,0.0,4.497787952964756,0.0,0.23171046829457026,0.0,86.13787881481589,-1.6348876978959481,0.0,-4.438191076902995,0.0,0.23171046829457026,0.0
sim_raptor_glider_3dof,raptor_glider_3dof,0.023,-14.725848026631372,0.0,-0.0046744733281714745,11.844081144472593,0.0,-0.46779274339849625,0.0,0.0,0.0,-25.349333470496234,-0.4424293322461601,-0.01866268270926291,0.0,0.0,0.0,0.0,0.0,-0.01279853897954296,-0.7333022674614831,0.0,0.0,11.853315494309072,0.0046744733281714745,0.03483298214554959,-0.03947539064415062,-2.261773278540047,0.0,0.0,0.026676851664607662,1.5284710110785638,-6.0261239780357725,0.0,-11.415780471736502,11.849098012283392,0.0,-0.31617163523835007,0.0,30.655570211742113,0.0,0.0,-0.4424293322461601,0.0,-0.28275277038251606,0.3490658503988659,1.0,0.14,0.14,0.75,0.08726646259971647,5.0,0.184,0.175,0.174,0.0,0.0,0.0,-0.07518419836966486,0.0,0.028507513746100166,0.0,5.99914663518346,0.0,-0.5295727933244824,0.0,0.1467227328403894,0.0,-3.456706967307116,0.0,-0.010754835905431755,0.0,-0.0167052266208324,0.385528760456229,0.12784213411139445,0.12118756561337667,0.0,0.0,0.0,0.36985433663120104,0.12118756561337667,0.0,0.0,0.1368737336603596,0.0,0.0,-0.0026127755792968075,0.0,1.4600642187245896,0.0,4.455994146941834,0.0,0.23086709926462987,0.0,86.05693233428491,-1.6347831810082183,0.0,-4.394901058211935,0.0,0.23086709926462987,0.0
sim_raptor_glider_3dof,raptor_glider_3dof,0.024,-14.714001797757813,0.0,-0.0049937516935070385,11.838062213422011,0.0,-0.4789502559932991,0.0,0.0,0.0,-23.596147487468553,-0.4118304644425137,-0.017380117184979393,0.0,0.0,0.0,0.0,0.0,-0.013225654980247725,-0.7577742116643728,0.0,0.0,11.847747056574347,0.0049937516935070385,0.03481661834486569,-0.04043644762490131,-2.3168377874086468,0.0,0.0,0.027210792644653585,1.5590635757442741,-6.011505988876245,0.0,-10.901709797590993,11.84336112990096,0.0,-0.32234680596712484,0.0,30.54169026256154,0.0,0.0,-0.4118304644425137,0.0,-0.28275277038251606,0.3490658503988659,1.0,0.14,0.14,0.75,0.08726646259971647,5.0,0.184,0.175,0.174,0.0,0.0,0.0,-0.07544150603520573,0.0,0.028458341790119464,0.0,5.998734554692926,0.0,-0.5297278951508754,0.0,0.14561596285981573,0.0,-3.4549971062629683,0.0,-0.010411325643411835,0.0,-0.016598334752540304,0.3815073764445129,0.12808673003046217,0.12106726905571698,0.0,0.0,0.0,0.36691115711141215,0.12106726905571698,0.0,0.0,0.1364934856717483,0.0,0.0,-0.0024332164058971156,0.0,1.4572447581976709,0.0,4.4163824342876685,0.0,0.23000946936735098,0.0,85.97609586116157,-1.6345876994771917,0.0,-4.353862554548217,0.0,0.23000946936735098,0.0
sim_raptor_glider_3dof,raptor_glider_3dof,0.025,-14.70216130276032,0.0,-0.005319126738629473,11.832058357755596,0.0,-0.48959898527931456,0.0,0.0,0.0,-21.849543256221185,-0.3813464698779827,-0.016101188899102028,0.0,0.0,0.0,0.0,0.0,-0.013622233855437746,-0.7804965074568064,0.0,0.0,11.84218358866812,0.005319126738629473,0.034800269148867496,-0.04135542801906538,-2.369491485449517,0.0,0.0,0.027733194163627635,1.5889949779927104,-5.996068408447714,0.0,-10.397374898858446,11.837629790872981,0.0,-0.32837947858707783,0.0,30.425995756916095,0.0,0.0,-0.3813464698779827,0.0,-0.28275277038251606,0.3490658503988659,1.0,0.14,0.14,0.75,0.08726646259971647,5.0,0.184,0.175,0.174,0.0,0.0,0.0,-0.07568719256583495,0.0,0.028411084211611464,0.0,5.9983370965257,0.0,-0.5298751877266279,0.0,0.14455705801946606,0.0,-3.4533594256935802,0.0,-0.010083110195366908,0.0,-0.016496910674550766,0.3776606444648186,0.12831978356444432,0.12095395977159894,0.0,0.0,0.0,0.3641393942507874,0.12095395977159894,0.0,0.0,0.13610423050738646,0.0,0.0,-0.002254166445874284,0.0,1.4545139088464465,0.0,4.378904292979216,0.0,0.22913817404533512,0.0,85.89536946791569,-1.6343101257639698,0.0,-4.315025368514644,0.0,0.22913817404533512,0.0
sim_raptor_glider_3dof,raptor_glider_3dof,0.026000000000000002,-14.690326536434277,0.0,-0.00565046624974129,11.826070315320171,0.0,-0.49974819403379495,0.0,0.0,0.0,-20.10961829421992,-0.3509790505534234,-0.014825976813558121,0.0,0.0,0.0,0.0,0.0,-0.013988386896528355,-0.8014755313671785,0.0,0.0,11.836624829753497,0.00565046624974129,0.03478393379104145,-0.0422330514969847,-2.4197756067358864,0.0,0.0,0.02824466460045634,1.6183000753687078,-5.979893624676143,0.0,-9.90264289814535,11.831903744329844,0.0,-0.3342770486443646,0.0,30.308551386661513,0.0,0.0,-0.3509790505534234,0.0,-0.28275277038251606,0.3490658503988659,1.0,0.14,0.14,0.75,0.08726646259971647,5.0,0.184,0.175,0.174,0.0,0.0,0.0,-0.07592149294449672,0.0,0.028365754749770506,0.0,5.99795442723069,0.0,-0.5300149118863201,0.0,0.1435452603357274,0.0,-3.451792997487669,0.0,-0.009769892463081865,0.0,-0.016400791361726116,0.3739858275821081,0.12854157163229274,0.12084731731890176,0.0,0.0,0.0,0.361536252924742,0.12084731731890176,0.0,0.0,0.13570624004472637,0.0,0.0,-0.002075636753898137,0.0,1.451867513008439,0.0,4.343520005587537,0.0,0.22825370049294785,0.0,85.81474927083477,-1.6339584851327618,0.0,-4.278348394314226,0.0,0.22825370049294785,0.0
sim_raptor_glider_3dof,raptor_glider_3dof,0.027,-14.678497493595916,0.0,-0.005987638956726455,11.820098783335153,0.0,-0.5094074145331754,0.0,0.0,0.0,-18.376470956209623,-0.3207299230829686,-0.013554560460436496,0.0,0.0,0.0,0.0,0.0,-0.01432423152590197,-0.820718011202422,0.0,0.0,11.83107058392361,0.005987638956726455,0.034767611695681946,-0.04307006194998505,-2.46773277310114,0.0,0.0,0.02874583042408308,1.6470147618987179,-5.963060655630749,0.0,-9.417375566999768,11.82618277902351,0.0,-0.340047112780501,0.0,30.18942285151749,0.0,0.0,-0.3207299230829686,0.0,-0.28275277038251606,0.3490658503988659,1.0,0.14,0.14,0.75,0.08726646259971647,5.0,0.184,0.175,0.174,0.0,0.0,0.0,-0.07614464671003066,0.0,0.028322358686084393,0.0,5.997586666131697,0.0,-0.5301473058965921,0.0,0.1425797805848155,0.0,-3.4502968269325747,0.0,-0.009471370610657646,0.0,-0.016309812512859873,0.37048005131333706,0.12875237422607771,0.12074703446717545,0.0,0.0,0.0,0.35909880016174645,0.12074703446717545,0.0,0.0,0.13529979019867308,0.0,0.0,-0.0018976384644611099,0.0,1.449301602938326,0.0,4.3101883949715445,0.0,0.22735654349477824,0.0,85.73423233443067,-1.6335402534299623,0.0,-4.243789035384648,0.0,0.22735654349477824,0.0
sim_raptor_glider_3dof,raptor_glider_3dof,0.028,-14.666674169257963,0.0,-0.006330520614344976,11.814144386731115,0.0,-0.5185860511147744,0.0,0.0,0.0,-16.650196126572776,-0.29060074351150145,-0.0122870168534605,0.0,0.0,0.0,0.0,0.0,-0.014629886759415003,-0.8382307660688044,0.0,0.0,11.82552066857697,0.006330520614344976,0.03475130232618346,-0.04386719408351243,-2.5134050800665175,0.0,0.0,0.029237307324097427,1.675174313997713,-5.9456449443942425,0.0,-8.94143488324417,11.820466681998989,0.0,-0.3456971256648723,0.0,30.068674328024652,0.0,0.0,-0.29060074351150145,0.0,-0.28275277038251606,0.3490658503988659,1.0,0.14,0.14,0.75,0.08726646259971647,5.0,0.184,0.175,0.174,0.0,0.0,0.0,-0.07635688896710603,0.0,0.028280895362446656,0.0,5.997233901803794,0.0,-0.5302726000685274,0.0,0.1416598367186967,0.0,-3.44886991307655,0.0,-0.00918724967887177,0.0,-0.01622381277228742,0.36714044730290635,0.12895246559882562,0.12065282061190989,0.0,0.0,0.0,0.35682411133932124,0.12065282061190989,0.0,0.0,0.13488515078345664,0.0,0.0,-0.0017201823594844702,0.0,1.446812428192112,0.0,4.278868544855014,0.0,0.22644718636435368,0.0,85.65381592136923,-1.6330623412134404,0.0,-4.211304977822349,0.0,0.22644718636435368,0.0
sim_raptor_glider_3dof,raptor_glider_3dof,0.029,-14.654856558680862,0.0,-0.006678995402271967,11.8082076660272,0.0,-0.5272933512163709,0.0,0.0,0.0,-14.930884543857777,-0.2605930955254499,-0.011023420007212011,0.0,0.0,0.0,0.0,0.0,-0.014905473473339783,-0.8540207216665735,0.0,0.0,11.819974896854076,0.006678995402271967,0.03473500513342759,-0.0446251710065784,-2.5568339587265103,0.0,0.0,0.02971969753323862,1.7028132370599365,-5.927718436008059,0.0,-8.47468347831189,11.814755223060754,0.0,-0.35123436822039017,0.0,29.94636815080879,0.0,0.0,-0.2605930955254499,0.0,-0.28275277038251606,0.3490658503988659,1.0,0.14,0.14,0.75,0.08726646259971647,5.0,0.184,0.175,0.174,0.0,0.0,0.0,-0.07655844971912844,0.0,0.028241359048552597,0.0,5.996896195241486,0.0,-0.5303910164286754,0.0,0.14078465662337206,0.0,-3.447511254003659,0.0,-0.008917242137827979,0.0,-0.016142634411364102,0.3639641669964181,0.12914211341737591,0.12056440128913597,0.0,0.0,0.0,0.35470928422644626,0.12056440128913597,0.0,0.0,0.13446258445192208,0.0,0.0,-0.001543278801009682,0.0,1.444396444495304,0.0,4.2495199535513315,0.0,0.225526098543741,0.0,85.57349723769926,-1.6325311140192538,0.0,-4.180854348845537,0.0,0.225526098543741,0.0
sim_raptor_glider_3dof,raptor_glider_3dof,0.03,-14.643044657340782,0.0,-0.007032954082861543,11.80228909795224,0.0,-0.5355384365540067,0.0,0.0,0.0,-13.21862373173077,-0.23070850670096157,-0.009763841601012622,0.0,0.0,0.0,0.0,0.0,-0.015151113955951164,-0.8680948845977624,0.0,0.0,11.814433095526379,0.007032954082861543,0.034718719608352815,-0.04534470677858332,-2.5980603216710794,0.0,0.0,0.030193592822632155,1.7299654370733168,-5.909349738549581,0.0,-8.016984527182323,11.809048172675231,0.0,-0.3566659839468963,0.0,29.822565082201784,0.0,0.0,-0.23070850670096157,0.0,-0.28275277038251606,0.3490658503988659,1.0,0.14,0.14,0.75,0.08726646259971647,5.0,0.184,0.175,0.174,0.0,0.0,0.0,-0.07674955453334484,0.0,0.028203739484413164,0.0,5.9965735807184455,0.0,-0.5305027691922621,0.0,0.13995347517456408,0.0,-3.4462198432129396,0.0,-0.008661066696040156,0.0,-0.016066123411732018,0.3609483742247587,0.12932157920646073,0.1204815171348854,0.0,0.0,0.0,0.3527514309820254,0.1204815171348854,0.0,0.0,0.13403234746045642,0.0,0.0,-0.0013669378241417671,0.0,1.4420503046917457,0.0,4.222102448781244,0.0,0.22459373763406165,0.0,85.49327369188885,-1.6319524244844201,0.0,-4.152395628247091,0.0,0.22459373763406165,0.0
sim_raptor_glider_3dof,raptor_glider_3dof,0.03,-14.643044657340782,0.0,-0.007032954082861543,11.80228909795224,0.0,-0.5355384365540067,0.0,0.0,0.0,-13.21862373173077,-0.23070850670096157,-0.009763841601012622,0.0,0.0,0.0,0.0,0.0,-0.015151113955951164,-0.8680948845977624,0.0,0.0,11.814433095526379,0.007032954082861543,0.034718719608352815,-0.04534470677858332,-2.5980603216710794,0.0,0.0,0.030193592822632155,1.7299654370733168,-5.825224521301026,0.0,-8.197979521300304,11.809048172675231,0.0,-0.3566659839468963,0.0,27.80293436710872,0.0,0.0,-0.23070850670096157,0.0,-0.2709433850185472,0.3490658503988659,1.0,0.14,0.14,0.75,0.08726646259971647,5.0,0.184,0.175,0.174,0.0,0.0,0.0,-0.056979665072998606,0.0,0.024459893570706912,0.0,6.002472109456073,0.0,-0.5278051102583932,0.0,0.13969831427231735,0.0,-3.467024390309718,0.0,-0.01444429914488131,0.0,-0.014847417667856275,0.36502307257668987,0.12021626064375368,0.11836214806713503,0.0,0.0,0.0,0.3568180664119183,0.11836214806713503,0.0,0.0,0.12495546742009009,0.0,0.0,-0.0013669378241417671,0.0,1.4166834527248828,0.0,4.2707762453950595,0.0,0.20938389871869578,0.0,85.49327369188885,-1.6088179897410673,0.0,-4.2021692516295355,0.0,0.20938389871869578,0.0
sim_raptor_glider_3dof,raptor_glider_3dof,0.031,-14.631238420823808,0.0,-0.007392378755032272,11.79647261672057,0.0,-0.5435205638967736,0.0,0.0,0.0,-11.628857393756286,-0.20296184976593387,-0.008593533246864212,0.0,0.0,0.0,0.0,0.0,-0.015367931226108023,-0.8805175991032982,0.0,0.0,11.808987289366387,0.007392378755032272,0.03470271618139348,-0.04604227544229653,-2.638028062022427,0.0,0.0,0.03067434421618851,1.757510462919129,-5.807759186940296,0.0,-7.766840444039099,11.803432096008757,0.0,-0.3621761385393267,0.0,27.690522186722237,0.0,0.0,-0.20296184976593387,0.0,-0.2709433850185472,0.3490658503988659,1.0,0.14,0.14,0.75,0.08726646259971647,5.0,0.184,0.175,0.174,0.0,0.0,0.0,-0.05711967801829619,0.0,0.02443339177410553,0.0,6.002216810771433,0.0,-0.5279017314075733,0.0,0.13889157940534225,0.0,-3.4659051198749515,0.0,-0.014207120271786574,0.0,-0.014778018546046446,0.3620937141298962,0.12039524730942766,0.11828244487108172,0.0,0.0,0.0,0.354872479169341,0.11828244487108172,0.0,0.0,0.12456505923236479,0.0,0.0,-0.0012030946545609899,0.0,1.4144246339227446,0.0,4.243574581041391,0.0,0.20853732258820518,0.0,85.41447642936078,-1.6082404905975054,0.0,-4.173977095566146,0.0,0.20853732258820518,0.0
sim_raptor_glider_3dof,raptor_glider_3dof,0.032,-14.619437794895306,0.0,-0.007757261002984876,11.790673754738185,0.0,-0.5510760094557997,0.0,0.0,0.0,-10.045568933353403,-0.17532825312307168,-0.007426932100164381,0.0,0.0,0.0,0.0,0.0,-0.015557076286671547,-0.8913548127893345,0.0,0.0,11.803544906462193,0.007757261002984876,0.03468672281425311,-0.04670430856229888,-2.6759597656964393,0.0,0.0,0.031147232275627334,1.784604952907105,-5.7899643716089235,0.0,-7.344051225771244,11.79781976433018,0.0,-0.36758831217782784,0.0,27.576670758552464,0.0,0.0,-0.17532825312307168,0.0,-0.2709433850185472,0.3490658503988659,1.0,0.14,0.14,0.75,0.08726646259971647,5.0,0.184,0.175,0.174,0.0,0.0,0.0,-0.05725240283001638,0.0,0.0244081952861799,0.0,6.001972724510056,0.0,-0.5279928642197577,0.0,0.13812565959579892,0.0,-3.464841425511671,0.0,-0.013982125028129443,0.0,-0.014712596666981761,0.35931310516733556,0.12056468489527837,0.11820771290107263,0.0,0.0,0.0,0.3530724310224591,0.11820771290107263,0.0,0.0,0.12416732477599404,0.0,0.0,-0.0010397704940230134,0.0,1.4122283852121142,0.0,4.218158839965498,0.0,0.2076799074826586,0.0,85.33576499445516,-1.6076230021039597,0.0,-4.147625982930975,0.0,0.2076799074826586,0.0
sim_raptor_glider_3dof,raptor_glider_3dof,0.033,-14.607642779534048,0.0,-0.008127509643815428,11.784892824614253,0.0,-0.5582127802678003,0.0,0.0,0.0,-8.468843363610953,-0.14780920053068244,-0.0062641072675016524,0.0,0.0,0.0,0.0,0.0,-0.015718645023390397,-0.9006120195045849,0.0,0.0,11.798105796936168,0.008127509643815428,0.03467073906649084,-0.04733143340300487,-2.711891372296707,0.0,0.0,0.031612788379614475,1.811279352792122,-5.7718954648074625,0.0,-6.929491490971648,11.792210960894206,0.0,-0.3729089023680574,0.0,27.461433919302646,0.0,0.0,-0.14780920053068244,0.0,-0.2709433850185472,0.3490658503988659,1.0,0.14,0.14,0.75,0.08726646259971647,5.0,0.184,0.175,0.174,0.0,0.0,0.0,-0.05737798790567079,0.0,0.024384292531349456,0.0,6.001739904292993,0.0,-0.5280786801102197,0.0,0.13739987101132306,0.0,-3.463832523174202,0.0,-0.013769082845298621,0.0,-0.014651027335435681,0.35667871759885217,0.1207247962470578,0.11813773967785729,0.0,0.0,0.0,0.3514153416415531,0.11813773967785729,0.0,0.0,0.12376249083451317,0.0,0.0,-0.0008769750174502314,0.0,1.410091966445366,0.0,4.194493237179186,0.0,0.20681205884626824,0.0,85.25713715257055,-1.6069700302290864,0.0,-4.12307896995937,0.0,0.20681205884626824,0.0
sim_raptor_glider_3dof,raptor_glider_3dof,0.034,-14.595853371759773,0.0,-0.008503046728861508,11.779130044924244,0.0,-0.564938039459682,0.0,0.0,0.0,-6.898749094593843,-0.12040588596964029,-0.005105115661732672,0.0,0.0,0.0,0.0,0.0,-0.01585273826790814,-0.9082949964766672,0.0,0.0,11.79266974029484,0.008503046728861508,0.03465476429014911,-0.04792420728485843,-2.7458548139325023,0.0,0.0,0.032071469016950294,1.8375598174558352,-5.75360483467124,0.0,-6.523050607771157,11.786605413164049,0.0,-0.3781434093535694,0.0,27.34485910449097,0.0,0.0,-0.12040588596964029,0.0,-0.2709433850185472,0.3490658503988659,1.0,0.14,0.14,0.75,0.08726646259971647,5.0,0.184,0.175,0.174,0.0,0.0,0.0,-0.05749656631978067,0.0,0.024361672410644124,0.0,6.001518407041276,0.0,-0.5281593352993587,0.0,0.1367136081102581,0.0,-3.4628777247730684,0.0,-0.013567788602549057,0.0,-0.014593195960619308,0.3541883015275886,0.1208757828420755,0.11807233108905152,0.0,0.0,0.0,0.34989891914163374,0.11807233108905152,0.0,0.0,0.12335075762511208,0.0,0.0,-0.0007147161926425741,0.0,1.4080128494894173,0.0,4.172545503504182,0.0,0.2059341339159215,0.0,85.17858965302243,-1.6062856462978128,0.0,-4.100302743168838,0.0,0.2059341339159215,0.0
sim_raptor_glider_3dof,raptor_glider_3dof,0.034999999999999996,-14.584069567829095,0.0,-0.008883774609517494,11.773385656676162,0.0,-0.5712611905278361,0.0,0.0,0.0,-5.335374189308618,-0.09311984642935864,-0.003950028694179143,0.0,0.0,0.0,0.0,0.0,-0.01595949132571664,-0.9144114961392106,0.0,0.0,11.787236706227258,0.008883774609517494,0.03463879839615404,-0.048483378324410804,-2.777892954524796,0.0,0.0,0.032523886998694164,1.8634814583855857,-5.735142959323628,0.0,-6.124586019382825,11.781002967258276,0.0,-0.38329917046989465,0.0,27.227006082695805,0.0,0.0,-0.09311984642935864,0.0,-0.2709433850185472,0.3490658503988659,1.0,0.14,0.14,0.75,0.08726646259971647,5.0,0.184,0.175,0.174,0.0,0.0,0.0,-0.057608307969354636,0.0,0.024340314641107384,0.0,6.001308196611012,0.0,-0.5282350063777221,0.0,0.13606604180012022,0.0,-3.4619760187802964,0.0,-0.013377973958952065,0.0,-0.014538972736018419,0.3518387916455331,0.12101789114489778,0.11801128222914078,0.0,0.0,0.0,0.3485200441044415,0.11801128222914078,0.0,0.0,0.1229323777906817,0.0,0.0,-0.0005530040171850801,0.0,1.4059884320636102,0.0,4.152273758043648,0.0,0.20504658280878213,0.0,85.10012199715078,-1.6055736693511464,0.0,-4.079254101563288,0.0,0.20504658280878213,0.0
sim_raptor_glider_3dof,raptor_glider_3dof,0.036,-14.572291364896502,0.0,-0.009269621250402715,11.767659796239007,0.0,-0.5771898187046165,0.0,0.0,0.0,-3.7787872595894023,-0.06595227941224874,-0.002798903514112872,0.0,0.0,0.0,0.0,0.0,-0.01603901751236751,-0.9189680109950749,0.0,0.0,11.781806532397148,0.009269621250402715,0.0346228409074529,-0.04900954229529278,-2.8080399293881775,0.0,0.0,0.03297052478292527,1.8890719183931026,-5.716557302554099,0.0,-5.73397989404436,11.775403373655987,0.0,-0.3883819698793409,0.0,27.10792306981321,0.0,0.0,-0.06595227941224874,0.0,-0.2709433850185472,0.3490658503988659,1.0,0.14,0.14,0.75,0.08726646259971647,5.0,0.184,0.175,0.174,0.0,0.0,0.0,-0.057713350917409395,0.0,0.024320203110921312,0.0,6.001109272937343,0.0,-0.5283058436846558,0.0,0.13545651670773656,0.0,-3.4611266234350215,0.0,-0.013199423764685473,0.0,-0.014488246232240973,0.34962775051607475,0.12115132514420106,0.11795441492999627,0.0,0.0,0.0,0.3472762368995108,0.11795441492999627,0.0,0.0,0.12250755546987813,0.0,0.0,-0.0003918464919758021,0.0,1.4040164080095832,0.0,4.133643789493651,0.0,0.2041497686387633,0.0,85.0217317816524,-1.6048374665845528,0.0,-4.059897752188599,0.0,0.2041497686387633,0.0
sim_raptor_glider_3dof,raptor_glider_3dof,0.037,-14.56051876022948,0.0,-0.009660516691213311,11.761952564520183,0.0,-0.5827317193700164,0.0,0.0,0.0,-2.2290573554921735,-0.03890439006913613,-0.001651797627423496,0.0,0.0,0.0,0.0,0.0,-0.01609143587413144,-0.921971361893138,0.0,0.0,11.776379086407792,0.009660516691213311,0.03460689143497544,-0.049503314056705335,-2.836330967359858,0.0,0.0,0.03341187818257389,1.9143596054667196,-5.69789304125308,0.0,-5.351110988578522,11.769806396280035,0.0,-0.39339773876882306,0.0,26.987658721564557,0.0,0.0,-0.03890439006913613,0.0,-0.2709433850185472,0.3490658503988659,1.0,0.14,0.14,0.75,0.08726646259971647,5.0,0.184,0.175,0.174,0.0,0.0,0.0,-0.05781183572855101,0.0,0.024301319580936613,0.0,6.000921609429963,0.0,-0.5283719948964117,0.0,0.1348843528269402,0.0,-3.46032871157452,0.0,-0.013031917713459887,0.0,-0.0144409066139652,0.3475526499638744,0.12127629011954577,0.11790155822772404,0.0,0.0,0.0,0.3461649268331209,0.11790155822772404,0.0,0.0,0.12207649690536956,0.0,0.0,-0.00023125166783928943,0.0,1.4020945722199722,0.0,4.1166204442199925,0.0,0.2032440578321027,0.0,84.94341703948476,-1.60408008440214,0.0,-4.042197441249392,0.0,0.2032440578321027,0.0
sim_raptor_glider_3dof,raptor_glider_3dof,0.038,-14.548751751316075,0.0,-0.010056396444785844,11.756264021190486,0.0,-0.5878945771578356,0.0,0.0,0.0,-0.6862509751924076,-0.01197733901212944,-0.0005087666966406008,0.0,0.0,0.0,0.0,0.0,-0.01611686659613205,-0.9234284349337436,0.0,0.0,11.770954242107539,0.010056396444785844,0.03459094960800358,-0.049965300393122865,-2.8628008346292932,0.0,0.0,0.03384843379699082,1.9393723996955499,-5.67919305731782,0.0,-4.97585920919154,11.764211797814145,0.0,-0.3983522887595373,0.0,26.866260274514246,0.0,0.0,-0.01197733901212944,0.0,-0.2709433850185472,0.3490658503988659,1.0,0.14,0.14,0.75,0.08726646259971647,5.0,0.184,0.175,0.174,0.0,0.0,0.0,-0.05790390005453598,0.0,0.024283644933269975,0.0,6.00074516419365,0.0,-0.528433601493821,0.0,0.13434887702766365,0.0,-3.4595814550544683,0.0,-0.012875239458619599,0.0,-0.014396848293818034,0.3456109865640785,0.12139298575956574,0.11785255092353115,0.0,0.0,0.0,0.3451835694628389,0.11785255092353115,0.0,0.0,0.12163940253557634,0.0,0.0,-0.00007122733752968412,0.0,1.4002208449683669,0.0,4.101169007500439,0.0,0.2023298061273668,0.0,84.86517589720484,-1.6033042498312196,0.0,-4.026117375988833,0.0,0.2023298061273668,0.0
sim_raptor_glider_3dof,raptor_glider_3dof,0.039,-14.536990335917453,0.0,-0.010457202583101986,11.750594178085334,0.0,-0.5926859406616994,0.0,0.0,0.0,0.8495684265840103,0.014827766264878701,0.000630135825132041,0.0,0.0,0.0,0.0,0.0,-0.016115431165727986,-0.923346190829806,0.0,0.0,11.76553186907889,0.010457202583101986,0.03457501504328334,-0.05039609788018536,-2.887483712462816,0.0,0.0,0.034280666714457377,1.9641375216330101,-5.660498002806383,0.0,-4.608105948422395,11.758619330669841,0.0,-0.4032512848194794,0.0,26.743773359227493,0.0,0.0,0.014827766264878701,0.0,-0.2709433850185472,0.3490658503988659,1.0,0.14,0.14,0.75,0.08726646259971647,5.0,0.184,0.175,0.174,0.0,0.0,0.0,-0.05798967823493128,0.0,0.024267159442496272,0.0,6.00057988189626,0.0,-0.5284907986558974,0.0,0.13384942560411003,0.0,-3.4588840288806977,0.0,-0.012729177236524074,0.0,-0.014355970112602635,0.343800291855608,0.12150160568106844,0.1178072413710819,0.0,0.0,0.0,0.3443296571053289,0.1178072413710819,0.0,0.0,0.12119646633724797,0.0,0.0,0.00008821901551848574,0.0,1.398393266317203,0.0,4.0872553188194685,0.0,0.20140735716834227,0.0,84.78700642326595,-1.6025123850772247,0.0,-4.011622343164101,0.0,0.20140735716834227,0.0
sim_raptor_glider_3dof,raptor_glider_3dof,0.04,-14.525234512025152,0.0,-0.01086288229943601,11.744943011110687,0.0,-0.5971132503616052,0.0,0.0,0.0,2.3783397426545556,0.04150985924035662,0.001764858183038672,0.0,0.0,0.0,0.0,0.0,-0.0160872520575401,-0.9217316468601976,0.0,0.0,11.760111843345502,0.01086288229943601,0.034559087376489175,-0.05079629518592693,-2.9104133290543146,0.0,0.0,0.03470904312838683,1.988681682194117,-5.641846405756909,0.0,-4.247733851109945,11.753028747184429,0.0,-0.40810027671095767,0.0,26.620242254094382,0.0,0.0,0.04150985924035662,0.0,-0.2709433850185472,0.3490658503988659,1.0,0.14,0.14,0.75,0.08726646259971647,5.0,0.184,0.175,0.174,0.0,0.0,0.0,-0.058069301785205786,0.0,0.024251842855755715,0.0,6.000425693890962,0.0,-0.5285437157475474,0.0,0.13338534168509023,0.0,-3.4582356081457237,0.0,-0.012593522993692107,0.0,-0.014318175080223141,0.34211812378001466,0.1216023380800376,0.11776548680824273,0.0,0.0,0.0,0.3436007098342757,0.11776548680824273,0.0,0.0,0.12074787672236997,0.0,0.0,0.00024708014562541407,0.0,1.3966099901913072,0.0,4.0748456699606335,0.0,0.2004770444155848,0.0,84.70890678240197,-1.6017066280636962,0.0,-3.9986776034479083,0.0,0.2004770444155848,0.0
sim_raptor_glider_3dof,raptor_glider_3dof,0.04,-14.525234512025152,0.0,-0.01086288229943601,11.744943011110687,0.0,-0.5971132503616052,0.0,0.0,0.0,2.3783397426545556,0.04150985924035662,0.001764858183038672,0.0,0.0,0.0,0.0,0.0,-0.0160872520575401,-0.9217316468601976,0.0,0.0,11.760111843345502,0.01086288229943601,0.034559087376489175,-0.05079629518592693,-2.9104133290543146,0.0,0.0,0.03470904312838683,1.988681682194117,-5.535046102219469,0.0,-4.480480695574768,11.753028747184429,0.0,-0.40810027671095767,0.0,24.01187705127898,0.0,0.0,0.04150985924035662,0.0,-0.2550322429170053,0.3490658503988659,1.0,0.14,0.14,0.75,0.08726646259971647,5.0,0.184,0.175,0.174,0.0,0.0,0.0,-0.03630069235155919,0.0,0.019958833666820705,0.0,6.008661281068675,0.0,-0.5255430617562928,0.0,0.1331259264357946,0.0,-3.487124386421766,0.0,-0.018962558038526357,0.0,-0.01289656169475825,0.3473804682733053,0.10977808246929974,0.11501809156683054,0.0,0.0,0.0,0.3488650891776456,0.11501809156683054,0.0,0.0,0.10891648326808871,0.0,0.0,0.00024708014562541407,0.0,1.3640279515554192,0.0,4.137277244629694,0.0,0.180833446073182,0.0,84.70890678240197,-1.5723365445909,0.0,-4.0626829856757345,0.0,0.180833446073182,0.0
sim_raptor_glider_3dof,raptor_glider_3dof,0.041,-14.513484222703866,0.0,-0.011273498737331609,11.739416436316668,0.0,-0.6014285412167901,0.0,0.0,0.0,3.751003697747781,0.06546736478018099,0.0027847047895493164,0.0,0.0,0.0,0.0,0.0,-0.01603376272655596,-0.918666933945828,0.0,0.0,11.754812399840844,0.011273498737331609,0.034543514061068044,-0.05118680194459565,-2.932787718197366,0.0,0.0,0.03515303921803969,2.0141207842515376,-5.518104438466165,0.0,-4.150121377918916,11.747550224326393,0.0,-0.41313228194005996,0.0,23.90314040386824,0.0,0.0,0.06546736478018099,0.0,-0.2550322429170053,0.3490658503988659,1.0,0.14,0.14,0.75,0.08726646259971647,5.0,0.184,0.175,0.174,0.0,0.0,0.0,-0.03635117158398884,0.0,0.019949991646803836,0.0,6.008546399793286,0.0,-0.5255878025696671,0.0,0.13267282996665053,0.0,-3.48657478120387,0.0,-0.01883691729128122,0.0,-0.01286216825250722,0.34573524451024046,0.10988031489262975,0.11497732370585104,0.0,0.0,0.0,0.3480777284215232,0.11497732370585104,0.0,0.0,0.10852104348370212,0.0,0.0,0.00038985867053690436,0.0,1.3623158478599589,0.0,4.1242202412788025,0.0,0.18001455038153172,0.0,84.63257946069938,-1.5715450141459566,0.0,-4.04911636488965,0.0,0.18001455038153172,0.0
sim_raptor_glider_3dof,raptor_glider_3dof,0.042,-14.501739411151622,0.0,-0.01168912344372773,11.733906763812184,0.0,-0.6054167888817734,0.0,0.0,0.0,5.117408854075249,0.08931563367432313,0.0038008222207668195,0.0,0.0,0.0,0.0,0.0,-0.01595637123451203,-0.9142327280814904,0.0,0.0,11.749514774240561,0.01168912344372773,0.034527946087867877,-0.051549789146821755,-2.9535853529021834,0.0,0.0,0.03559341791230973,2.039352624820693,-5.501240505892318,0.0,-3.826374378014261,11.742072880359869,0.0,-0.4181170917512784,0.0,23.793397135695344,0.0,0.0,0.08931563367432313,0.0,-0.2550322429170053,0.3490658503988659,1.0,0.14,0.14,0.75,0.08726646259971647,5.0,0.184,0.175,0.174,0.0,0.0,0.0,-0.03639805870519742,0.0,0.019941772267771544,0.0,6.008439048855546,0.0,-0.525629212927347,0.0,0.132251592871567,0.0,-3.4860634566619293,0.0,-0.01872015490194466,0.0,-0.01283032904825905,0.34420588400550806,0.10997522516602315,0.11493971636101562,0.0,0.0,0.0,0.34740306521636993,0.11493971636101562,0.0,0.0,0.10812023812315141,0.0,0.0,0.0005321151109073548,0.0,1.3606430038772381,0.0,4.112517110512773,0.0,0.17918807382892163,0.0,84.55631270741071,-1.570741039456221,0.0,-4.0369442596137475,0.0,0.17918807382892163,0.0
sim_raptor_glider_3dof,raptor_glider_3dof,0.043000000000000003,-14.490000076465433,0.0,-0.012109711809771898,11.728413901851464,0.0,-0.6090845442075447,0.0,0.0,0.0,6.477498478128655,0.11305367573626693,0.0048131628455879176,0.0,0.0,0.0,0.0,0.0,-0.0158551865892863,-0.9084352749585276,0.0,0.0,11.744218860151372,0.012109711809771898,0.03451238314423395,-0.05188577689522729,-2.972836032853924,0.0,0.0,0.03603059030594099,2.0644007578953962,-5.484483350395782,0.0,-3.5091368393353495,11.73659649217103,0.0,-0.4230595881124317,0.0,23.682686659180398,0.0,0.0,0.11305367573626693,0.0,-0.2550322429170053,0.3490658503988659,1.0,0.14,0.14,0.75,0.08726646259971647,5.0,0.184,0.175,0.174,0.0,0.0,0.0,-0.03644142824839017,0.0,0.019934164406599897,0.0,6.008339197837512,0.0,-0.5256673903798548,0.0,0.13186162683463215,0.0,-3.485589778071704,0.0,-0.018612098133370652,0.0,-0.012800970751708877,0.34279021746233523,0.1100629743401825,0.11490515335422084,0.0,0.0,0.0,0.3468388935610362,0.11490515335422084,0.0,0.0,0.1077142347701139,0.0,0.0,0.0006738427983823084,0.0,1.3590079181569983,0.0,4.102138058344501,0.0,0.17835431323028758,0.0,84.48010495649848,-1.5699261457176468,0.0,-4.0261359972464845,0.0,0.17835431323028758,0.0
sim_raptor_glider_3dof,raptor_glider_3dof,0.044,-14.4782662179044,0.0,-0.01253522852007572,11.722937745557546,0.0,-0.612437465776908,0.0,0.0,0.0,7.83122487868643,0.1366806585971717,0.005821685721302177,0.0,0.0,0.0,0.0,0.0,-0.015730305586388306,-0.9012801205511115,0.0,0.0,11.738924526365484,0.01253522852007572,0.03449682484458986,-0.05219521039806523,-2.9905652666064872,0.0,0.0,0.036464904811676926,2.089285146055376,-5.467860532336718,0.0,-3.198318425558874,11.731120830062702,0.0,-0.4279639075600265,0.0,23.571042732607346,0.0,0.0,0.1366806585971717,0.0,-0.2550322429170053,0.3490658503988659,1.0,0.14,0.14,0.75,0.08726646259971647,5.0,0.184,0.175,0.174,0.0,0.0,0.0,-0.03648134443546493,0.0,0.019927158382485804,0.0,6.008246826415907,0.0,-0.525702420378317,0.0,0.13150242904433038,0.0,-3.485153206794858,0.0,-0.018512598917959557,0.0,-0.012774029046489136,0.34148638725343755,0.11014370164871613,0.11487353219704372,0.0,0.0,0.0,0.3463833247197542,0.11487353219704372,0.0,0.0,0.1073031763162394,0.0,0.0,0.0008150360009823048,0.0,1.3574092504622015,0.0,4.093057122801236,0.0,0.17751352281926594,0.0,84.40395428786003,-1.5691016352145981,0.0,-4.016664853099044,0.0,0.17751352281926594,0.0
