name,vehicle,t,north,east,down,u,v,w,p_rad,p_deg,p_hat_div_b,q_deg,q_rad,q_hat_div_c,r_rad,r_deg,r_hat_div_b,phi_rad,phi_deg,theta_rad,theta_deg,psi_rad,psi_deg,speed,altitude,mach,alpha_rad,alpha_deg,beta_rad,beta_deg,gamma_rad,gamma_deg,u_dot,v_dot,w_dot,north_dot,east_dot,down_dot,p_rad_dot,q_rad_dot,r_rad_dot,phi_rad_dot,theta_rad_dot,psi_rad_dot,del_tail_alt_rad,del_tail_splay_rad,DIM_b,DIM_c_bar,DIM_S,DIM_wing_position,DIM_wing_incidence_rad,DIM_wing_incidence_deg,DIM_empennage_length,DIM_nose_length,DIM_tail_length,CDp,CDq,CDr,CYp,CYq,CYr,CLp,CLq,CLr,Clp,Clq,Clr,Cmp,Cmq,Cmr,Cnp,Cnq,Cnr,CL_0,Cm_0,CD_0,Cl_0,CY_0,Cn_0,CL,CD,CY,Cl,Cm,Cn,p_hat,q_hat,r_hat,drag_force_wind,side_force_wind,lift_force_wind,roll_moment_wind,pitch_moment_wind,yaw_moment_wind,qbar,X_total,Y_total,Z_total,L_total,M_total,N_total
sim_raptor_glider_3dof,raptor_glider_3dof,0.0,-15.0,0.0,0.0,12.0,0.0,0.0,0.0,0.0,0.0,0.0,0.0,0.0,0.0,0.0,0.0,0.0,0.0,0.0,0.0,0.0,0.0,12.0,-0.0,0.035264039495724236,0.0,0.0,0.0,0.0,0.0,0.0,-7.487178041450953,0.0,-25.024054441263395,12.0,0.0,0.0,0.0,-89.41363838472799,0.0,0.0,0.0,0.0,0.4363323129985824,0.3490658503988659,1.0,0.14,0.14,0.75,0.08726646259971647,5.0,0.184,0.175,0.174,0.0,0.0,0.0,-0.053153656886407115,0.0,0.055671173493162154,0.0,6.024209384397437,0.0,-0.5269202128147928,0.0,0.19813275846416445,0.0,-3.4552995296441478,0.0,-0.03588346466142729,0.0,-0.029845922084054996,0.7757079658211316,-0.38952171953159265,0.1667455120831285,0.0,0.0,0.0,0.7757079658211316,0.1667455120831285,0.0,0.0,-0.38952171953159265,0.0,0.0,0.0,0.0,2.0589739613990123,0.0,9.578443721347433,0.0,-0.6733741106753866,0.0,88.20001620075907,-2.0589739613990123,0.0,-9.578443721347433,0.0,-0.6733741106753866,0.0
sim_raptor_glider_3dof,raptor_glider_3dof,0.001,-14.988003746590733,0.0,-0.000012415174634177188,11.992502827180262,0.0,-0.02526770405029525,0.0,0.0,0.0,-5.103039651887635,-0.0890648437852645,-0.0037133468875430262,0.0,0.0,0.0,0.0,0.0,-0.000044590487564095195,-0.0025548467438532376,0.0,0.0,11.992529446150822,0.000012415174634177188,0.03524208600355821,-0.002106955238988487,-0.12071964281701804,0.0,0.0,0.002062364751424392,0.1181647960731648,-7.507675599275719,0.0,-25.508550485583747,11.99250394195709,0.0,-0.024732952477174667,0.0,-88.71856693472195,0.0,0.0,-0.0890648437852645,0.0,0.4363323129985824,0.3490658503988659,1.0,0.14,0.14,0.75,0.08726646259971647,5.0,0.184,0.175,0.174,0.0,0.0,0.0,-0.053430186057496054,0.0,0.0554080780660455,0.0,6.0240249874908525,0.0,-0.5274002219771142,0.0,0.1957017793236076,0.0,-3.453669819760639,0.0,-0.03525814560644711,0.0,-0.029499655008724115,0.7671435812705255,-0.38877083359862435,0.165760584735996,0.0,0.0,0.0,0.7640118800492363,0.165760584735996,0.0,0.0,-0.386975379228011,0.0,0.0,-0.0005198685642560238,0.0,2.0442643995802876,0.0,9.422277857722193,0.0,-0.6681395275853911,0.0,88.09023322213056,-2.064112165078258,0.0,-9.417949773357746,0.0,-0.6681395275853911,0.0
sim_raptor_glider_3dof,raptor_glider_3dof,0.002,-14.976014997218163,0.0,-0.000049270492086499364,11.984983638081903,0.0,-0.051011581957007696,0.0,0.0,0.0,-10.166686259086081,-0.1774421492383174,-0.0074026192836820276,0.0,0.0,0.0,0.0,0.0,-0.00017790069037163533,-0.010192958730758345,0.0,0.0,11.985092197667264,0.000049270492086499364,0.03522023038486956,-0.004256265628603735,-0.24386605700559036,0.0,0.0,0.0040783649382321,0.233673098274832,-7.5312069778045,0.0,-25.97647568606275,11.984992523423195,0.0,-0.04887944429772272,0.0,-88.03854836579413,0.0,0.0,-0.1774421492383174,0.0,0.4363323129985824,0.3490658503988659,1.0,0.14,0.14,0.75,0.08726646259971647,5.0,0.184,0.175,0.174,0.0,0.0,0.0,-0.05371000072613438,0.0,0.05518325282971427,0.0,6.023796383437123,0.0,-0.5278990096560925,0.0,0.1932332307470952,0.0,-3.4519868033346692,0.0,-0.03462545852853912,0.0,-0.029153229463314653,0.758374006898808,-0.388063512765844,0.16478068235403653,0.0,0.0,0.0,0.7521311449211472,0.16478068235403653,0.0,0.0,-0.38448598859501065,0.0,0.0,-0.001036366699715484,0.0,2.0296598650783366,0.0,9.264255835778041,0.0,-0.6630183077427956,0.0,87.98100758981425,-2.069072495287059,0.0,-9.25553317577674,0.0,-0.6630183077427956,0.0
sim_raptor_glider_3dof,raptor_glider_3dof,0.003,-14.964033765483153,0.0,-0.00010997650410396534,11.977439408842296,0.0,-0.07721526894416839,0.0,0.0,0.0,-15.191799193026208,-0.2651469152201249,-0.011068367643203196,0.0,0.0,0.0,0.0,0.0,-0.0003992506169425001,-0.022875375318799577,0.0,0.0,11.97768829909372,0.00010997650410396534,0.035198472770559576,-0.006446636600632963,-0.3693650692708328,0.0,0.0,0.006047385983690463,0.3464896939520332,-7.557751963901034,0.0,-26.428240508352538,11.977469282477013,0.0,-0.07243326284374174,0.0,-87.37346069275941,0.0,0.0,-0.2651469152201249,0.0,0.4363323129985824,0.3490658503988659,1.0,0.14,0.14,0.75,0.08726646259971647,5.0,0.184,0.175,0.174,0.0,0.0,0.0,-0.0539933342342998,0.0,0.0549956890768542,0.0,6.023523849844041,0.0,-0.5284156910211553,0.0,0.1907277346999606,0.0,-3.450251759098094,0.0,-0.033984927296559594,0.0,-0.028807107836358457,0.7494038488665931,-0.387399686775176,0.16380724554970857,0.0,0.0,0.0,0.7400699681597184,0.16380724554970857,0.0,0.0,-0.38205327508479314,0.0,0.0,-0.0015495714700484477,0.0,2.015177614704102,0.0,9.104435082498677,0.0,-0.6580095324771711,0.0,87.87233904709669,-2.0738283182350847,0.0,-9.09125486919839,0.0,-0.6580095324771711,0.0
sim_raptor_glider_3dof,raptor_glider_3dof,0.004,-14.95206006146447,0.0,-0.00019393750269191865,11.969867139046595,0.0,-0.10386280993339823,0.0,0.0,0.0,-20.179227607931264,-0.35219396226773997,-0.01471113674262299,0.0,0.0,0.0,0.0,0.0,-0.0007079751977142588,-0.040563990828967035,0.0,0.0,11.970317740549529,0.00019393750269191865,0.03517681313159225,-0.008676805031272569,-0.49714430794979647,0.0,0.0,0.00796882983355831,0.4565803171208294,-7.587282867422961,0.0,-26.864252771312174,11.96993767151242,0.0,-0.09538841555743248,0.0,-86.72306067972036,0.0,0.0,-0.35219396226773997,0.0,0.4363323129985824,0.3490658503988659,1.0,0.14,0.14,0.75,0.08726646259971647,5.0,0.184,0.175,0.174,0.0,0.0,0.0,-0.054280487125545326,0.0,0.054843901706905056,0.0,6.023207997132767,0.0,-0.5289492506950555,0.0,0.18818569052618506,0.0,-3.4484661334741316,0.0,-0.033335929119057396,0.0,-0.028461722112779208,0.7402377623774763,-0.38677875516894367,0.16284159593212236,0.0,0.0,0.0,0.727832609270965,0.16284159593212236,0.0,0.0,-0.37967643521108574,0.0,0.0,-0.0020595591439672187,0.0,2.000833340210975,0.0,8.942873240625298,0.0,-0.6531113699789741,0.0,87.76422654166264,-2.078352616244555,0.0,-8.925175978978858,0.0,-0.6531113699789741,0.0
sim_raptor_glider_3dof,raptor_glider_3dof,0.005,-14.94009389182307,0.0,-0.0003005518855746,11.962263859629724,0.0,-0.13093865674169305,0.0,0.0,0.0,-25.12980322664479,-0.4385978066832464,-0.01833146045868009,0.0,0.0,0.0,0.0,0.0,-0.0011034240774344013,-0.06322154265010774,0.0,0.0,11.962980463882431,0.0003005518855746,0.035155251297077285,-0.010945539172903748,-0.6271331991024985,0.0,0.0,0.009842115095469346,0.5639116564523908,-7.619764933048298,0.0,-27.284916404279006,11.96240105817221,0.0,-0.11773912974501546,0.0,-86.08698535636344,0.0,0.0,-0.4385978066832464,0.0,0.4363323129985824,0.3490658503988659,1.0,0.14,0.14,0.75,0.08726646259971647,5.0,0.184,0.175,0.174,0.0,0.0,0.0,-0.05457182683161292,0.0,0.05472593032343835,0.0,6.022849768199583,0.0,-0.529498543215881,0.0,0.18560727572066893,0.0,-3.446631540314975,0.0,-0.03267769521599154,0.0,-0.028117473742245224,0.7308804509402165,-0.3861995880247053,0.16188493539638366,0.0,0.0,0.0,0.7154233824078116,0.16188493539638366,0.0,0.0,-0.37735413745313595,0.0,0.0,-0.002566404464215213,0.0,1.9866411722863777,0.0,8.779628219436473,0.0,-0.6483210867187731,0.0,87.65666831823584,-2.0826180146542357,0.0,-8.757357879177162,0.0,-0.6483210867187731,0.0
sim_raptor_glider_3dof,raptor_glider_3dof,0.006,-14.92813525992473,0.0,-0.0004292124397594923,11.954626639550906,0.0,-0.15842765930436845,0.0,0.0,0.0,-30.04433358782197,-0.5243725426750143,-0.02192985685369944,0.0,0.0,0.0,0.0,0.0,-0.0015849610904613313,-0.09081158117588696,0.0,0.0,11.955676367913814,0.0004292124397594923,0.03513378696968413,-0.01325163807797221,-0.7592629335026617,0.0,0.0,0.01166667698751088,0.6684513523267749,-7.65515672930522,0.0,-27.690630360815796,11.954862725505864,0.0,-0.13947985016959272,0.0,-85.46475387002384,0.0,0.0,-0.5243725426750143,0.0,0.4363323129985824,0.3490658503988659,1.0,0.14,0.14,0.75,0.08726646259971647,5.0,0.184,0.175,0.174,0.0,0.0,0.0,-0.05486778710977721,0.0,0.05463934182373924,0.0,6.022450437086101,0.0,-0.5300622937916623,0.0,0.18299244783751023,0.0,-3.444749760445701,0.0,-0.03200931203935526,0.0,-0.02777473367758559,0.7213366671206888,-0.3856605284654083,0.16093834608201854,0.0,0.0,0.0,0.7028466604815571,0.16093834608201854,0.0,0.0,-0.37508452678533377,0.0,0.0,-0.003070179959517922,0.0,1.9726136922696764,0.0,8.61475825857789,0.0,-0.6436350613951496,0.0,87.54966199755503,-2.0865968109073574,0.0,-8.58786227075033,0.0,-0.6436350613951496,0.0
sim_raptor_glider_3dof,raptor_glider_3dof,0.007,-14.916184165882276,0.0,-0.0005793064854676666,11.946952592434664,0.0,-0.18631506489291877,0.0,0.0,0.0,-34.923595341205655,-0.6095317253381911,-0.025506823267053384,0.0,0.0,0.0,0.0,0.0,-0.00215196395569408,-0.12329845232554847,0.0,0.0,11.94840531406963,0.0005793064854676666,0.03511241974218939,-0.015593931681301612,-0.8934664713539263,0.0,0.0,0.013441967725607532,0.7701680190283778,-7.693410528399182,0.0,-28.081787400130356,11.947325872576652,0.0,-0.1606052419691676,0.0,-84.85576962259707,0.0,0.0,-0.6095317253381911,0.0,0.4363323129985824,0.3490658503988659,1.0,0.14,0.14,0.75,0.08726646259971647,5.0,0.184,0.175,0.174,0.0,0.0,0.0,-0.05516886739682447,0.0,0.05458123429015566,0.0,6.022011606567932,0.0,-0.5306390995932566,0.0,0.18034094615955698,0.0,-3.442822740123928,0.0,-0.031329722669104235,0.0,-0.027433842397851762,0.7116112100401488,-0.3851593965008954,0.16000279048359145,0.0,0.0,0.0,0.6901068760336266,0.16000279048359145,0.0,0.0,-0.3728652305367967,0.0,0.0,-0.0035709552573874744,0.0,1.9587619456352325,0.0,8.448321951825605,0.0,-0.6390488010277785,0.0,87.4432046606849,-2.090261009781001,0.0,-8.416751218395161,0.0,-0.6390488010277785,0.0
sim_raptor_glider_3dof,raptor_glider_3dof,0.008,-14.904240606651282,0.0,-0.0007502161182813057,11.939238882633015,0.0,-0.21458650998107728,0.0,0.0,0.0,-39.768327695755914,-0.6940882563029905,-0.02906283149078703,0.0,0.0,0.0,0.0,0.0,-0.0028038236298313884,-0.16064726048838937,0.0,0.0,11.941167131685324,0.0007502161182813057,0.035091149113066274,-0.017971280258754233,-1.0296785112733915,0.0,0.0,0.015167456628922844,0.8690312507850021,-7.734472659743328,0.0,-28.458772998507442,11.939793614875626,0.0,-0.18111019026309105,0.0,-84.25932271685393,0.0,0.0,-0.6940882563029905,0.0,0.4363323129985824,0.3490658503988659,1.0,0.14,0.14,0.75,0.08726646259971647,5.0,0.184,0.175,0.174,0.0,0.0,0.0,-0.05547563193059443,0.0,0.054548242134604644,0.0,6.021535204946049,0.0,-0.5312274312413525,0.0,0.17765229454057654,0.0,-3.440852589499303,0.0,-0.030637728722487007,0.0,-0.027095110104628704,0.7017089249620452,-0.38469349440195466,0.1590791122370665,0.0,0.0,0.0,0.6772085241452388,0.1590791122370665,0.0,0.0,-0.37069336574289874,0.0,0.0,-0.004068796408710184,0.0,1.9450954633896698,0.0,8.280378294547667,0.0,-0.634556959380627,0.0,87.33729292823296,-2.0935823601488033,0.0,-8.244087212286694,0.0,-0.634556959380627,0.0
sim_raptor_glider_3dof,raptor_glider_3dof,0.009000000000000001,-14.892304576113405,0.0,-0.0009413184291606596,11.931482731000013,0.0,-0.24322801242629782,0.0,0.0,0.0,-44.57922600410458,-0.7780542717623,-0.03259832301805841,0.0,0.0,0.0,0.0,0.0,-0.0035399435977275817,-0.2028238278641469,0.0,0.0,11.933961623290918,0.0009413184291606596,0.03506997450201568,-0.020382573901800104,-1.1678354601866447,0.0,0.0,0.01684263030407252,0.9650116323224979,-7.778283843616755,0.0,-28.821964269395146,11.932268984822977,0.0,-0.20098980076623565,0.0,-83.67459264387269,0.0,0.0,-0.7780542717623,0.0,0.4363323129985824,0.3490658503988659,1.0,0.14,0.14,0.75,0.08726646259971647,5.0,0.184,0.175,0.174,0.0,0.0,0.0,-0.055788708736007504,0.0,0.0545365423304085,0.0,6.021023482042527,0.0,-0.531825634606743,0.0,0.17492580464570248,0.0,-3.4388415806117196,0.0,-0.029931992558805562,0.0,-0.02675881698380161,0.6916347024036031,-0.3842596132891834,0.15816803727685969,0.0,0.0,0.0,0.6641561648322319,0.15816803727685969,0.0,0.0,-0.3685655476778038,0.0,0.0,-0.004563765222528177,0.0,1.9316222876944662,0.0,8.110986723910683,0.0,-0.6301533572010052,0.0,87.23192303897322,-2.096532395351765,0.0,-8.0699332223392,0.0,-0.6301533572010052,0.0
sim_raptor_glider_3dof,raptor_glider_3dof,0.01,-14.88037606515921,0.0,-0.0011519857253842968,11.923681420343334,0.0,-0.27222596258209436,0.0,0.0,0.0,-49.356935507178044,-0.8614410332947542,-0.03611370438294382,0.0,0.0,0.0,0.0,0.0,-0.004359739052099519,-0.24979464746366856,0.0,0.0,11.926788569792983,0.0011519857253842968,0.03504889526519434,-0.022826731891997996,-1.3078753974881616,0.0,0.0,0.01846699283989848,1.058080750024493,-7.824779502619,0.0,-29.171728920063018,11.924754932281528,0.0,-0.22023940058925584,0.0,-83.10065118556057,0.0,0.0,-0.8614410332947542,0.0,0.4363323129985824,0.3490658503988659,1.0,0.14,0.14,0.75,0.08726646259971647,5.0,0.184,0.175,0.174,0.0,0.0,0.0,-0.05610878847395166,0.0,0.05454186162840115,0.0,6.020479004498773,0.0,-0.5324319328652451,0.0,0.17216057968112747,0.0,-3.4367921450673697,0.0,-0.02921103978427371,0.0,-0.02642521354291394,0.6813934773072167,-0.3838540408424605,0.15727017538811427,0.0,0.0,0.0,0.6509544254455103,0.15727017538811427,0.0,0.0,-0.3664778994650984,0.0,0.0,-0.0050559186136121355,0.0,1.9183490019530007,0.0,7.940207158086878,0.0,-0.6258310040784566,0.0,87.12709092666549,-2.099082476605616,0.0,-7.894352751368246,0.0,-0.6258310040784566,0.0
sim_raptor_glider_3dof,raptor_glider_3dof,0.01,-14.88037606515921,0.0,-0.0011519857253842968,11.923681420343334,0.0,-0.27222596258209436,0.0,0.0,0.0,-49.356935507178044,-0.8614410332947542,-0.03611370438294382,0.0,0.0,0.0,0.0,0.0,-0.004359739052099519,-0.24979464746366856,0.0,0.0,11.926788569792983,0.0011519857253842968,0.03504889526519434,-0.022826731891997996,-1.3078753974881616,0.0,0.0,0.01846699283989848,1.058080750024493,-5.534779199968317,0.0,-20.399733785815513,11.924754932281528,0.0,-0.22023940058925584,0.0,18.240524699255705,0.0,0.0,-0.8614410332947542,0.0,-0.19794348545084497,0.3490658503988659,1.0,0.14,0.14,0.75,0.08726646259971647,5.0,0.184,0.175,0.174,0.0,0.0,0.0,0.0013621486452997185,0.0,0.009535425788713461,0.0,6.036458254242765,0.0,-0.5175632382121077,0.0,0.16527063298878006,0.0,-3.609892166349494,0.0,-0.03828853236034398,0.0,-0.011686447936769684,0.48258220890526377,0.06219027701165376,0.11016936612827016,0.0,0.0,0.0,0.45206236725734517,0.11016936612827016,0.0,0.0,0.0804415980086328,0.0,0.0,-0.0050559186136121355,0.0,1.3438230931987256,0.0,5.51416305671761,0.0,0.13736939151009472,0.0,87.12709092666549,-1.469332393376678,0.0,-5.482054089450181,0.0,0.13736939151009472,0.0
sim_raptor_glider_3dof,raptor_glider_3dof,0.011,-14.868453938245043,0.0,-0.001377243300598843,11.918139985987109,0.0,-0.29235833571167835,0.0,0.0,0.0,-48.31144361803256,-0.84319375752627,-0.035363747122486244,0.0,0.0,0.0,0.0,0.0,-0.005212053187775162,-0.29862865025722357,0.0,0.0,11.921725299722556,0.001377243300598843,0.035034015985549255,-0.024525615179303874,-1.4052142397360998,0.0,0.0,0.019313561991528713,1.1065855894788763,-5.547845013737774,0.0,-19.866185214839813,11.919501885543577,0.0,-0.23023666642832846,0.0,18.253646958271922,0.0,0.0,-0.84319375752627,0.0,-0.19794348545084497,0.3490658503988659,1.0,0.14,0.14,0.75,0.08726646259971647,5.0,0.184,0.175,0.174,0.0,0.0,0.0,0.001350552098353549,0.0,0.009543546269529092,0.0,6.036480134181802,0.0,-0.517765817944765,0.0,0.1633090521552436,0.0,-3.608410789274608,0.0,-0.0377874810495951,0.0,-0.011521556169641291,0.47550141694375103,0.06270289037253361,0.10987883271026096,0.0,0.0,0.0,0.44561525896723464,0.10987883271026096,0.0,0.0,0.08056786010576777,0.0,0.0,-0.004950924597148075,0.0,1.3391414929872687,0.0,5.430908469557893,0.0,0.13746821524274586,0.0,87.05313063984927,-1.471921781022485,0.0,-5.396435213500429,0.0,0.13746821524274586,0.0
sim_raptor_glider_3dof,raptor_glider_3dof,0.012,-14.856537060278693,0.0,-0.0016123483781338606,11.912586493430586,0.0,-0.3119613032826907,0.0,0.0,0.0,-47.26529118300832,-0.824934953057341,-0.03461264411548803,0.0,0.0,0.0,0.0,0.0,-0.0060461182735036464,-0.3464170595086829,0.0,0.0,11.916670542488395,0.0016123483781338606,0.035019161722320356,-0.02618155341579786,-1.5000925118215416,0.0,0.0,0.020135435142294215,1.1536754523128587,-5.5588557956352656,0.0,-19.340917864847896,11.9142549019859,0.0,-0.23993113327702284,0.0,18.26350569354846,0.0,0.0,-0.824934953057341,0.0,-0.19794348545084497,0.3490658503988659,1.0,0.14,0.14,0.75,0.08726646259971647,5.0,0.184,0.175,0.174,0.0,0.0,0.0,0.0013391872249862503,0.0,0.009551402452137855,0.0,6.036488721082641,0.0,-0.5179598507302143,0.0,0.16139613631963118,0.0,-3.606956792705584,0.0,-0.03729948019806471,0.0,-0.011362743832765311,0.4685881015368558,0.06320129210282444,0.10960124950114918,0.0,0.0,0.0,0.4393366645234571,0.10960124950114918,0.0,0.0,0.08067977575564492,0.0,0.0,-0.004845770176168325,0.0,1.3346259938764362,0.0,5.349848977130772,0.0,0.13754246137811346,0.0,86.97932602769424,-1.4742199496971786,0.0,-5.313076901528217,0.0,0.13754246137811346,0.0
sim_raptor_glider_3dof,raptor_glider_3dof,0.013000000000000001,-14.84462542639086,0.0,-0.0018570094840581579,11.90702290835154,0.0,-0.3310428661541863,0.0,0.0,0.0,-46.21865935256294,-0.8066677815598939,-0.033860529360939605,0.0,0.0,0.0,0.0,0.0,-0.006861920538228012,-0.3931590861946034,0.0,0.0,11.911623899336309,0.0018570094840581579,0.03500433130370069,-0.027795160296973643,-1.5925453759061816,0.0,0.0,0.02093323975874563,1.1993862897115783,-5.5679122181095915,0.0,-18.8238905044634,11.909014154703838,0.0,-0.2493306685981174,0.0,18.270186174258733,0.0,0.0,-0.8066677815598939,0.0,-0.19794348545084497,0.3490658503988659,1.0,0.14,0.14,0.75,0.08726646259971647,5.0,0.184,0.175,0.174,0.0,0.0,0.0,0.0013280590872641084,0.0,0.009558997704176678,0.0,6.036484978449701,0.0,-0.5181456667164566,0.0,0.1595312584851053,0.0,-3.605530424037575,0.0,-0.03682431840868673,0.0,-0.011209807804237772,0.46184111961879587,0.06368576673027931,0.10933612652017685,0.0,0.0,0.0,0.4332253188598425,0.10933612652017685,0.0,0.0,0.08077769036016326,0.0,0.0,-0.004740474110531545,0.0,1.33027012330681,0.0,5.270963191045215,0.0,0.13759277207834253,0.0,86.90567111354558,-1.476244695372426,0.0,-5.231956915122777,0.0,0.13759277207834253,0.0
sim_raptor_glider_3dof,raptor_glider_3dof,0.014,-14.832719029889313,0.0,-0.0021109205363964057,11.901451241161483,0.0,-0.3496116535384687,0.0,0.0,0.0,-45.171737175159215,-0.7883955425520508,-0.03310754227869026,0.0,0.0,0.0,0.0,0.0,-0.007659452621315817,-0.4388543085818115,0.0,0.0,11.906585150832884,0.0021109205363964057,0.03498952408484787,-0.029367102873875915,-1.6826110511996006,0.0,0.0,0.0217076502525601,1.2437567426177893,-5.575112835239502,0.0,-18.315048407537972,11.90377993808481,0.0,-0.25844368764536213,0.0,18.27377689935762,0.0,0.0,-0.7883955425520508,0.0,-0.19794348545084497,0.3490658503988659,1.0,0.14,0.14,0.75,0.08726646259971647,5.0,0.184,0.175,0.174,0.0,0.0,0.0,0.0013171714725646276,0.0,0.009566336056323066,0.0,6.036469827734545,0.0,-0.5183235909220013,0.0,0.15771372505732895,0.0,-3.6041318462028284,0.0,-0.03636177007335096,0.0,-0.011062546225579806,0.4552589824008236,0.06415660986824458,0.10908297828676256,0.0,0.0,0.0,0.4272796071958172,0.10908297828676256,0.0,0.0,0.08086196251490335,0.0,0.0,-0.004635055919016638,0.0,1.3260675262291322,0.0,5.194225722667777,0.0,0.13761981382906224,0.0,86.83216254635481,-1.4780131857056058,0.0,-5.1530488999254995,0.0,0.13761981382906224,0.0
sim_raptor_glider_3dof,raptor_glider_3dof,0.015,-14.820817864287315,0.0,-0.0023738046581522447,11.895873260960528,0.0,-0.3676756683765275,0.0,0.0,0.0,-44.12469577777999,-0.770121222763101,-0.03235380972308336,0.0,0.0,0.0,0.0,0.0,-0.008438711208210022,-0.48350253676017796,0.0,0.0,11.901553933749652,0.0023738046581522447,0.03497473899835332,-0.030897996969331345,-1.7703248217506946,0.0,0.0,0.02245928576112132,1.2868222849905164,-5.580551970183585,0.0,-17.814337696022584,11.898552371880555,0.0,-0.26727792944306494,0.0,18.274359603708668,0.0,0.0,-0.770121222763101,0.0,-0.19794348545084497,0.3490658503988659,1.0,0.14,0.14,0.75,0.08726646259971647,5.0,0.184,0.175,0.174,0.0,0.0,0.0,0.001306527682074936,0.0,0.009573421661234075,0.0,6.0364441496117704,0.0,-0.5184939314701696,0.0,0.15594289695692987,0.0,-3.6027612313037953,0.0,-0.03591162611794126,0.0,-0.010920768256385587,0.44884030129088337,0.06461409698820379,0.10884134097538053,0.0,0.0,0.0,0.4214980261320051,0.10884134097538053,0.0,0.0,0.08093292417794642,0.0,0.0,-0.004529533361231671,0.0,1.3220121007257937,0.0,5.1196125110640605,0.0,0.13762420217552998,0.0,86.75879488427807,-1.4795417009866687,0.0,-5.076327866967476,0.0,0.13762420217552998,0.0
sim_raptor_glider_3dof,raptor_glider_3dof,0.016,-14.808921922872125,0.0,-0.0026453866487861255,11.890290687083006,0.0,-0.385243014922101,0.0,0.0,0.0,-43.07770537362426,-0.7518477929737974,-0.03159945783600602,0.0,0.0,0.0,0.0,0.0,-0.00919969558303603,-0.5271037297131097,0.0,0.0,11.896529948009173,0.0026453866487861255,0.03495997516238847,-0.03238846781333486,-1.8557225105993977,0.0,0.0,0.023188772230298832,1.3286187808862882,-5.584321074853891,0.0,-17.32169812826168,11.893331595300287,0.0,-0.2758412008946965,0.0,18.272015372740807,0.0,0.0,-0.7518477929737974,0.0,-0.19794348545084497,0.3490658503988659,1.0,0.14,0.14,0.75,0.08726646259971647,5.0,0.184,0.175,0.174,0.0,0.0,0.0,0.0012961301772815874,0.0,0.009580259035374511,0.0,6.036408785210703,0.0,-0.5186569869404792,0.0,0.15421811979796143,0.0,-3.6014187084414417,0.0,-0.03547367608615575,0.0,-0.01078428811899858,0.4425835427386029,0.06505850182677259,0.10861076224961128,0.0,0.0,0.0,0.4158789284541202,0.10861076224961128,0.0,0.0,0.08099090483458038,0.0,0.0,-0.0044239240970408425,0.0,1.3180979196360751,0.0,5.047097903208186,0.0,0.137606547772111,0.0,86.68556361495727,-1.4808458187674596,0.0,-5.001767190839289,0.0,0.137606547772111,0.0
sim_raptor_glider_3dof,raptor_glider_3dof,0.017,-14.79703119879628,0.0,-0.0029253993201926176,11.884705145952264,0.0,-0.4023217331803674,0.0,0.0,0.0,-42.03093143228112,-0.7335781411732816,-0.030844609386497628,0.0,0.0,0.0,0.0,0.0,-0.009942408057601883,-0.5696580198974506,0.0,0.0,11.89151290556477,0.0029253993201926176,0.034945231730479205,-0.03383913627101346,-1.938839690697134,0.0,0.0,0.02389672821341158,1.3691816707996836,-5.586508480835735,0.0,-16.837065192541072,11.888117721396862,0.0,-0.2841412068379848,0.0,18.266823315296104,0.0,0.0,-0.7335781411732816,0.0,-0.19794348545084497,0.3490658503988659,1.0,0.14,0.14,0.75,0.08726646259971647,5.0,0.184,0.175,0.174,0.0,0.0,0.0,0.001285980734820939,0.0,0.00958685295266829,0.0,6.036364537285242,0.0,-0.5188130450885815,0.0,0.15253874003370466,0.0,-3.6001043771101973,0.0,-0.0350477121425111,0.0,-0.010652926230761577,0.43648709351239345,0.06549009242511164,0.10839080340307106,0.0,0.0,0.0,0.4104205906350037,0.10839080340307106,0.0,0.0,0.08103622628187346,0.0,0.0,-0.004318245314109668,0.0,1.3143192442796636,0.0,4.97665543186598,0.0,0.13756744638749496,0.0,86.61246440887257,-1.4819403943511478,0.0,-4.92933941121885,0.0,0.13756744638749496,0.0
sim_raptor_glider_3dof,raptor_glider_3dof,0.018000000000000002,-14.785145685104302,0.0,-0.00321358363936617,11.879118171377549,0.0,-0.4189197927134433,0.0,0.0,0.0,-40.98453464929779,-0.715315072027946,-0.030089383753060674,0.0,0.0,0.0,0.0,0.0,-0.010666853981520095,-0.6111657138234197,0.0,0.0,11.886502526911748,0.00321358363936617,0.03493050788125348,-0.03525061834281621,-2.0197116562698127,0.0,0.0,0.024583764361296116,1.4085459424463933,-5.58719944636828,0.0,-16.36037053605688,11.882910835736011,0.0,-0.2921855441787679,0.0,18.258860573369905,0.0,0.0,-0.715315072027946,0.0,-0.19794348545084497,0.3490658503988659,1.0,0.14,0.14,0.75,0.08726646259971647,5.0,0.184,0.175,0.174,0.0,0.0,0.0,0.0012760805063858072,0.0,0.009593208403988113,0.0,6.036312171401877,0.0,-0.5189623831077219,0.0,0.15090410575716298,0.0,-3.5988183088777497,0.0,-0.03463352916679017,0.0,-0.010526509071166753,0.43054927005548516,0.06590913115385628,0.1081810392758878,0.0,0.0,0.0,0.4051212221824837,0.1081810392758878,0.0,0.0,0.08106920267532716,0.0,0.0,-0.004212513725428494,0.0,1.310670521792887,0.0,4.908257927834835,0.0,0.13750747897804877,0.0,86.5394930681469,-1.4828395792560223,0.0,-4.859016349534355,0.0,0.13750747897804877,0.0
sim_raptor_glider_3dof,raptor_glider_3dof,0.019000000000000003,-14.773265374772995,0.0,-0.003509687635658675,11.873531219114412,0.0,-0.4350450966292289,0.0,0.0,0.0,-39.93867164199229,-0.6970613190256555,-0.029333897401897766,0.0,0.0,0.0,0.0,0.0,-0.01137304128687459,-0.6516272659659486,0.0,0.0,11.88149855226123,0.003509687635658675,0.03491580285127752,-0.03662352547592269,-2.0983734406602195,0.0,0.0,0.025250484189048097,1.4467461746942711,-5.586476240884974,0.0,-15.891542402742012,11.877711009286045,0.0,-0.29998171156052794,0.0,18.248202484967408,0.0,0.0,-0.6970613190256555,0.0,-0.19794348545084497,0.3490658503988659,1.0,0.14,0.14,0.75,0.08726646259971647,5.0,0.184,0.175,0.174,0.0,0.0,0.0,0.001266430069453092,0.0,0.009599330563212431,0.0,6.03625241708753,0.0,-0.5191052679733515,0.0,0.14931356655206718,0.0,-3.597560548297429,0.0,-0.034230924611894004,0.0,-0.010404868977993982,0.42476832397978803,0.0663158749739505,0.10798105803376039,0.0,0.0,0.0,0.3999789707065156,0.10798105803376039,0.0,0.0,0.08109014105687257,0.0,0.0,-0.004106745636265688,0.0,1.3071463840563848,0.0,4.841877592032418,0.0,0.13742721291428955,0.0,86.46664568889375,-1.4835568448210583,0.0,-4.79076918393716,0.0,0.13742721291428955,0.0
sim_raptor_glider_3dof,raptor_glider_3dof,0.02,-14.761390260716118,0.0,-0.003813466799062351,11.867945663961876,0.0,-0.45070547463433,0.0,0.0,0.0,-38.89349475464879,-0.6788195410757656,-0.028578263759008796,0.0,0.0,0.0,0.0,0.0,-0.01206098060832238,-0.6910432856460006,0.0,0.0,11.876500734964692,0.003813466799062351,0.03490111591573273,-0.037958464002038624,-2.1748597841160775,0.0,0.0,0.025897483393716246,1.483816498470077,-5.584418192723137,0.0,-15.430505986527335,11.872518293895588,0.0,-0.30753710139014084,0.0,18.234922563811562,0.0,0.0,-0.6788195410757656,0.0,-0.19794348545084497,0.3490658503988659,1.0,0.14,0.14,0.75,0.08726646259971647,5.0,0.184,0.175,0.174,0.0,0.0,0.0,0.0012570294807917565,0.0,0.00960522475205147,0.0,6.036185968989647,0.0,-0.5192419566898833,0.0,0.14776647434536797,0.0,-3.5963311145814147,0.0,-0.03383969861973822,0.0,-0.010287844024866584,0.41914245080308593,0.06671057543240425,0.10779046106543819,0.0,0.0,0.0,0.3949919307422559,0.10779046106543819,0.0,0.0,0.08109934131441754,0.0,0.0,-0.004000956926261233,0.0,1.3037416441508713,0.0,4.777486097768946,0.0,0.13732720182806488,0.0,86.39391856492668,-1.4841050007254624,0.0,-4.724568555528689,0.0,0.13732720182806488,0.0
sim_raptor_glider_3dof,raptor_glider_3dof,0.02,-14.761390260716118,0.0,-0.003813466799062351,11.867945663961876,0.0,-0.45070547463433,0.0,0.0,0.0,-38.89349475464879,-0.6788195410757656,-0.028578263759008796,0.0,0.0,0.0,0.0,0.0,-0.01206098060832238,-0.6910432856460006,0.0,0.0,11.876500734964692,0.003813466799062351,0.03490111591573273,-0.037958464002038624,-2.1748597841160775,0.0,0.0,0.025897483393716246,1.483816498470077,-5.597183591043572,0.0,-15.401022691984883,11.872518293895588,0.0,-0.30753710139014084,0.0,18.56501093969708,0.0,0.0,-0.6788195410757656,0.0,-0.20019671720184257,0.3490658503988659,1.0,0.14,0.14,0.75,0.08726646259971647,5.0,0.184,0.175,0.174,0.0,0.0,0.0,0.0007636896026944712,0.0,0.009889487809110729,0.0,6.0352793645242935,0.0,-0.5193053911734314,0.0,0.14775937538701053,0.0,-3.5928550525266294,0.0,-0.033684598497079096,0.0,-0.010398241169794306,0.4184799771286869,0.0681925424278955,0.10810593015911515,0.0,0.0,0.0,0.3943330843532719,0.10810593015911515,0.0,0.0,0.0825674007353546,0.0,0.0,-0.004000956926261233,0.0,1.3075572897173147,0.0,4.769517252790211,0.0,0.1398130973868587,0.0,86.39391856492668,-1.487615485263582,0.0,-4.716460649529515,0.0,0.1398130973868587,0.0
sim_raptor_glider_3dof,raptor_glider_3dof,0.021,-14.749520348049773,0.0,-0.004124664075296682,11.862350212585323,0.0,-0.46587767663821444,0.0,0.0,0.0,-37.830312501001764,-0.6602635102008514,-0.0278087767279223,0.0,0.0,0.0,0.0,0.0,-0.012730499771365176,-0.729403907991484,0.0,0.0,11.871495043827162,0.004124664075296682,0.03488640584156796,-0.03925346693971007,-2.2490579869016942,0.0,0.0,0.02652296716834489,1.5196540789102102,-5.593673629864954,0.0,-14.944794769715825,11.8673196814293,0.0,-0.31483035808770893,0.0,18.54698559786697,0.0,0.0,-0.6602635102008514,0.0,-0.20019671720184257,0.3490658503988659,1.0,0.14,0.14,0.75,0.08726646259971647,5.0,0.184,0.175,0.174,0.0,0.0,0.0,0.0007521560690747285,0.0,0.009894700089916659,0.0,6.035202139667777,0.0,-0.5194363965184005,0.0,0.14625826966294328,0.0,-3.591643580572467,0.0,-0.033304680015249714,0.0,-0.010285701153722702,0.4130190008428505,0.06857372067580346,0.10792531511764274,0.0,0.0,0.0,0.38952257840946447,0.10792531511764274,0.0,0.0,0.08255681069438157,0.0,0.0,-0.003893228741909122,0.0,1.3042725824554375,0.0,4.7073628528489895,0.0,0.13967734853753616,0.0,86.32110753320016,-1.4880007403888846,0.0,-4.652552610592349,0.0,0.13967734853753616,0.0
sim_raptor_glider_3dof,raptor_glider_3dof,0.022,-14.737655624785907,0.0,-0.004443050258377915,11.856758776632862,0.0,-0.48059745233623874,0.0,0.0,0.0,-36.768222074865726,-0.6417265353108679,-0.027039430664189727,0.0,0.0,0.0,0.0,0.0,-0.013381492805363103,-0.7667030613319817,0.0,0.0,11.866494958430332,0.004443050258377915,0.03487171224082498,-0.0405114515138752,-2.3211351936939186,0.0,0.0,0.0271299587085121,1.5544321323619368,-5.588974605262861,0.0,-14.496272659293389,11.862128150495444,0.0,-0.32189802682842494,0.0,18.526481197312275,0.0,0.0,-0.6417265353108679,0.0,-0.20019671720184257,0.3490658503988659,1.0,0.14,0.14,0.75,0.08726646259971647,5.0,0.184,0.175,0.174,0.0,0.0,0.0,0.0007409474389538087,0.0,0.00989970526372815,0.0,6.035119706782487,0.0,-0.5195616606746793,0.0,0.14479960084812993,0.0,-3.5904610309181235,0.0,-0.03293584050005745,0.0,-0.010177492910477544,0.4077103934735688,0.06894328816238227,0.10775332348792835,0.0,0.0,0.0,0.3848643253529406,0.10775332348792835,0.0,0.0,0.08253505125610028,0.0,0.0,-0.0037855202929865626,0.0,1.3010973753719797,0.0,4.647150986921692,0.0,0.13952292989695875,0.0,86.24840868383596,-1.4882411960311615,0.0,-4.590643181285477,0.0,0.13952292989695875,0.0
sim_raptor_glider_3dof,raptor_glider_3dof,0.023,-14.725796088299115,0.0,-0.0047683627066601,11.851172767431933,0.0,-0.4948736533933088,0.0,0.0,0.0,-35.70739599952956,-0.6232116275052424,-0.026270353550642576,0.0,0.0,0.0,0.0,0.0,-0.014013963054327928,-0.8029409372652547,0.0,0.0,11.861500575236807,0.0047683627066601,0.03485703539697554,-0.04173311202193912,-2.391131184803789,0.0,0.0,0.02771914896761119,1.5881902475385343,-5.583159938192418,0.0,-14.055361081639557,11.856943967788283,0.0,-0.32874859858584976,0.0,18.50357637830534,0.0,0.0,-0.6232116275052424,0.0,-0.20019671720184257,0.3490658503988659,1.0,0.14,0.14,0.75,0.08726646259971647,5.0,0.184,0.175,0.174,0.0,0.0,0.0,0.0007300601796687836,0.0,0.009904509854721896,0.0,6.035032655166734,0.0,-0.5196814232157424,0.0,0.14338260954452556,0.0,-3.58930725096431,0.0,-0.03257785694275968,0.0,-0.010073461753020648,0.402551778965162,0.06930151176220162,0.1075895803196727,0.0,0.0,0.0,0.3803558371494355,0.1075895803196727,0.0,0.0,0.08250244363006205,0.0,0.0,-0.0036778494970899607,0.0,1.298026892989785,0.0,4.5888468386871795,0.0,0.1393504337050175,0.0,86.17582331546133,-1.4883479753290685,0.0,-4.530696351355704,0.0,0.1393504337050175,0.0
sim_raptor_glider_3dof,raptor_glider_3dof,0.024,-14.713941733780759,0.0,-0.005100455275126941,11.84559291481305,0.0,-0.5087114542954865,0.0,0.0,0.0,-34.64792691831652,-0.6047204037149957,-0.025501616425726528,0.0,0.0,0.0,0.0,0.0,-0.014627926367489288,-0.8381184438852695,0.0,0.0,11.856511242654838,0.005100455275126941,0.03484237339520655,-0.042918836250740444,-2.4590681787805093,0.0,0.0,0.028290909883251156,1.6209497348952397,-5.576295814121391,0.0,-13.622003936061306,11.851766728073674,0.0,-0.3353867476904971,0.0,18.478320110387227,0.0,0.0,-0.6047204037149957,0.0,-0.20019671720184257,0.3490658503988659,1.0,0.14,0.14,0.75,0.08726646259971647,5.0,0.184,0.175,0.174,0.0,0.0,0.0,0.000719493084643995,0.0,0.009909119148047573,0.0,6.034941565081508,0.0,-0.5197958854322668,0.0,0.14200688901477854,0.0,-3.5881823518600076,0.0,-0.03223059718497735,0.0,-0.009973483657998045,0.3975420194869468,0.06964856519893309,0.10743376343749346,0.0,0.0,0.0,0.37599591239473323,0.10743376343749346,0.0,0.0,0.08245918819931042,0.0,0.0,-0.003570226299601714,0.0,1.295056848472283,0.0,4.532430641580292,0.0,0.13916022875132622,0.0,86.10334185954798,-1.48833120051627,0.0,-4.47269158327295,0.0,0.13916022875132622,0.0
sim_raptor_glider_3dof,raptor_glider_3dof,0.025,-14.70209255268916,0.0,-0.005439076067703189,11.84002045993433,0.0,-0.5221198835824501,0.0,0.0,0.0,-33.589975006175095,-0.5862556595203581,-0.02473333843521896,0.0,0.0,0.0,0.0,0.0,-0.015223412190806309,-0.8722372683212077,0.0,0.0,11.851527060446502,0.005439076067703189,0.03482772652868583,-0.044069335645539894,-2.524986938434873,0.0,0.0,0.028845923454733587,1.6527496701136655,-5.568450373411006,0.0,-13.196096134287526,11.84659664976236,0.0,-0.34182083367600247,0.0,18.4507892120469,0.0,0.0,-0.5862556595203581,0.0,-0.20019671720184257,0.3490658503988659,1.0,0.14,0.14,0.75,0.08726646259971647,5.0,0.184,0.175,0.174,0.0,0.0,0.0,0.0007092416958929339,0.0,0.009913539652664782,0.0,6.034846963491995,0.0,-0.5199052722752795,0.0,0.14067165438461626,0.0,-3.587086114038763,0.0,-0.03189383522895292,0.0,-0.009877411514161239,0.39267855884649333,0.06998471391942321,0.10728551893167543,0.0,0.0,0.0,0.3717818911171012,0.10728551893167543,0.0,0.0,0.08240559999909453,0.0,0.0,-0.003462667380930655,0.0,1.2921827514816173,0.0,4.47786571569536,0.0,0.13895289355592522,0.0,86.03096567184706,-1.4882008750211477,0.0,-4.416590968904956,0.0,0.13895289355592522,0.0
sim_raptor_glider_3dof,raptor_glider_3dof,0.026000000000000002,-14.690248538131149,0.0,-0.00578403173319781,11.834456313739299,0.0,-0.5351060930027648,0.0,0.0,0.0,-32.53366413031852,-0.5678195568120357,-0.0239656128691929,0.0,0.0,0.0,0.0,0.0,-0.01580044744415833,-0.9052989529685408,0.0,0.0,11.846547799784233,0.00578403173319781,0.03481309412496468,-0.04518516558955001,-2.588919284880972,0.0,0.0,0.029384718145391682,1.6836203319124312,-5.559687095043464,0.0,-12.777552813384327,11.841433647872526,0.0,-0.34805737401326337,0.0,18.421045503231237,0.0,0.0,-0.5678195568120357,0.0,-0.20019671720184257,0.3490658503988659,1.0,0.14,0.14,0.75,0.08726646259971647,5.0,0.184,0.175,0.174,0.0,0.0,0.0,0.000699302615197611,0.0,0.009917777205334708,0.0,6.03474935948522,0.0,-0.5200097856530733,0.0,0.1393762992253949,0.0,-3.586018441413026,0.0,-0.03156739176260041,0.0,-0.009785115794913543,0.3879594525317064,0.07031017457295034,0.10714452511862481,0.0,0.0,0.0,0.36771174716402183,0.10714452511862481,0.0,0.0,0.0823419327321671,0.0,0.0,-0.0033551858016870064,0.0,1.2894004428410142,0.0,4.4251228805783915,0.0,0.13872889368483446,0.0,85.95869133726868,-1.4879662603245973,0.0,-4.362364315179629,0.0,0.13872889368483446,0.0
sim_raptor_glider_3dof,raptor_glider_3dof,0.027,-14.67840968305529,0.0,-0.006135127703607121,11.828901366452644,0.0,-0.5476774074555223,0.0,0.0,0.0,-31.479119477918026,-0.549414280518348,-0.023198533964713337,0.0,0.0,0.0,0.0,0.0,-0.016359061749097178,-0.9373051950171708,0.0,0.0,11.841573294115205,0.006135127703607121,0.034798475694599325,-0.0462668969781958,-2.6508979280172014,0.0,0.0,0.02990783522909862,1.7135927330000305,-5.5500672693808175,0.0,-12.366284943952003,11.836277671869066,0.0,-0.3541030278270279,0.0,18.389151235211305,0.0,0.0,-0.549414280518348,0.0,-0.20019671720184257,0.3490658503988659,1.0,0.14,0.14,0.75,0.08726646259971647,5.0,0.184,0.175,0.174,0.0,0.0,0.0,0.0006896720083936079,0.0,0.009921837634771828,0.0,6.0346492329474675,0.0,-0.5201096214876388,0.0,0.13812019667995068,0.0,-3.5849792001952583,0.0,-0.0312510838459957,0.0,-0.009696469818747186,0.38338264714520415,0.0706251654337772,0.1070104693457257,0.0,0.0,0.0,0.3637833450178113,0.1070104693457257,0.0,0.0,0.08226844207717007,0.0,0.0,-0.003247794755059867,0.0,1.2867058995078666,0.0,4.374171789349506,0.0,0.13848869795237634,0.0,85.88651634975092,-1.4876361274579735,0.0,-4.309980239728629,0.0,0.13848869795237634,0.0
sim_raptor_glider_3dof,raptor_glider_3dof,0.028,-14.666575980466911,0.0,-0.006492176341715837,11.82335644515251,0.0,-0.5598410579731079,0.0,0.0,0.0,-30.426462534999107,-0.5310419509704348,-0.022432193332870845,0.0,0.0,0.0,0.0,0.0,-0.016899286987194586,-0.9682578211466023,0.0,0.0,11.83660338269902,0.006492176341715837,0.03478387076522677,-0.04731509387919171,-2.710955186542959,0.0,0.0,0.030415806891997122,1.742697365396357,-5.5396497548636185,0.0,-11.96220266473766,11.83112865777682,0.0,-0.35996433497494196,0.0,18.355167099621156,0.0,0.0,-0.5310419509704348,0.0,-0.20019671720184257,0.3490658503988659,1.0,0.14,0.14,0.75,0.08726646259971647,5.0,0.184,0.175,0.174,0.0,0.0,0.0,0.0006803458353320408,0.0,0.009925726665986479,0.0,6.034547037242188,0.0,-0.5202049678108792,0.0,0.13690272551321123,0.0,-3.58396824098605,0.0,-0.030944731416029308,0.0,-0.009611351494559515,0.3789460784776843,0.07092989997847671,0.10688305068573874,0.0,0.0,0.0,0.35999454086348354,0.10688305068573874,0.0,0.0,0.08218537756577024,0.0,0.0,-0.0031405070666019183,0.0,1.284095254049336,0.0,4.324982103716737,0.0,0.13823276342724694,0.0,85.81443829165589,-1.4872187472754088,0.0,-4.259407378579166,0.0,0.13823276342724694,0.0
sim_raptor_glider_3dof,raptor_glider_3dof,0.029,-14.65474742344383,0.0,-0.006854996884862989,11.817822315727867,0.0,-0.5716041801146782,0.0,0.0,0.0,-29.37581114489202,-0.5127046249224108,-0.02166667999975977,0.0,0.0,0.0,0.0,0.0,-0.017421157258873866,-0.9981587851671707,0.0,0.0,11.831637909640412,0.006854996884862989,0.0347692788787223,-0.048330313391424407,-2.769122979873223,0.0,0.0,0.03090915613255054,1.7709641947060522,-5.528491049726497,0.0,-11.565215478586195,11.825986528542304,0.0,-0.3656477151249684,0.0,18.319152257840713,0.0,0.0,-0.5127046249224108,0.0,-0.20019671720184257,0.3490658503988659,1.0,0.14,0.14,0.75,0.08726646259971647,5.0,0.184,0.175,0.174,0.0,0.0,0.0,0.0006713198796790715,0.0,0.009929449912496871,0.0,6.034443200221159,0.0,-0.520296005014654,0.0,0.135723270403991,0.0,-3.5829853998200076,0.0,-0.03064815728936108,0.0,-0.009529643188902398,0.37464767555431266,0.07122458696260787,0.10676197968110265,0.0,0.0,0.0,0.3563431865828841,0.10676197968110265,0.0,0.0,0.08209298269684748,0.0,0.0,-0.0030333351999663675,0.0,1.2815647906955778,0.0,4.277523540617924,0.0,0.13796153565379843,0.0,85.74245481956375,-1.4867219106288612,0.0,-4.210614434230136,0.0,0.13796153565379843,0.0
sim_raptor_glider_3dof,raptor_glider_3dof,0.03,-14.642924005141932,0.0,-0.007223414521502137,11.812299692523835,0.0,-0.5829738241546082,0.0,0.0,0.0,-28.327280023475126,-0.49440430454405754,-0.020902080769545275,0.0,0.0,0.0,0.0,0.0,-0.017924708556454946,-1.0270101492869026,0.0,0.0,11.826676731256677,0.007223414521502137,0.034754699612849854,-0.04931310646649215,-2.8254328752092883,0.0,0.0,0.03138839791003721,1.798422725922386,-5.516645384427915,0.0,-11.175232361140882,11.820851202205375,0.0,-0.37115948185098663,0.0,18.281164492448198,0.0,0.0,-0.49440430454405754,0.0,-0.20019671720184257,0.3490658503988659,1.0,0.14,0.14,0.75,0.08726646259971647,5.0,0.184,0.175,0.174,0.0,0.0,0.0,0.0006625897679803549,0.0,0.009933012873011302,0.0,6.034338125108361,0.0,-0.5203829061798071,0.0,0.134581221111585,0.0,-3.582030498246468,0.0,-0.03036118688569435,0.0,-0.009451231519655507,0.3704853603573692,0.07150943077236659,0.10664697797319415,0.0,0.0,0.0,0.35282712915392256,0.10664697797319415,0.0,0.0,0.0819914954834317,0.0,0.0,-0.0029262913077363387,0.0,1.2791109418389885,0.0,4.231765869557564,0.0,0.13767544979262739,0.0,85.67056377085356,-1.4861529503414326,0.0,-4.163570172877595,0.0,0.13767544979262739,0.0
sim_raptor_glider_3dof,raptor_glider_3dof,0.03,-14.642924005141932,0.0,-0.007223414521502137,11.812299692523835,0.0,-0.5829738241546082,0.0,0.0,0.0,-28.327280023475126,-0.49440430454405754,-0.020902080769545275,0.0,0.0,0.0,0.0,0.0,-0.017924708556454946,-1.0270101492869026,0.0,0.0,11.826676731256677,0.007223414521502137,0.034754699612849854,-0.04931310646649215,-2.8254328752092883,0.0,0.0,0.03138839791003721,1.798422725922386,-5.514505020172578,0.0,-11.180175975866476,11.820851202205375,0.0,-0.37115948185098663,0.0,18.22573529224047,0.0,0.0,-0.49440430454405754,0.0,-0.19981432193090456,0.3490658503988659,1.0,0.14,0.14,0.75,0.08726646259971647,5.0,0.184,0.175,0.174,0.0,0.0,0.0,0.0007542981014789506,0.0,0.009884814626577431,0.0,6.034499687062534,0.0,-0.5203707598815073,0.0,0.13458207446598086,0.0,-3.5826407453957834,0.0,-0.03038971308426682,0.0,-0.009432584876284303,0.37059662526920906,0.07125904361515605,0.10659237525859094,0.0,0.0,0.0,0.35293792128842033,0.10659237525859094,0.0,0.0,0.08174289408714977,0.0,0.0,-0.0029262913077363387,0.0,1.2784560434909018,0.0,4.233094697004896,0.0,0.13725801248586297,0.0,85.67056377085356,-1.4855643501712148,0.0,-4.164929666927133,0.0,0.13725801248586297,0.0
sim_raptor_glider_3dof,raptor_glider_3dof,0.031,-14.631105731341687,0.0,-0.00759726484750513,11.806791441286117,0.0,-0.5939616356065202,0.0,0.0,0.0,-27.28416124143434,-0.4761984473080527,-0.020140823871325847,0.0,0.0,0.0,0.0,0.0,-0.018409959393767272,-1.0548129742700882,0.0,0.0,11.821722148764938,0.00759726484750513,0.03474013973012706,-0.05026440397059603,-2.87993820725577,0.0,0.0,0.03185444457682876,1.8251252329856815,-5.502061116021493,0.0,-10.797602098756196,11.815724871847943,0.0,-0.37651071086148785,0.0,18.186188749014352,0.0,0.0,-0.4761984473080527,0.0,-0.19981432193090456,0.3490658503988659,1.0,0.14,0.14,0.75,0.08726646259971647,5.0,0.184,0.175,0.174,0.0,0.0,0.0,0.000746160838435487,0.0,0.00988828297278351,0.0,6.034394319951294,0.0,-0.5204536565705266,0.0,0.1334763572401866,0.0,-3.581714822770801,0.0,-0.030112140049599206,0.0,-0.009357351596781402,0.36656655607271593,0.07153449449599733,0.10648305942181753,0.0,0.0,0.0,0.3495512818291584,0.10648305942181753,0.0,0.0,0.08163391073238147,0.0,0.0,-0.0028197153419856195,0.0,1.2760750709938746,0.0,4.188963758161426,0.0,0.1369601874688271,0.0,85.59879839255424,-1.4849305178245142,0.0,-4.119558994751179,0.0,0.1369601874688271,0.0
sim_raptor_glider_3dof,raptor_glider_3dof,0.032,-14.619292566330996,0.0,-0.007976371676756803,11.801295894293094,0.0,-0.6045713460372322,0.0,0.0,0.0,-26.243355484235614,-0.4580329599712223,-0.019380630135912503,0.0,0.0,0.0,0.0,0.0,-0.018877075105870722,-1.081576733117864,0.0,0.0,11.816771610601107,0.007976371676756803,0.03472559173234919,-0.05118448827666111,-2.932655154789522,0.0,0.0,0.03230741317079039,1.851078421671658,-5.489032309732911,0.0,-10.42181912915069,11.810605157368492,0.0,-0.3817029130738764,0.0,18.14478559777374,0.0,0.0,-0.4580329599712223,0.0,-0.19981432193090456,0.3490658503988659,1.0,0.14,0.14,0.75,0.08726646259971647,5.0,0.184,0.175,0.174,0.0,0.0,0.0,0.0007382983883416146,0.0,0.009891599911754655,0.0,6.034288410928487,0.0,-0.5205327550419876,0.0,0.13240669122181656,0.0,-3.580816259322205,0.0,-0.02984378869879777,0.0,-0.009285189480830248,0.36266786110411664,0.07180053254308395,0.10637927844495744,0.0,0.0,0.0,0.3462950974485287,0.10637927844495744,0.0,0.0,0.0815163191140059,0.0,0.0,-0.0027132882190277507,0.0,1.2737638880954967,0.0,4.146467208674281,0.0,0.13664838033683405,0.0,85.52712162927514,-1.484237859754612,0.0,-4.075868340721802,0.0,0.13664838033683405,0.0
sim_raptor_glider_3dof,raptor_glider_3dof,0.033,-14.607484517782442,0.0,-0.008360593972978446,11.795813644650872,0.0,-0.6148086311044362,0.0,0.0,0.0,-25.20497373813678,-0.43990977960918987,-0.01862158390492835,0.0,0.0,0.0,0.0,0.0,-0.01932604647951265,-1.1073008979497376,0.0,0.0,11.811824972975693,0.008360593972978446,0.034711055196966385,-0.05207379733367755,-2.983608810439323,0.0,0.0,0.0327477508541649,1.8763079124895852,-5.4754662136650545,0.0,-10.052754136248252,11.805491948737588,0.0,-0.3867415681100526,0.0,18.101573988363953,0.0,0.0,-0.43990977960918987,0.0,-0.19981432193090456,0.3490658503988659,1.0,0.14,0.14,0.75,0.08726646259971647,5.0,0.184,0.175,0.174,0.0,0.0,0.0,0.0007307070861542413,0.0,0.009894770240283549,0.0,6.034182305298073,0.0,-0.5206081994968053,0.0,0.13137259190508685,0.0,-3.579944930759789,0.0,-0.029584519729292283,0.0,-0.009216004686599038,0.3588988588900435,0.07205732219893766,0.10628079666620077,0.0,0.0,0.0,0.3431676143966396,0.10628079666620077,0.0,0.0,0.08139031648538095,0.0,0.0,-0.0026070217466899696,0.0,1.2715194728535473,0.0,4.105579915141811,0.0,0.13632295370636893,0.0,85.45553132687647,-1.4834924116242592,0.0,-4.033831735969516,0.0,0.13632295370636893,0.0
sim_raptor_glider_3dof,raptor_glider_3dof,0.034,-14.595681580045628,0.0,-0.008749798826980784,11.790345146461654,0.0,-0.6246793652832091,0.0,0.0,0.0,-24.169106020186632,-0.4218304773158398,-0.01786375423588174,0.0,0.0,0.0,0.0,0.0,-0.019756911370838192,-1.131987637763054,0.0,0.0,11.806882017793797,0.008749798826980784,0.03469652948306972,-0.052932787207692185,-3.032825304864836,0.0,0.0,0.033175875836853996,1.9008376671017821,-5.461408043825458,0.0,-9.690326071495262,11.800385057867885,0.0,-0.39163180176139845,0.0,18.0566006721017,0.0,0.0,-0.4218304773158398,0.0,-0.19981432193090456,0.3490658503988659,1.0,0.14,0.14,0.75,0.08726646259971647,5.0,0.184,0.175,0.174,0.0,0.0,0.0,0.0007233829279106924,0.0,0.009897798784256388,0.0,6.034076326102875,0.0,-0.5206801302561693,0.0,0.13037355217769922,0.0,-3.5791006786436794,0.0,-0.0293341891069682,0.0,-0.009149704991264506,0.35525776899496564,0.0723050310393027,0.10618738497240952,0.0,0.0,0.0,0.3401669930807581,0.10618738497240952,0.0,0.0,0.08125609552653026,0.0,0.0,-0.002500925593023444,0.0,1.2693388756433635,0.0,4.066275750554586,0.0,0.13598425966159788,0.0,85.3840242600497,-1.482699833893225,0.0,-3.9934221994851513,0.0,0.13598425966159788,0.0
sim_raptor_glider_3dof,raptor_glider_3dof,0.034999999999999996,-14.583883745812923,0.0,-0.009143816904248385,11.784890953322359,0.0,-0.6341911904590318,0.0,0.0,0.0,-23.135867931673232,-0.40379707071426835,-0.017107228802774762,0.0,0.0,0.0,0.0,0.0,-0.020169721265465717,-1.1556399024664514,0.0,0.0,11.801942774295892,0.009143816904248385,0.0346820146765873,-0.053762063788981684,-3.080339353021762,0.0,0.0,0.033592342523515964,1.92469945055531,-5.446902272471293,0.0,-9.33443022824748,11.795284475991323,0.0,-0.3963803453668013,0.0,18.009924012795395,0.0,0.0,-0.40379707071426835,0.0,-0.19981432193090456,0.3490658503988659,1.0,0.14,0.14,0.75,0.08726646259971647,5.0,0.184,0.175,0.174,0.0,0.0,0.0,0.000716319937755592,0.0,0.00990069138399348,0.0,6.033970759492874,0.0,-0.5207486949713751,0.0,0.12940888937209571,0.0,-3.5782831790665943,0.0,-0.029092608881061775,0.0,-0.009086189649814464,0.35174215582375473,0.0725438672190957,0.10609880619247467,0.0,0.0,0.0,0.33729072325168913,0.10609880619247467,0.0,0.0,0.08111389848825344,0.0,0.0,-0.002395012032388467,0.0,1.2672191134996067,0.0,4.028520834958864,0.0,0.13563273774036214,0.0,85.31260078464264,-1.481865471230745,0.0,-3.9546048000388705,0.0,0.13563273774036214,0.0
sim_raptor_glider_3dof,raptor_glider_3dof,0.036,-14.572091009059763,0.0,-0.00954251473370537,11.779451473066787,0.0,-0.6433503580016144,0.0,0.0,0.0,-22.105352006344816,-0.3858111748230515,-0.016352078595621218,0.0,0.0,0.0,0.0,0.0,-0.020564521425442007,-1.1782602853841826,0.0,0.0,11.797007107291074,0.00954251473370537,0.03466751038023766,-0.05456211687345421,-3.126179018148461,0.0,0.0,0.0339975954480122,1.9479187327642784,-5.431990612541676,0.0,-8.98497880165259,11.79019005826465,0.0,-0.40099261772945116,0.0,17.961591981638342,0.0,0.0,-0.3858111748230515,0.0,-0.19981432193090456,0.3490658503988659,1.0,0.14,0.14,0.75,0.08726646259971647,5.0,0.184,0.175,0.174,0.0,0.0,0.0,0.0007095128090248522,0.0,0.009903453587940021,0.0,6.033865886443303,0.0,-0.5208140262290473,0.0,0.128478054454939,0.0,-3.5774922054273337,0.0,-0.028859625210014204,0.0,-0.009025369908193628,0.3483500576146836,0.07277400317415783,0.10601484443051848,0.0,0.0,0.0,0.3345367827252054,0.10601484443051848,0.0,0.0,0.08096392389472964,0.0,0.0,-0.0022892910033869705,0.0,1.2651574318854186,0.0,3.9922871101435358,0.0,0.13526874921371837,0.0,85.2412588795926,-1.4809942689143691,0.0,-3.9173505935409874,0.0,0.13526874921371837,0.0
sim_raptor_glider_3dof,raptor_glider_3dof,0.037,-14.560303363694524,0.0,-0.009945759010244299,11.774027090708802,0.0,-0.6521632586000792,0.0,0.0,0.0,-21.077651565939714,-0.3678744184137867,-0.015598375222447808,0.0,0.0,0.0,0.0,0.0,-0.02094136012724765,-1.1998515525548348,0.0,0.0,11.792074917020019,0.009945759010244299,0.03465301630086108,-0.05533344894724181,-3.170373090579564,0.0,0.0,0.034392088819994164,1.9705215380247292,-5.416713142872996,0.0,-8.641881413457606,11.785101678292236,0.0,-0.4054741433509494,0.0,17.911653008997966,0.0,0.0,-0.3678744184137867,0.0,-0.19981432193090456,0.3490658503988659,1.0,0.14,0.14,0.75,0.08726646259971647,5.0,0.184,0.175,0.174,0.0,0.0,0.0,0.0007029562342574259,0.0,0.009906090688150626,0.0,6.0337619663622775,0.0,-0.5208762523943612,0.0,0.12758048217958132,0.0,-3.576727504054796,0.0,-0.028635081426983143,0.0,-0.008967158934273158,0.3450794423133323,0.07299561327455223,0.10593529113598144,0.0,0.0,0.0,0.33190307867173685,0.10593529113598144,0.0,0.0,0.08080637254928966,0.0,0.0,-0.0021837725311426933,0.0,1.2631511805324176,0.0,3.957545791877756,0.0,0.13489265881076368,0.0,85.16999703897422,-1.4800908492998415,0.0,-3.8816298996051444,0.0,0.13489265881076368,0.0
sim_raptor_glider_3dof,raptor_glider_3dof,0.038,-14.548520803736041,0.0,-0.01035342137496324,11.768618155063209,0.0,-0.6606362066998803,0.0,0.0,0.0,-20.052857485384727,-0.3499883875531542,-0.01484618856052751,0.0,0.0,0.0,0.0,0.0,-0.021300287207309074,-1.2204165593953087,0.0,0.0,11.78714611249416,0.01035342137496324,0.0346385321710722,-0.056076557015410367,-3.2129500466077423,0.0,0.0,0.03477626980810129,1.9925334872124334,-5.401108225193851,0.0,-8.30504797417033,11.78001920872243,0.0,-0.40983035443549376,0.0,17.860154506203077,0.0,0.0,-0.3499883875531542,0.0,-0.19981432193090456,0.3490658503988659,1.0,0.14,0.14,0.75,0.08726646259971647,5.0,0.184,0.175,0.174,0.0,0.0,0.0,0.0006966450573746796,0.0,0.009908607670452962,0.0,6.033659240109332,0.0,-0.520935496288748,0.0,0.12671561230171147,0.0,-3.575988812634368,0.0,-0.028418823286028193,0.0,-0.008911473113707576,0.3419282862971179,0.07320886864830993,0.10585994681985116,0.0,0.0,0.0,0.32938752830670937,0.10585994681985116,0.0,0.0,0.08064144123668887,0.0,0.0,-0.0020784663984738517,0.0,1.2611978277360443,0.0,3.9242683154821436,0.0,0.13450482358621538,0.0,85.09881388596168,-1.479159520059948,0.0,-3.847413272160817,0.0,0.13450482358621538,0.0
sim_raptor_glider_3dof,raptor_glider_3dof,0.039,-14.536743323349665,0.0,-0.010765379570735166,11.763224972283597,0.0,-0.6687754150716996,0.0,0.0,0.0,-19.03105759360478,-0.33215461514507233,-0.014095586323534507,0.0,0.0,0.0,0.0,0.0,-0.021641354277599376,-1.2399582630538348,0.0,0.0,11.78222060158274,0.010765379570735166,0.03462405772012912,-0.056791930473041465,-3.2539379265056847,0.0,0.0,0.03515057619544209,2.01397966345185,-5.38521253616835,0.0,-7.974389020167157,11.77494251305006,0.0,-0.41406656315996876,0.0,17.80714267277486,0.0,0.0,-0.33215461514507233,0.0,-0.19981432193090456,0.3490658503988659,1.0,0.14,0.14,0.75,0.08726646259971647,5.0,0.184,0.175,0.174,0.0,0.0,0.0,0.0006905742827575634,0.0,0.009911009227468391,0.0,6.0335579311134335,0.0,-0.5209918752300711,0.0,0.12588289213941475,0.0,-3.5752758628903205,0.0,-0.028210699524361803,0.0,-0.008858232097969381,0.33889458497570035,0.07341393663114817,0.10578862098236962,0.0,0.0,0.0,0.32698806984385254,0.10578862098236962,0.0,0.0,0.08046932196896295,0.0,0.0,-0.001973382085294831,0.0,1.2592949568822933,0.0,3.8924264584530657,0.0,0.13410559146866746,0.0,85.02770802948397,-1.4782042870863399,0.0,-3.8146716252561266,0.0,0.13410559146866746,0.0
sim_raptor_glider_3dof,raptor_glider_3dof,0.04,-14.524970916829968,0.0,-0.011181516191819786,11.757847815605183,0.0,-0.6765870139915758,0.0,0.0,0.0,-18.01233730842743,-0.314374592011872,-0.013346634517071462,0.0,0.0,0.0,0.0,0.0,-0.02196461433960075,-1.2584797002916508,0.0,0.0,11.777298299798373,0.011181516191819786,0.03460959269975131,-0.05748005267640239,-3.2933644245475087,0.0,0.0,0.03551543833680164,2.034884724255858,-5.369061148523516,0.0,-7.649815617916065,11.769871454327605,0.0,-0.41818798528629675,0.0,17.752662692441096,0.0,0.0,-0.314374592011872,0.0,-0.19981432193090456,0.3490658503988659,1.0,0.14,0.14,0.75,0.08726646259971647,5.0,0.184,0.175,0.174,0.0,0.0,0.0,0.0006847390535357408,0.0,0.009913299782957682,0.0,6.033458245962884,0.0,-0.5210455013643545,0.0,0.12508177482283947,0.0,-3.5745883795822158,0.0,-0.028010561351179224,0.0,-0.008807358576537416,0.3359763475736802,0.07361098127786181,0.10572113166426743,0.0,0.0,0.0,0.32470265688207733,0.10572113166426743,0.0,0.0,0.08029020272903745,0.0,0.0,-0.0018685288323900047,0.0,1.2574402625106307,0.0,3.8619922779893727,0.0,0.1336953027367739,0.0,84.95667819100672,-1.4772288706940393,0.0,-3.7833761685325924,0.0,0.1336953027367739,0.0
sim_raptor_glider_3dof,raptor_glider_3dof,0.04,-14.524970916829968,0.0,-0.011181516191819786,11.757847815605183,0.0,-0.6765870139915758,0.0,0.0,0.0,-18.01233730842743,-0.314374592011872,-0.013346634517071462,0.0,0.0,0.0,0.0,0.0,-0.02196461433960075,-1.2584797002916508,0.0,0.0,11.777298299798373,0.011181516191819786,0.03460959269975131,-0.05748005267640239,-3.2933644245475087,0.0,0.0,0.03551543833680164,2.034884724255858,-5.354289560679997,0.0,-7.684042797814449,11.769871454327605,0.0,-0.41818798528629675,0.0,17.368067120017596,0.0,0.0,-0.314374592011872,0.0,-0.19712501434185478,0.3490658503988659,1.0,0.14,0.14,0.75,0.08726646259971647,5.0,0.184,0.175,0.174,0.0,0.0,0.0,0.0012954032914456043,0.0,0.009584741971791518,0.0,6.034623871241619,0.0,-0.5209632994565824,0.0,0.1250875380425447,0.0,-3.5789573768063896,0.0,-0.028200693084370416,0.0,-0.008679378165850226,0.3367489655916802,0.07186340219043359,0.10533469861786596,0.0,0.0,0.0,0.32547309689563625,0.10533469861786596,0.0,0.0,0.07855078723889122,0.0,0.0,-0.0018685288323900047,0.0,1.2528440529954608,0.0,3.8711558413910088,0.0,0.1307989134808525,0.0,84.95667819100672,-1.4731666840370718,0.0,-3.792788643004648,0.0,0.1307989134808525,0.0
sim_raptor_glider_3dof,raptor_glider_3dof,0.041,-14.513203584258415,0.0,-0.011601738135673167,11.752501621711765,0.0,-0.6841125712403852,0.0,0.0,0.0,-17.018760714902587,-0.29703340908411413,-0.012615673670672194,0.0,0.0,0.0,0.0,0.0,-0.022270270637024095,-1.275992516115604,0.0,0.0,11.772395863989063,0.011601738135673167,0.03459518605891758,-0.05814434052378036,-3.3314253145840973,0.0,0.0,0.03587406988675627,2.0554327984684932,-5.338184214601112,0.0,-7.36883113978509,11.764821440469687,0.0,-0.4222331729407113,0.0,17.31458522417401,0.0,0.0,-0.29703340908411413,0.0,-0.19712501434185478,0.3490658503988659,1.0,0.14,0.14,0.75,0.08726646259971647,5.0,0.184,0.175,0.174,0.0,0.0,0.0,0.0012911335306638495,0.0,0.009587187508388738,0.0,6.034528379363203,0.0,-0.5210142078903154,0.0,0.12431398593414275,0.0,-3.578299737785474,0.0,-0.028007889109193093,0.0,-0.008630653140374835,0.33393108917776976,0.07205416600203517,0.10527025758106062,0.0,0.0,0.0,0.32327293946710584,0.10527025758106062,0.0,0.0,0.07837413865232065,0.0,0.0,-0.0017661943138941075,0.0,1.2510354290617711,0.0,3.8417869379570297,0.0,0.13039614132325447,0.0,84.8859645238382,-1.4721736211882919,0.0,-3.7625950287670307,0.0,0.13039614132325447,0.0
sim_raptor_glider_3dof,raptor_glider_3dof,0.042,-14.501441285156949,0.0,-0.012025941149358474,11.747171586377657,0.0,-0.6913267028983942,0.0,0.0,0.0,-16.02827970710654,-0.27974625431960154,-0.011886396368044528,0.0,0.0,0.0,0.0,0.0,-0.022558660475617952,-1.292516036721491,0.0,0.0,11.767496458038087,0.012025941149358474,0.03458078832183751,-0.05878268171952512,-3.3679995709896065,0.0,0.0,0.03622402124390717,2.0754835342681153,-5.321886088304172,0.0,-7.059432566886935,11.759776767153872,0.0,-0.42617282485745833,0.0,17.25972405206603,0.0,0.0,-0.27974625431960154,0.0,-0.19712501434185478,0.3490658503988659,1.0,0.14,0.14,0.75,0.08726646259971647,5.0,0.184,0.175,0.174,0.0,0.0,0.0,0.0012870320666565614,0.0,0.009589520583143303,0.0,6.034434690766215,0.0,-0.5210626076938879,0.0,0.12357054975523864,0.0,-3.5776663253001026,0.0,-0.02782266312636221,0.0,-0.008584121954095967,0.3312232533344027,0.07223730122688309,0.10520930366716807,0.0,0.0,0.0,0.32118137777158917,0.10520930366716807,0.0,0.0,0.07819087962900022,0.0,0.0,-0.001664095491526234,0.0,1.2492705645874274,0.0,3.8137543654220942,0.0,0.1299829818361093,0.0,84.81532397413947,-1.4711664433351623,0.0,-3.73377404234981,0.0,0.1299829818361093,0.0
sim_raptor_glider_3dof,raptor_glider_3dof,0.043000000000000003,-14.489684028127616,0.0,-0.012454033342400644,11.74185793035766,0.0,-0.6982343065140136,0.0,0.0,0.0,-15.040980431704597,-0.2625146312612833,-0.01115886926444917,0.0,0.0,0.0,0.0,0.0,-0.022829790917590635,-1.3080506667440424,0.0,0.0,11.76260000184892,0.012454033342400644,0.03456639925313385,-0.05939545817377633,-3.403109075603192,0.0,0.0,0.036565667256185694,2.0950584088591495,-5.305425531433998,0.0,-6.755777389370861,11.754737297442892,0.0,-0.4300114784527976,0.0,17.203521204878125,0.0,0.0,-0.2625146312612833,0.0,-0.19712501434185478,0.3490658503988659,1.0,0.14,0.14,0.75,0.08726646259971647,5.0,0.184,0.175,0.174,0.0,0.0,0.0,0.0012830961978981268,0.0,0.009591744903276125,0.0,6.0343429791972705,0.0,-0.5211085895958442,0.0,0.12285679718503138,0.0,-3.577056933486416,0.0,-0.027644898006534906,0.0,-0.008539722405011684,0.3286238702636482,0.07241293821554683,0.10515168722191338,0.0,0.0,0.0,0.31919676804740893,0.10515168722191338,0.0,0.0,0.07800116570966412,0.0,0.0,-0.001562241697022884,0.0,1.2475475609096496,0.0,3.787035281587012,0.0,0.12955971819393716,0.0,84.74475533323113,-1.4701481111684618,0.0,-3.7063021560504534,0.0,0.12955971819393716,0.0
sim_raptor_glider_3dof,raptor_glider_3dof,0.044,-14.477931808664659,0.0,-0.012885927625341718,11.736560784900847,0.0,-0.7048404015629136,0.0,0.0,0.0,-14.05692963024052,-0.24533970476884612,-0.010433144742618293,0.0,0.0,0.0,0.0,0.0,-0.02308371127869018,-1.3225992317674842,0.0,0.0,11.757706368563035,0.012885927625341718,0.03455201848001127,-0.05998306323208706,-3.4367763654649353,0.0,0.0,0.036899351953396886,2.1141771336974515,-5.288831031601835,0.0,-6.457790150055278,11.74970285260628,0.0,-0.4337532994728936,0.0,17.146012929369675,0.0,0.0,-0.24533970476884612,0.0,-0.19712501434185478,0.3490658503988659,1.0,0.14,0.14,0.75,0.08726646259971647,5.0,0.184,0.175,0.174,0.0,0.0,0.0,0.0012793231760691328,0.0,0.009593864026611687,0.0,6.034253402844449,0.0,-0.5211522415094468,0.0,0.1221722817046654,0.0,-3.576471334873192,0.0,-0.027474473804422042,0.0,-0.008497393478495777,0.3261312964765497,0.07258120941241854,0.10509726389213984,0.0,0.0,0.0,0.31731742299337784,0.10509726389213984,0.0,0.0,0.07780514744705655,0.0,0.0,-0.0014606402639665613,0.0,1.245864578484909,0.0,3.7616063711162804,0.0,0.12912662337108302,0.0,84.67425672086586,-1.4691213540139882,0.0,-3.680155361710437,0.0,0.12912662337108302,0.0
