name,vehicle,t,north,east,down,u,v,w,p_rad,p_deg,p_hat_div_b,q_deg,q_rad,q_hat_div_c,r_rad,r_deg,r_hat_div_b,phi_rad,phi_deg,theta_rad,theta_deg,psi_rad,psi_deg,speed,altitude,mach,alpha_rad,alpha_deg,beta_rad,beta_deg,gamma_rad,gamma_deg,u_dot,v_dot,w_dot,north_dot,east_dot,down_dot,p_rad_dot,q_rad_dot,r_rad_dot,phi_rad_dot,theta_rad_dot,psi_rad_dot,del_tail_alt_rad,del_tail_splay_rad,DIM_b,DIM_c_bar,DIM_S,DIM_wing_position,DIM_wing_incidence_rad,DIM_wing_incidence_deg,DIM_empennage_length,DIM_nose_length,DIM_tail_length,CDp,CDq,CDr,CYp,CYq,CYr,CLp,CLq,CLr,Clp,Clq,Clr,Cmp,Cmq,Cmr,Cnp,Cnq,Cnr,CL_0,Cm_0,CD_0,Cl_0,CY_0,Cn_0,CL,CD,CY,Cl,Cm,Cn,p_hat,q_hat,r_hat,drag_force_wind,side_force_wind,lift_force_wind,roll_moment_wind,pitch_moment_wind,yaw_moment_wind,qbar,X_total,Y_total,Z_total,L_total,M_total,N_total
sim_raptor_glider_3dof,raptor_glider_3dof,0.0,-15.0,0.0,0.0,12.0,0.0,0.0,0.0,0.0,0.0,0.0,0.0,0.0,0.0,0.0,0.0,0.0,0.0,0.0,0.0,0.0,0.0,12.0,-0.0,0.035264039495724236,0.0,0.0,0.0,0.0,0.0,0.0,-7.487178041450953,0.0,-25.024054441263395,12.0,0.0,0.0,0.0,-89.41363838472799,0.0,0.0,0.0,0.0,0.4363323129985824,0.3490658503988659,1.0,0.14,0.14,0.75,0.08726646259971647,5.0,0.184,0.175,0.174,0.0,0.0,0.0,-0.053153656886407115,0.0,0.055671173493162154,0.0,6.024209384397437,0.0,-0.5269202128147928,0.0,0.19813275846416445,0.0,-3.4552995296441478,0.0,-0.03588346466142729,0.0,-0.029845922084054996,0.7757079658211316,-0.38952171953159265,0.1667455120831285,0.0,0.0,0.0,0.7757079658211316,0.1667455120831285,0.0,0.0,-0.38952171953159265,0.0,0.0,0.0,0.0,2.0589739613990123,0.0,9.578443721347433,0.0,-0.6733741106753866,0.0,88.20001620075907,-2.0589739613990123,0.0,-9.578443721347433,0.0,-0.6733741106753866,0.0
sim_raptor_glider_3dof,raptor_glider_3dof,0.001,-14.988003746590733,0.0,-0.000012415174634177188,11.992502827180262,0.0,-0.02526770405029525,0.0,0.0,0.0,-5.103039651887635,-0.0890648437852645,-0.0037133468875430262,0.0,0.0,0.0,0.0,0.0,-0.000044590487564095195,-0.0025548467438532376,0.0,0.0,11.992529446150822,0.000012415174634177188,0.03524208600355821,-0.002106955238988487,-0.12071964281701804,0.0,0.0,0.002062364751424392,0.1181647960731648,-7.507675599275719,0.0,-25.508550485583747,11.99250394195709,0.0,-0.024732952477174667,0.0,-88.71856693472195,0.0,0.0,-0.0890648437852645,0.0,0.4363323129985824,0.3490658503988659,1.0,0.14,0.14,0.75,0.08726646259971647,5.0,0.184,0.175,0.174,0.0,0.0,0.0,-0.053430186057496054,0.0,0.0554080780660455,0.0,6.0240249874908525,0.0,-0.5274002219771142,0.0,0.1957017793236076,0.0,-3.453669819760639,0.0,-0.03525814560644711,0.0,-0.029499655008724115,0.7671435812705255,-0.38877083359862435,0.165760584735996,0.0,0.0,0.0,0.7640118800492363,0.165760584735996,0.0,0.0,-0.386975379228011,0.0,0.0,-0.0005198685642560238,0.0,2.0442643995802876,0.0,9.422277857722193,0.0,-0.6681395275853911,0.0,88.09023322213056,-2.064112165078258,0.0,-9.417949773357746,0.0,-0.6681395275853911,0.0
sim_raptor_glider_3dof,raptor_glider_3dof,0.002,-14.976014997218163,0.0,-0.000049270492086499364,11.984983638081903,0.0,-0.051011581957007696,0.0,0.0,0.0,-10.166686259086081,-0.1774421492383174,-0.0074026192836820276,0.0,0.0,0.0,0.0,0.0,-0.00017790069037163533,-0.010192958730758345,0.0,0.0,11.985092197667264,0.000049270492086499364,0.03522023038486956,-0.004256265628603735,-0.24386605700559036,0.0,0.0,0.0040783649382321,0.233673098274832,-7.5312069778045,0.0,-25.97647568606275,11.984992523423195,0.0,-0.04887944429772272,0.0,-88.03854836579413,0.0,0.0,-0.1774421492383174,0.0,0.4363323129985824,0.3490658503988659,1.0,0.14,0.14,0.75,0.08726646259971647,5.0,0.184,0.175,0.174,0.0,0.0,0.0,-0.05371000072613438,0.0,0.05518325282971427,0.0,6.023796383437123,0.0,-0.5278990096560925,0.0,0.1932332307470952,0.0,-3.4519868033346692,0.0,-0.03462545852853912,0.0,-0.029153229463314653,0.758374006898808,-0.388063512765844,0.16478068235403653,0.0,0.0,0.0,0.7521311449211472,0.16478068235403653,0.0,0.0,-0.38448598859501065,0.0,0.0,-0.001036366699715484,0.0,2.0296598650783366,0.0,9.264255835778041,0.0,-0.6630183077427956,0.0,87.98100758981425,-2.069072495287059,0.0,-9.25553317577674,0.0,-0.6630183077427956,0.0
sim_raptor_glider_3dof,raptor_glider_3dof,0.003,-14.964033765483153,0.0,-0.00010997650410396534,11.977439408842296,0.0,-0.07721526894416839,0.0,0.0,0.0,-15.191799193026208,-0.2651469152201249,-0.011068367643203196,0.0,0.0,0.0,0.0,0.0,-0.0003992506169425001,-0.022875375318799577,0.0,0.0,11.97768829909372,0.00010997650410396534,0.035198472770559576,-0.006446636600632963,-0.3693650692708328,0.0,0.0,0.006047385983690463,0.3464896939520332,-7.557751963901034,0.0,-26.428240508352538,11.977469282477013,0.0,-0.07243326284374174,0.0,-87.37346069275941,0.0,0.0,-0.2651469152201249,0.0,0.4363323129985824,0.3490658503988659,1.0,0.14,0.14,0.75,0.08726646259971647,5.0,0.184,0.175,0.174,0.0,0.0,0.0,-0.0539933342342998,0.0,0.0549956890768542,0.0,6.023523849844041,0.0,-0.5284156910211553,0.0,0.1907277346999606,0.0,-3.450251759098094,0.0,-0.033984927296559594,0.0,-0.028807107836358457,0.7494038488665931,-0.387399686775176,0.16380724554970857,0.0,0.0,0.0,0.7400699681597184,0.16380724554970857,0.0,0.0,-0.38205327508479314,0.0,0.0,-0.0015495714700484477,0.0,2.015177614704102,0.0,9.104435082498677,0.0,-0.6580095324771711,0.0,87.87233904709669,-2.0738283182350847,0.0,-9.09125486919839,0.0,-0.6580095324771711,0.0
sim_raptor_glider_3dof,raptor_glider_3dof,0.004,-14.95206006146447,0.0,-0.00019393750269191865,11.969867139046595,0.0,-0.10386280993339823,0.0,0.0,0.0,-20.179227607931264,-0.35219396226773997,-0.01471113674262299,0.0,0.0,0.0,0.0,0.0,-0.0007079751977142588,-0.040563990828967035,0.0,0.0,11.970317740549529,0.00019393750269191865,0.03517681313159225,-0.008676805031272569,-0.49714430794979647,0.0,0.0,0.00796882983355831,0.4565803171208294,-7.587282867422961,0.0,-26.864252771312174,11.96993767151242,0.0,-0.09538841555743248,0.0,-86.72306067972036,0.0,0.0,-0.35219396226773997,0.0,0.4363323129985824,0.3490658503988659,1.0,0.14,0.14,0.75,0.08726646259971647,5.0,0.184,0.175,0.174,0.0,0.0,0.0,-0.054280487125545326,0.0,0.054843901706905056,0.0,6.023207997132767,0.0,-0.5289492506950555,0.0,0.18818569052618506,0.0,-3.4484661334741316,0.0,-0.033335929119057396,0.0,-0.028461722112779208,0.7402377623774763,-0.38677875516894367,0.16284159593212236,0.0,0.0,0.0,0.727832609270965,0.16284159593212236,0.0,0.0,-0.37967643521108574,0.0,0.0,-0.0020595591439672187,0.0,2.000833340210975,0.0,8.942873240625298,0.0,-0.6531113699789741,0.0,87.76422654166264,-2.078352616244555,0.0,-8.925175978978858,0.0,-0.6531113699789741,0.0
sim_raptor_glider_3dof,raptor_glider_3dof,0.005,-14.94009389182307,0.0,-0.0003005518855746,11.962263859629724,0.0,-0.13093865674169305,0.0,0.0,0.0,-25.12980322664479,-0.4385978066832464,-0.01833146045868009,0.0,0.0,0.0,0.0,0.0,-0.0011034240774344013,-0.06322154265010774,0.0,0.0,11.962980463882431,0.0003005518855746,0.035155251297077285,-0.010945539172903748,-0.6271331991024985,0.0,0.0,0.009842115095469346,0.5639116564523908,-7.619764933048298,0.0,-27.284916404279006,11.96240105817221,0.0,-0.11773912974501546,0.0,-86.08698535636344,0.0,0.0,-0.4385978066832464,0.0,0.4363323129985824,0.3490658503988659,1.0,0.14,0.14,0.75,0.08726646259971647,5.0,0.184,0.175,0.174,0.0,0.0,0.0,-0.05457182683161292,0.0,0.05472593032343835,0.0,6.022849768199583,0.0,-0.529498543215881,0.0,0.18560727572066893,0.0,-3.446631540314975,0.0,-0.03267769521599154,0.0,-0.028117473742245224,0.7308804509402165,-0.3861995880247053,0.16188493539638366,0.0,0.0,0.0,0.7154233824078116,0.16188493539638366,0.0,0.0,-0.37735413745313595,0.0,0.0,-0.002566404464215213,0.0,1.9866411722863777,0.0,8.779628219436473,0.0,-0.6483210867187731,0.0,87.65666831823584,-2.0826180146542357,0.0,-8.757357879177162,0.0,-0.6483210867187731,0.0
sim_raptor_glider_3dof,raptor_glider_3dof,0.006,-14.92813525992473,0.0,-0.0004292124397594923,11.954626639550906,0.0,-0.15842765930436845,0.0,0.0,0.0,-30.04433358782197,-0.5243725426750143,-0.02192985685369944,0.0,0.0,0.0,0.0,0.0,-0.0015849610904613313,-0.09081158117588696,0.0,0.0,11.955676367913814,0.0004292124397594923,0.03513378696968413,-0.01325163807797221,-0.7592629335026617,0.0,0.0,0.01166667698751088,0.6684513523267749,-7.65515672930522,0.0,-27.690630360815796,11.954862725505864,0.0,-0.13947985016959272,0.0,-85.46475387002384,0.0,0.0,-0.5243725426750143,0.0,0.4363323129985824,0.3490658503988659,1.0,0.14,0.14,0.75,0.08726646259971647,5.0,0.184,0.175,0.174,0.0,0.0,0.0,-0.05486778710977721,0.0,0.05463934182373924,0.0,6.022450437086101,0.0,-0.5300622937916623,0.0,0.18299244783751023,0.0,-3.444749760445701,0.0,-0.03200931203935526,0.0,-0.02777473367758559,0.7213366671206888,-0.3856605284654083,0.16093834608201854,0.0,0.0,0.0,0.7028466604815571,0.16093834608201854,0.0,0.0,-0.37508452678533377,0.0,0.0,-0.003070179959517922,0.0,1.9726136922696764,0.0,8.61475825857789,0.0,-0.6436350613951496,0.0,87.54966199755503,-2.0865968109073574,0.0,-8.58786227075033,0.0,-0.6436350613951496,0.0
sim_raptor_glider_3dof,raptor_glider_3dof,0.007,-14.916184165882276,0.0,-0.0005793064854676666,11.946952592434664,0.0,-0.18631506489291877,0.0,0.0,0.0,-34.923595341205655,-0.6095317253381911,-0.025506823267053384,0.0,0.0,0.0,0.0,0.0,-0.00215196395569408,-0.12329845232554847,0.0,0.0,11.94840531406963,0.0005793064854676666,0.03511241974218939,-0.015593931681301612,-0.8934664713539263,0.0,0.0,0.013441967725607532,0.7701680190283778,-7.693410528399182,0.0,-28.081787400130356,11.947325872576652,0.0,-0.1606052419691676,0.0,-84.85576962259707,0.0,0.0,-0.6095317253381911,0.0,0.4363323129985824,0.3490658503988659,1.0,0.14,0.14,0.75,0.08726646259971647,5.0,0.184,0.175,0.174,0.0,0.0,0.0,-0.05516886739682447,0.0,0.05458123429015566,0.0,6.022011606567932,0.0,-0.5306390995932566,0.0,0.18034094615955698,0.0,-3.442822740123928,0.0,-0.031329722669104235,0.0,-0.027433842397851762,0.7116112100401488,-0.3851593965008954,0.16000279048359145,0.0,0.0,0.0,0.6901068760336266,0.16000279048359145,0.0,0.0,-0.3728652305367967,0.0,0.0,-0.0035709552573874744,0.0,1.9587619456352325,0.0,8.448321951825605,0.0,-0.6390488010277785,0.0,87.4432046606849,-2.090261009781001,0.0,-8.416751218395161,0.0,-0.6390488010277785,0.0
sim_raptor_glider_3dof,raptor_glider_3dof,0.008,-14.904240606651282,0.0,-0.0007502161182813057,11.939238882633015,0.0,-0.21458650998107728,0.0,0.0,0.0,-39.768327695755914,-0.6940882563029905,-0.02906283149078703,0.0,0.0,0.0,0.0,0.0,-0.0028038236298313884,-0.16064726048838937,0.0,0.0,11.941167131685324,0.0007502161182813057,0.035091149113066274,-0.017971280258754233,-1.0296785112733915,0.0,0.0,0.015167456628922844,0.8690312507850021,-7.734472659743328,0.0,-28.458772998507442,11.939793614875626,0.0,-0.18111019026309105,0.0,-84.25932271685393,0.0,0.0,-0.6940882563029905,0.0,0.4363323129985824,0.3490658503988659,1.0,0.14,0.14,0.75,0.08726646259971647,5.0,0.184,0.175,0.174,0.0,0.0,0.0,-0.05547563193059443,0.0,0.054548242134604644,0.0,6.021535204946049,0.0,-0.5312274312413525,0.0,0.17765229454057654,0.0,-3.440852589499303,0.0,-0.030637728722487007,0.0,-0.027095110104628704,0.7017089249620452,-0.38469349440195466,0.1590791122370665,0.0,0.0,0.0,0.6772085241452388,0.1590791122370665,0.0,0.0,-0.37069336574289874,0.0,0.0,-0.004068796408710184,0.0,1.9450954633896698,0.0,8.280378294547667,0.0,-0.634556959380627,0.0,87.33729292823296,-2.0935823601488033,0.0,-8.244087212286694,0.0,-0.634556959380627,0.0
sim_raptor_glider_3dof,raptor_glider_3dof,0.009000000000000001,-14.892304576113405,0.0,-0.0009413184291606596,11.931482731000013,0.0,-0.24322801242629782,0.0,0.0,0.0,-44.57922600410458,-0.7780542717623,-0.03259832301805841,0.0,0.0,0.0,0.0,0.0,-0.0035399435977275817,-0.2028238278641469,0.0,0.0,11.933961623290918,0.0009413184291606596,0.03506997450201568,-0.020382573901800104,-1.1678354601866447,0.0,0.0,0.01684263030407252,0.9650116323224979,-7.778283843616755,0.0,-28.821964269395146,11.932268984822977,0.0,-0.20098980076623565,0.0,-83.67459264387269,0.0,0.0,-0.7780542717623,0.0,0.4363323129985824,0.3490658503988659,1.0,0.14,0.14,0.75,0.08726646259971647,5.0,0.184,0.175,0.174,0.0,0.0,0.0,-0.055788708736007504,0.0,0.0545365423304085,0.0,6.021023482042527,0.0,-0.531825634606743,0.0,0.17492580464570248,0.0,-3.4388415806117196,0.0,-0.029931992558805562,0.0,-0.02675881698380161,0.6916347024036031,-0.3842596132891834,0.15816803727685969,0.0,0.0,0.0,0.6641561648322319,0.15816803727685969,0.0,0.0,-0.3685655476778038,0.0,0.0,-0.004563765222528177,0.0,1.9316222876944662,0.0,8.110986723910683,0.0,-0.6301533572010052,0.0,87.23192303897322,-2.096532395351765,0.0,-8.0699332223392,0.0,-0.6301533572010052,0.0
sim_raptor_glider_3dof,raptor_glider_3dof,0.01,-14.88037606515921,0.0,-0.0011519857253842968,11.923681420343334,0.0,-0.27222596258209436,0.0,0.0,0.0,-49.356935507178044,-0.8614410332947542,-0.03611370438294382,0.0,0.0,0.0,0.0,0.0,-0.004359739052099519,-0.24979464746366856,0.0,0.0,11.926788569792983,0.0011519857253842968,0.03504889526519434,-0.022826731891997996,-1.3078753974881616,0.0,0.0,0.01846699283989848,1.058080750024493,-7.824779502619,0.0,-29.171728920063018,11.924754932281528,0.0,-0.22023940058925584,0.0,-83.10065118556057,0.0,0.0,-0.8614410332947542,0.0,0.4363323129985824,0.3490658503988659,1.0,0.14,0.14,0.75,0.08726646259971647,5.0,0.184,0.175,0.174,0.0,0.0,0.0,-0.05610878847395166,0.0,0.05454186162840115,0.0,6.020479004498773,0.0,-0.5324319328652451,0.0,0.17216057968112747,0.0,-3.4367921450673697,0.0,-0.02921103978427371,0.0,-0.02642521354291394,0.6813934773072167,-0.3838540408424605,0.15727017538811427,0.0,0.0,0.0,0.6509544254455103,0.15727017538811427,0.0,0.0,-0.3664778994650984,0.0,0.0,-0.0050559186136121355,0.0,1.9183490019530007,0.0,7.940207158086878,0.0,-0.6258310040784566,0.0,87.12709092666549,-2.099082476605616,0.0,-7.894352751368246,0.0,-0.6258310040784566,0.0
sim_raptor_glider_3dof,raptor_glider_3dof,0.01,-14.88037606515921,0.0,-0.0011519857253842968,11.923681420343334,0.0,-0.27222596258209436,0.0,0.0,0.0,-49.356935507178044,-0.8614410332947542,-0.03611370438294382,0.0,0.0,0.0,0.0,0.0,-0.004359739052099519,-0.24979464746366856,0.0,0.0,11.926788569792983,0.0011519857253842968,0.03504889526519434,-0.022826731891997996,-1.3078753974881616,0.0,0.0,0.01846699283989848,1.058080750024493,-5.133468389665642,0.0,-21.400759700009715,11.924754932281528,0.0,-0.22023940058925584,0.0,6.948613234860937,0.0,0.0,-0.8614410332947542,0.0,-0.11712575397231706,0.3490658503988659,1.0,0.14,0.14,0.75,0.08726646259971647,5.0,0.184,0.175,0.174,0.0,0.0,0.0,-0.006079242002240169,0.0,0.003979187372585458,0.0,6.064462035805278,0.0,-0.518418714472594,0.0,0.16598141436276626,0.0,-3.7179658764117893,0.0,-0.03646330434183033,0.0,-0.009222221731258532,0.5050795974712223,0.011845988273003188,0.1006090325439952,0.0,0.0,0.0,0.4744181709828503,0.1006090325439952,0.0,0.0,0.03064372115232831,0.0,0.0,-0.0050559186136121355,0.0,1.2272081257106324,0.0,5.786854516867919,0.0,0.05233000627173772,0.0,87.12709092666549,-1.3589719205434423,0.0,-5.757336215853588,0.0,0.05233000627173772,0.0
sim_raptor_glider_3dof,raptor_glider_3dof,0.011,-14.868453735399942,0.0,-0.0013777371587420323,11.91853870777276,0.0,-0.29340982570392005,0.0,0.0,0.0,-48.956223399632,-0.8544472876654702,-0.03583444709242034,0.0,0.0,0.0,0.0,0.0,-0.005217686913800149,-0.2989514389813883,0.0,0.0,11.922149732933955,0.0013777371587420323,0.035035263254676756,-0.024612964850069374,-1.4102190072128202,0.0,0.0,0.019395277936269224,1.111267568231432,-5.151739069863299,0.0,-20.96781994607243,11.91990738512361,0.0,-0.23121891049995136,0.0,7.038451490727289,0.0,0.0,-0.8544472876654702,0.0,-0.11712575397231706,0.3490658503988659,1.0,0.14,0.14,0.75,0.08726646259971647,5.0,0.184,0.175,0.174,0.0,0.0,0.0,-0.00612789840835903,0.0,0.003976421510404623,0.0,6.064582476341852,0.0,-0.5186412841910939,0.0,0.163913018623887,0.0,-3.7167381105129333,0.0,-0.03592859331645503,0.0,-0.009041758311481256,0.49761114687887015,0.012417856076244321,0.10026733304893565,0.0,0.0,0.0,0.46718621249481734,0.10026733304893565,0.0,0.0,0.03106407180110245,0.0,0.0,-0.005016822592938848,0.0,1.2220889461383018,0.0,5.6942085594266905,0.0,0.05300657817666722,0.0,87.05932922211485,-1.3618560002633098,0.0,-5.662407680931181,0.0,0.05300657817666722,0.0
sim_raptor_glider_3dof,raptor_glider_3dof,0.012,-14.85653624928603,0.0,-0.0016143020428326506,11.913378584382231,0.0,-0.3141635981969266,0.0,0.0,0.0,-48.55045631593729,-0.847365316058782,-0.035551243077946146,0.0,0.0,0.0,0.0,0.0,-0.006068599726750766,-0.3477051518970635,0.0,0.0,11.91752021442587,0.0016143020428326506,0.03502165862771715,-0.026364544870414515,-1.5105771498580356,0.0,0.0,0.02029594514366375,1.162871997960972,-5.168248390541036,0.0,-20.540576602809125,11.915065734106076,0.0,-0.2418607309598404,0.0,7.1250045740951515,0.0,0.0,-0.847365316058782,0.0,-0.11712575397231706,0.3490658503988659,1.0,0.14,0.14,0.75,0.08726646259971647,5.0,0.184,0.175,0.174,0.0,0.0,0.0,-0.00617553790997132,0.0,0.0039735408168213365,0.0,6.064686108545184,0.0,-0.5188556682047674,0.0,0.16188360529857546,0.0,-3.715522608536887,0.0,-0.035404720193418504,0.0,-0.00886697119520926,0.49027388459868904,0.012977705581517488,0.099938596146264,0.0,0.0,0.0,0.4600888863936024,0.099938596146264,0.0,0.0,0.031470508219995405,0.0,0.0,-0.004977174030912461,0.0,1.217136390984269,0.0,5.6033499399722615,0.0,0.05365840944751059,0.0,86.99172991633372,-1.3644260635731462,0.0,-5.569317109043769,0.0,0.05365840944751059,0.0
sim_raptor_glider_3dof,raptor_glider_3dof,0.013000000000000001,-14.8446236018519,0.0,-0.0018613512091772504,11.908202758224617,0.0,-0.3344928344514479,0.0,0.0,0.0,-48.139817749162745,-0.8401983210328956,-0.035264223857394,0.0,0.0,0.0,0.0,0.0,-0.0069123900671759775,-0.3960507771973351,0.0,0.0,11.912899663276265,0.0018613512091772504,0.03500808035286451,-0.028081895345527366,-1.6089740840267888,0.0,0.0,0.02116950527835139,1.2129233068294536,-5.1830639830561545,0.0,-20.11903282042754,11.910230392160653,0.0,-0.25217135630449616,0.0,7.2083420193921866,0.0,0.0,-0.8401983210328956,0.0,-0.11712575397231706,0.3490658503988659,1.0,0.14,0.14,0.75,0.08726646259971647,5.0,0.184,0.175,0.174,0.0,0.0,0.0,-0.006222186265750677,0.0,0.003970545528161807,0.0,6.064773797834201,0.0,-0.5190621518779248,0.0,0.15989276616611137,0.0,-3.714319762241238,0.0,-0.03489152236087889,0.0,-0.008697694885878323,0.4830674869568332,0.013525740469555727,0.0996224211698469,0.0,0.0,0.0,0.45312575123765364,0.0996224211698469,0.0,0.0,0.03186330496986217,0.0,0.0,-0.00493699134003516,0.0,1.2123451202788755,0.0,5.5142686448975935,0.0,0.05428602374804256,0.0,86.9242877286444,-1.3666978917294044,0.0,-5.478054057008488,0.0,0.05428602374804256,0.0
sim_raptor_glider_3dof,raptor_glider_3dof,0.014,-14.832715786304778,0.0,-0.002118542738277552,11.903012964367171,0.0,-0.35440346769033754,0.0,0.0,0.0,-47.724497796109084,-0.832949620402881,-0.034973525627799824,0.0,0.0,0.0,0.0,0.0,-0.007748970845593217,-0.44398332502241206,0.0,0.0,11.90828784703342,0.002118542738277552,0.03499452774701996,-0.029765471766065248,-1.7054359074113514,0.0,0.0,0.02201650092047203,1.2614525823889395,-5.196252550412698,0.0,-19.703182527379674,11.905401833383662,0.0,-0.2621576500291761,0.0,7.288535208889671,0.0,0.0,-0.832949620402881,0.0,-0.11712575397231706,0.3490658503988659,1.0,0.14,0.14,0.75,0.08726646259971647,5.0,0.184,0.175,0.174,0.0,0.0,0.0,-0.006267868792326348,0.0,0.003967436505013274,0.0,6.0648463813296,0.0,-0.5192610153938969,0.0,0.15794005158385754,0.0,-3.7131299153030373,0.0,-0.03438882962290563,0.0,-0.008533764865958672,0.47599138981295275,0.014062171044694077,0.09931840950323625,0.0,0.0,0.0,0.44629612136449875,0.09931840950323625,0.0,0.0,0.03224274524000221,0.0,0.0,-0.004896293587891975,0.0,1.2077098608974421,0.0,5.426951854626949,0.0,0.054889958658148115,0.0,86.85699911585081,-1.3686868252672397,0.0,-5.38860519196644,0.0,0.054889958658148115,0.0
sim_raptor_glider_3dof,raptor_glider_3dof,0.015,-14.820812795781956,0.0,-0.0023855611217796727,11.897810768139008,0.0,-0.37390109376042124,0.0,0.0,0.0,-47.304671559468375,-0.8256222702872438,-0.03467927408822143,0.0,0.0,0.0,0.0,0.0,-0.008578263367981094,-0.49149828653699573,0.0,0.0,11.90368443392044,0.0023855611217796727,0.03498099983520068,-0.031415702113474255,-1.7999871415422952,0.0,0.0,0.022837438745493162,1.3084888550052995,-5.207878468675073,0.0,-19.29301726377836,11.900580393806948,0.0,-0.27182603425254886,0.0,7.365651111295325,0.0,0.0,-0.8256222702872438,0.0,-0.11712575397231706,0.3490658503988659,1.0,0.14,0.14,0.75,0.08726646259971647,5.0,0.184,0.175,0.174,0.0,0.0,0.0,-0.006312608829212869,0.0,0.003964215270894866,0.0,6.064904665372528,0.0,-0.5194525268110347,0.0,0.15602503976039714,0.0,-3.7119534056356454,0.0,-0.033896481920866986,0.0,-0.008375023412770745,0.46904504482898685,0.014587195368333064,0.09902617563492348,0.0,0.0,0.0,0.4395993360596727,0.09902617563492348,0.0,0.0,0.03260909430627744,0.0,0.0,-0.004855098372351001,0.0,1.203225496167535,0.0,5.3413870206937375,0.0,0.055470718519165095,0.0,86.78985909193389,-1.370407608215132,0.0,-5.300957450009311,0.0,0.055470718519165095,0.0
sim_raptor_glider_3dof,raptor_glider_3dof,0.016,-14.808914623008322,0.0,-0.0026620914523671317,11.892597702906151,0.0,-0.3929913916446264,0.0,0.0,0.0,-46.880513586465746,-0.8182193171097626,-0.034381594569810346,0.0,0.0,0.0,0.0,0.0,-0.009400190398689683,-0.5385912364643175,0.0,0.0,11.899089139807108,0.0026620914523671317,0.034967495782441765,-0.033033021846065984,-1.892652736343028,0.0,0.0,0.023632831447376303,1.3540614998787108,-5.218004646360032,0.0,-18.888523041516542,11.89576641002516,0.0,-0.2811829923600931,0.0,7.439756197837386,0.0,0.0,-0.8182193171097626,0.0,-0.11712575397231706,0.3490658503988659,1.0,0.14,0.14,0.75,0.08726646259971647,5.0,0.184,0.175,0.174,0.0,0.0,0.0,-0.006356428769904911,0.0,0.003960883892103744,0.0,6.064949428075826,0.0,-0.5196369465423507,0.0,0.15414729638038718,0.0,-3.710790541607021,0.0,-0.03341431878471255,0.0,-0.008221316058616935,0.4622277786730933,0.015101010585359847,0.09874534069490253,0.0,0.0,0.0,0.4330346101479424,0.09874534069490253,0.0,0.0,0.03296261601626258,0.0,0.0,-0.004813423239773448,0.0,1.1988870165745655,0.0,5.257560186438216,0.0,0.056028803925913355,0.0,86.72286337314134,-1.371874492398924,0.0,-5.215096314511986,0.0,0.056028803925913355,0.0
sim_raptor_glider_3dof,raptor_glider_3dof,0.017,-14.797021260375413,0.0,-0.002947825452959168,11.887375238270334,0.0,-0.41168002382798036,0.0,0.0,0.0,-46.45219455102822,-0.8107437396924115,-0.03408060970926648,0.0,0.0,0.0,0.0,0.0,-0.010214677798592985,-0.5852579269453608,0.0,0.0,11.894501691851646,0.002947825452959168,0.03495401478695127,-0.0346178656310874,-1.9834575964122942,0.0,0.0,0.024403187832494417,1.3981996694669334,-5.22669231995119,0.0,-18.48968143725297,11.890960187093214,0.0,-0.29023495038636915,0.0,7.5109155776242105,0.0,0.0,-0.8107437396924115,0.0,-0.11712575397231706,0.3490658503988659,1.0,0.14,0.14,0.75,0.08726646259971647,5.0,0.184,0.175,0.174,0.0,0.0,0.0,-0.006399349913659273,0.0,0.003957444934800138,0.0,6.064981419536373,0.0,-0.5198145265963802,0.0,0.1523063843553811,0.0,-3.709641608443943,0.0,-0.03294218171745835,0.0,-0.008072492332828592,0.4555388333231014,0.01560381043367476,0.09847553399905606,0.0,0.0,0.0,0.42660107627165733,0.09847553399905606,0.0,0.0,0.03330356912828346,0.0,0.0,-0.004771285359297307,0.0,1.1946895305722613,0.0,5.17545646980186,0.0,0.05656470521508793,0.0,86.65600784684773,-1.3731012201328894,0.0,-5.131006313048394,0.0,0.05656470521508793,0.0
sim_raptor_glider_3dof,raptor_glider_3dof,0.018000000000000002,-14.785132699965567,0.0,-0.0032424616503540188,11.882144779497931,0.0,-0.4299726313345212,0.0,0.0,0.0,-46.01988119652771,-0.8031984482560363,-0.03377643940897486,0.0,0.0,0.0,0.0,0.0,-0.011021654564394716,-0.631494289790917,0.0,0.0,11.889921825842535,0.0032424616503540188,0.03494055607229873,-0.03617066694867531,-2.0724265583324346,0.0,0.0,0.025149012384280592,1.4409322685415176,-5.234001049866177,0.0,-18.09646990674316,11.886161997797958,0.0,-0.29898827192771865,0.0,7.579193004076535,0.0,0.0,-0.8031984482560363,0.0,-0.11712575397231706,0.3490658503988659,1.0,0.14,0.14,0.75,0.08726646259971647,5.0,0.184,0.175,0.174,0.0,0.0,0.0,-0.006441392527478614,0.0,0.003953901412226455,0.0,6.065001362490286,0.0,-0.5199855107720351,0.0,0.15050186444633346,0.0,-3.708506869149807,0.0,-0.032479914229439404,0.0,-0.007928405720561693,0.4489773730941621,0.016095785262759482,0.09821639311309809,0.0,0.0,0.0,0.42029779194919165,0.09821639311309809,0.0,0.0,0.033632207321664255,0.0,0.0,-0.004728701517256481,0.0,1.1906282642647188,0.0,5.095060148732181,0.0,0.05707890251370039,0.0,86.5892885324934,-1.3741010305049688,0.0,-5.048671106422956,0.0,0.05707890251370039,0.0
sim_raptor_glider_3dof,raptor_glider_3dof,0.019000000000000003,-14.773248933621456,0.0,-0.0035457045153158328,11.876907676928685,0.0,-0.44787483149547297,0.0,0.0,0.0,-45.58373688028906,-0.7955862939238123,-0.03346920121026422,0.0,0.0,0.0,0.0,0.0,-0.011821052388622522,-0.6772964112711112,0.0,0.0,11.885349293604065,0.0035457045153158328,0.03492711890917766,-0.03769185789360098,-2.159584379310193,0.0,0.0,0.02587080550497846,1.4822879680390821,-5.239988741018882,0.0,-17.708862196612884,11.88137209175194,0.0,-0.3074492613631731,0.0,7.644650955050595,0.0,0.0,-0.7955862939238123,0.0,-0.11712575397231706,0.3490658503988659,1.0,0.14,0.14,0.75,0.08726646259971647,5.0,0.184,0.175,0.174,0.0,0.0,0.0,-0.006482575909799809,0.0,0.003950256734801035,0.0,6.065009952976736,0.0,-0.5201501348735534,0.0,0.14873329565088828,0.0,-3.7073865652773352,0.0,-0.03202736181680132,0.0,-0.00778891360120784,0.44254249056704537,0.016577122109888445,0.09796756386800214,0.0,0.0,0.0,0.41412374518286466,0.09796756386800214,0.0,0.0,0.0339487794783381,0.0,0.0,-0.004685688169436991,0.0,1.1866985625267878,0.0,5.016354737358412,0.0,0.05757186634248604,0.0,86.52270168913847,-1.3748866690004846,0.0,-4.968073567966368,0.0,0.05757186634248604,0.0
sim_raptor_glider_3dof,raptor_glider_3dof,0.02,-14.761369952947375,0.0,-0.0038572648062513777,11.871665223678946,0.0,-0.4653922136226453,0.0,0.0,0.0,-45.14392140759354,-0.7879100658240603,-0.03315901017976123,0.0,0.0,0.0,0.0,0.0,-0.012612805791820733,-0.7226605396894884,0.0,0.0,11.880783858635281,0.0038572648062513777,0.034913702602589795,-0.03918186883200702,-2.2449557175091868,0.0,0.0,0.02656906304018629,1.5222951778196983,-5.244711645008602,0.0,-17.326828594700434,11.876590692885065,0.0,-0.3156241582713354,0.0,7.707350629427356,0.0,0.0,-0.7879100658240603,0.0,-0.11712575397231706,0.3490658503988659,1.0,0.14,0.14,0.75,0.08726646259971647,5.0,0.184,0.175,0.174,0.0,0.0,0.0,-0.006522918446713815,0.0,0.003946514663695838,0.0,6.065007861001021,0.0,-0.5203086269066307,0.0,0.14700023575364823,0.0,-3.706280917802994,0.0,-0.03158437198631651,0.0,-0.007653877198990324,0.4362332128728837,0.017048004725263025,0.09772870038652923,0.0,0.0,0.0,0.4080778608364266,0.09772870038652923,0.0,0.0,0.03425352966081083,0.0,0.0,-0.004642261425166572,0.0,1.182895887899181,0.0,4.939323060850196,0.0,0.05804405759021743,0.0,86.45624375151968,-1.3754703951469007,0.0,-4.889195861604418,0.0,0.05804405759021743,0.0
sim_raptor_glider_3dof,raptor_glider_3dof,0.02,-14.761369952947375,0.0,-0.0038572648062513777,11.871665223678946,0.0,-0.4653922136226453,0.0,0.0,0.0,-45.14392140759354,-0.7879100658240603,-0.03315901017976123,0.0,0.0,0.0,0.0,0.0,-0.012612805791820733,-0.7226605396894884,0.0,0.0,11.880783858635281,0.0038572648062513777,0.034913702602589795,-0.03918186883200702,-2.2449557175091868,0.0,0.0,0.02656906304018629,1.5222951778196983,-5.259690376779238,0.0,-17.285706216505407,11.876590692885065,0.0,-0.3156241582713354,0.0,8.173138250057981,0.0,0.0,-0.7879100658240603,0.0,-0.12065240733981286,0.3490658503988659,1.0,0.14,0.14,0.75,0.08726646259971647,5.0,0.184,0.175,0.174,0.0,0.0,0.0,-0.0057272207161683545,0.0,0.004076082730649365,0.0,6.063927523558255,0.0,-0.5202179357484725,0.0,0.14696565277920118,0.0,-3.7021517242733313,0.0,-0.03180338126551518,0.0,-0.00772355080841391,0.4353079452209635,0.019137258410973093,0.09810535421877083,0.0,0.0,0.0,0.40715760839334314,0.09810535421877083,0.0,0.0,0.03632361455068109,0.0,0.0,-0.004642261425166572,0.0,1.1874548584734124,0.0,4.928184441115694,0.0,0.061551904161186666,0.0,86.45624375151968,-1.3795895463838257,0.0,-4.877887207600786,0.0,0.061551904161186666,0.0
sim_raptor_glider_3dof,raptor_glider_3dof,0.021,-14.749495762148733,0.0,-0.00417683373164377,11.86640386785092,0.0,-0.48248700852775056,0.0,0.0,0.0,-44.673997328954265,-0.7797083434174042,-0.032826483572842756,0.0,0.0,0.0,0.0,0.0,-0.013396607204526716,-0.7675690526139329,0.0,0.0,11.876208758199956,0.00417683373164377,0.03490025789238577,-0.040637533507996114,-2.32835915982964,0.0,0.0,0.027240926303469398,1.5607901072157073,-5.262941051917134,0.0,-16.9051045564171,11.87180255305387,0.0,-0.3234789168538316,0.0,8.230013925366327,0.0,0.0,-0.7797083434174042,0.0,-0.12065240733981286,0.3490658503988659,1.0,0.14,0.14,0.75,0.08726646259971647,5.0,0.184,0.175,0.174,0.0,0.0,0.0,-0.005763019075258516,0.0,0.004073244773725302,0.0,6.06391306113225,0.0,-0.5203693389214257,0.0,0.14527200136764326,0.0,-3.7010538481572275,0.0,-0.031371776693221394,0.0,-0.0075936490759233,0.4291393646933816,0.01959560985571617,0.09787801163924324,0.0,0.0,0.0,0.40127139274500495,0.09787801163924324,0.0,0.0,0.036604571524539734,0.0,0.0,-0.0045957077001979865,0.0,1.1837908876122558,0.0,4.853198488970532,0.0,0.06198023487193381,0.0,86.38967073009263,-1.3799812989063325,0.0,-4.801098629856344,0.0,0.06198023487193381,0.0
sim_raptor_glider_3dof,raptor_glider_3dof,0.022,-14.73762634980753,0.0,-0.004504121715950682,11.861139809449384,0.0,-0.49920424560929944,0.0,0.0,0.0,-44.200888613337874,-0.7714510386100167,-0.03249134162286843,0.0,0.0,0.0,0.0,0.0,-0.014172190503285257,-0.8120067022936313,0.0,0.0,11.87164025980148,0.004504121715950682,0.03488683258338911,-0.04206255147638161,-2.4100066751484364,0.0,0.0,0.027890360973096356,1.5979999728548049,-5.265026751666436,0.0,-16.53010780371721,11.867023249427886,0.0,-0.33106140771363396,0.0,8.284250887366218,0.0,0.0,-0.7714510386100167,0.0,-0.12065240733981286,0.3490658503988659,1.0,0.14,0.14,0.75,0.08726646259971647,5.0,0.184,0.175,0.174,0.0,0.0,0.0,-0.005798084528001587,0.0,0.004070304896259995,0.0,6.063889281516649,0.0,-0.5205150366600027,0.0,0.14361335491244243,0.0,-3.6999715064481906,0.0,-0.030949508922279812,0.0,-0.007467943264871321,0.4230956594911532,0.020043779298772553,0.09765996963234445,0.0,0.0,0.0,0.3955123137418921,0.09765996963234445,0.0,0.0,0.03687416464829678,0.0,0.0,-0.004548787827201581,0.0,1.180245217399295,0.0,4.779865470711711,0.0,0.062388693432754994,0.0,86.32321936163552,-1.3801953488187653,0.0,-4.726008198299602,0.0,0.062388693432754994,0.0
sim_raptor_glider_3dof,raptor_glider_3dof,0.023,-14.725761711709847,0.0,-0.004838843821961833,11.855874287241248,0.0,-0.5155495876643467,0.0,0.0,0.0,-43.72475479616611,-0.7631409358202806,-0.032153699458661894,0.0,0.0,0.0,0.0,0.0,-0.014939486985745548,-0.8559695523738398,0.0,0.0,11.8670782626647,0.004838843821961833,0.034873426379454876,-0.04345736034315422,-2.4899233364419318,0.0,0.0,0.02851787335740867,1.633953784068092,-5.266000248196208,0.0,-16.1606766907647,11.86225302566194,0.0,-0.3383779652743906,0.0,8.33590875340949,0.0,0.0,-0.7631409358202806,0.0,-0.12065240733981286,0.3490658503988659,1.0,0.14,0.14,0.75,0.08726646259971647,5.0,0.184,0.175,0.174,0.0,0.0,0.0,-0.005832431743665803,0.0,0.004067267130383606,0.0,6.063856783719949,0.0,-0.5206552373684132,0.0,0.14198925390991352,0.0,-3.6989048534187416,0.0,-0.030536427905951808,0.0,-0.007346303642568302,0.4171756326475071,0.020481946266110176,0.09745090297580719,0.0,0.0,0.0,0.3898790726457332,0.09745090297580719,0.0,0.0,0.03713263276373187,0.0,0.0,-0.0045015179242126665,0.0,1.1768136282470054,0.0,4.708165774222808,0.0,0.06277772882192686,0.0,86.25688807031935,-1.3802426340354124,0.0,-4.6525955706876045,0.0,0.06277772882192686,0.0
sim_raptor_glider_3dof,raptor_glider_3dof,0.024,-14.713901840268147,0.0,-0.005180777937871985,11.850608215259543,0.0,-0.531527716374188,0.0,0.0,0.0,-43.245719244605915,-0.7547801882114482,-0.03181364659173494,0.0,0.0,0.0,0.0,0.0,-0.015698453073889316,-0.8994551060180317,0.0,0.0,11.862522361827223,0.005180777937871985,0.03486003809053226,-0.04482231675762568,-2.568129578210456,0.0,0.0,0.029123863683736363,1.668674472192424,-5.265911067817658,0.0,-15.7967774205437,11.857491825029536,0.0,-0.345433646607676,0.0,8.385037329828501,0.0,0.0,-0.7547801882114482,0.0,-0.12065240733981286,0.3490658503988659,1.0,0.14,0.14,0.75,0.08726646259971647,5.0,0.184,0.175,0.174,0.0,0.0,0.0,-0.005866072790712306,0.0,0.004064135957805394,0.0,6.0638161454619794,0.0,-0.5207901346183458,0.0,0.14039933044684014,0.0,-3.697854085857723,0.0,-0.030132408757956718,0.0,-0.007228610937203772,0.41137837487251055,0.02091026251476879,0.09725050626911555,0.0,0.0,0.0,0.38437068033365285,0.09725050626911555,0.0,0.0,0.03738017373970808,0.0,0.0,-0.0044539105228428915,0.0,1.1734920927860293,0.0,4.638083351691227,0.0,0.06314771613093845,0.0,86.19067086239959,-1.3801335321628847,0.0,-4.5808440600468225,0.0,0.06314771613093845,0.0
sim_raptor_glider_3dof,raptor_glider_3dof,0.025,-14.702046725177846,0.0,-0.005529633518698572,11.845342770639649,0.0,-0.5471448274431012,0.0,0.0,0.0,-42.76394347673053,-0.7463716148056988,-0.03147129967359018,0.0,0.0,0.0,0.0,0.0,-0.016449032958896777,-0.9424601656163738,0.0,0.0,11.85797254239285,0.005529633518698572,0.03484666767284625,-0.04615790435956301,-2.6446531109714635,0.0,0.0,0.029708871400666234,1.7021929453550897,-5.2648094230854,0.0,-15.43835797222284,11.852739902965595,0.0,-0.35223516120605614,0.0,8.431698246328422,0.0,0.0,-0.7463716148056988,0.0,-0.12065240733981286,0.3490658503988659,1.0,0.14,0.14,0.75,0.08726646259971647,5.0,0.184,0.175,0.174,0.0,0.0,0.0,-0.005899022308348595,0.0,0.0040609158027770705,0.0,6.063767918131915,0.0,-0.5209199280477997,0.0,0.13884306614030564,0.0,-3.696819283978793,0.0,-0.029737290128124167,0.0,-0.007114738242024496,0.40570238529447555,0.021328917427692953,0.09705846308511819,0.0,0.0,0.0,0.37898553327210716,0.09705846308511819,0.0,0.0,0.037617036481221465,0.0,0.0,-0.0044059819543026246,0.0,1.1702765406639892,0.0,4.569595115579185,0.0,0.06349911949309935,0.0,86.12456741942384,-1.37987813963178,0.0,-4.510729765982435,0.0,0.06349911949309935,0.0
sim_raptor_glider_3dof,raptor_glider_3dof,0.026000000000000002,-14.690196357344627,0.0,-0.005885165949312947,11.840078913832247,0.0,-0.5624062397029633,0.0,0.0,0.0,-42.279563630126994,-0.7379175916521621,-0.03112675736469271,0.0,0.0,0.0,0.0,0.0,-0.017191181364369396,-0.9849821370223186,0.0,0.0,11.853428595315021,0.005885165949312947,0.034833314512077995,-0.047464534263602004,-2.7195174898584815,0.0,0.0,0.03027335289923261,1.7345353528361631,-5.262742719719913,0.0,-15.085372874448385,11.847997319341955,0.0,-0.35878821761270047,0.0,8.475945007632173,0.0,0.0,-0.7379175916521621,0.0,-0.12065240733981286,0.3490658503988659,1.0,0.14,0.14,0.75,0.08726646259971647,5.0,0.184,0.175,0.174,0.0,0.0,0.0,-0.005931292638277261,0.0,0.004057611435691851,0.0,6.063712632412205,0.0,-0.5210448036068317,0.0,0.1373200245965079,0.0,-3.6958005648457015,0.0,-0.02935093322319909,0.0,-0.007004568275186949,0.40014642196963407,0.021738075466966395,0.09687447563132472,0.0,0.0,0.0,0.3737223023122697,0.09687447563132472,0.0,0.0,0.0378434357100009,0.0,0.0,-0.00435774603105698,0.0,1.167163100371325,0.0,4.5026812088741055,0.0,0.0638323418524779,0.0,86.0585746042567,-1.3794860355793206,0.0,-4.4422321021371705,0.0,0.0638323418524779,0.0
sim_raptor_glider_3dof,raptor_glider_3dof,0.027,-14.678350727396609,0.0,-0.0062471294581345335,11.834817588364059,0.0,-0.577317365125017,0.0,0.0,0.0,-41.79271659869425,-0.7294205080001003,-0.030780118898437823,0.0,0.0,0.0,0.0,0.0,-0.017924853951199585,-1.027018479792134,0.0,0.0,11.848890356903729,0.0062471294581345335,0.03481997812719659,-0.04874262599583041,-2.792746751945734,0.0,0.0,0.030817772044630824,1.7657282721535998,-5.259757025670768,0.0,-14.737773457110892,11.843264148830052,0.0,-0.36509860443850356,0.0,8.517831164691799,0.0,0.0,-0.7294205080001003,0.0,-0.12065240733981286,0.3490658503988659,1.0,0.14,0.14,0.75,0.08726646259971647,5.0,0.184,0.175,0.174,0.0,0.0,0.0,-0.005962895861152095,0.0,0.004054227760861756,0.0,6.063650796925788,0.0,-0.5211649418751845,0.0,0.13582975727996532,0.0,-3.6947980209745435,0.0,-0.028973197783671113,0.0,-0.0068979862484627895,0.39470916165945547,0.022137901700324418,0.09669825257286044,0.0,0.0,0.0,0.36857957671113784,0.09669825257286044,0.0,0.0,0.03805958683510771,0.0,0.0,-0.004309216645781296,0.0,1.1641479992124515,0.0,4.437320896316489,0.0,0.06414778650129394,0.0,85.99268994289265,-1.3789663953716944,0.0,-4.375329585459012,0.0,0.06414778650129394,0.0
sim_raptor_glider_3dof,raptor_glider_3dof,0.028,-14.666509825890527,0.0,-0.006615284179341715,11.829559691235362,0.0,-0.5918835649261683,0.0,0.0,0.0,-41.3035361570793,-0.7208826986575596,-0.03043148132935059,0.0,0.0,0.0,0.0,0.0,-0.01865000880774913,-1.0685667925658375,0.0,0.0,11.844357671183786,0.006615284179341715,0.03480665805984245,-0.04999259549443124,-2.864364728735645,0.0,0.0,0.031342586686682106,1.7957979361698073,-5.25589688885796,0.0,-14.39550946182805,11.838540449205198,0.0,-0.3711720294722505,0.0,8.557409136078425,0.0,0.0,-0.7208826986575596,0.0,-0.12065240733981286,0.3490658503988659,1.0,0.14,0.14,0.75,0.08726646259971647,5.0,0.184,0.175,0.174,0.0,0.0,0.0,-0.005993843541367442,0.0,0.004050769812082945,0.0,6.063582899201816,0.0,-0.5212805170757661,0.0,0.13437181760207373,0.0,-3.6938117301228,0.0,-0.028603945582627084,0.0,-0.006794880817015186,0.3893892539421009,0.02252855813665557,0.09652951070220711,0.0,0.0,0.0,0.36355592057205677,0.09652951070220711,0.0,0.0,0.038265700914567116,0.0,0.0,-0.004260407386109083,0.0,1.161227575538423,0.0,4.373493216192964,0.0,0.06444584820380662,0.0,85.92691107702522,-1.3783279878181318,0.0,-4.310000504904139,0.0,0.06444584820380662,0.0
sim_raptor_glider_3dof,raptor_glider_3dof,0.029,-14.654673643330145,0.0,-0.006989396266194709,11.824306072861974,0.0,-0.6061101463555374,0.0,0.0,0.0,-40.81215292244453,-0.712306443324083,-0.03008093950619653,0.0,0.0,0.0,0.0,0.0,-0.019366606475255073,-1.1096248145228471,0.0,0.0,11.839830387899807,0.006989396266194709,0.03479335386846456,-0.05121485484534673,-2.934395031013502,0.0,0.0,0.031848248370091654,1.824770216490655,-5.251205365174879,0.0,-14.058529219091342,11.833826260778041,0.0,-0.37701411638782384,0.0,8.594730213029642,0.0,0.0,-0.712306443324083,0.0,-0.12065240733981286,0.3490658503988659,1.0,0.14,0.14,0.75,0.08726646259971647,5.0,0.184,0.175,0.174,0.0,0.0,0.0,-0.006024146758432014,0.0,0.0040472427244329,0.0,6.06350940632553,0.0,-0.5213916972542028,0.0,0.13294576133848168,0.0,-3.692841756066554,0.0,-0.02824304045251011,0.0,-0.00669514401177641,0.38418532531996685,0.022910203741623565,0.09636797485976312,0.0,0.0,0.0,0.3586498769693964,0.09636797485976312,0.0,0.0,0.03846198466745081,0.0,0.0,-0.0042113315308675145,0.0,1.1583982769418828,0.0,4.311177028586032,0.0,0.06472691323432624,0.0,85.86123573488646,-1.377579187052091,0.0,-4.2462229714454125,0.0,0.06472691323432624,0.0
sim_raptor_glider_3dof,raptor_glider_3dof,0.03,-14.642842170189578,0.0,-0.0073692371157392635,11.819057544065387,0.0,-0.6200023671716757,0.0,0.0,0.0,-40.31869478484552,-0.703693974102221,-0.029728586371518383,0.0,0.0,0.0,0.0,0.0,-0.020074609608823617,-1.1501904059583616,0.0,0.0,11.835308367982112,0.0073692371157392635,0.03478006514438306,-0.05240981263530186,-3.0028610690742115,0.0,0.0,0.03233520302647824,1.8526706631158496,-5.2457240671288305,0.0,-13.726779808355932,11.829121612868777,0.0,-0.38263041330797753,0.0,8.629844654391295,0.0,0.0,-0.703693974102221,0.0,-0.12065240733981286,0.3490658503988659,1.0,0.14,0.14,0.75,0.08726646259971647,5.0,0.184,0.175,0.174,0.0,0.0,0.0,-0.0060538161512026616,0.0,0.004043651706605996,0.0,6.063430765541214,0.0,-0.5214986445096144,0.0,0.131551146321514,0.0,-3.6918881488758006,0.0,-0.027890348131967037,0.0,-0.0065986711224974405,0.37909598052632,0.023282994641526514,0.09621337776749755,0.0,0.0,0.0,0.35385996899536404,0.09621337776749755,0.0,0.0,0.03864864084062403,0.0,0.0,-0.004162002092012574,0.0,1.1556566588796848,0.0,4.250351031939324,0.0,0.06499136009222085,0.0,85.7956618103241,-1.3767279860383035,0.0,-4.183974935438734,0.0,0.06499136009222085,0.0
sim_raptor_glider_3dof,raptor_glider_3dof,0.03,-14.642842170189578,0.0,-0.0073692371157392635,11.819057544065387,0.0,-0.6200023671716757,0.0,0.0,0.0,-40.31869478484552,-0.703693974102221,-0.029728586371518383,0.0,0.0,0.0,0.0,0.0,-0.020074609608823617,-1.1501904059583616,0.0,0.0,11.835308367982112,0.0073692371157392635,0.03478006514438306,-0.05240981263530186,-3.0028610690742115,0.0,0.0,0.03233520302647824,1.8526706631158496,-5.25636825695316,0.0,-13.697935747904253,11.829121612868777,0.0,-0.38263041330797753,0.0,8.95613983562924,0.0,0.0,-0.703693974102221,0.0,-0.12314717063498054,0.3490658503988659,1.0,0.14,0.14,0.75,0.08726646259971647,5.0,0.184,0.175,0.174,0.0,0.0,0.0,-0.005462749924756685,0.0,0.004144874542838603,0.0,6.062641094384863,0.0,-0.5214276029547183,0.0,0.13152778749857025,0.0,-3.688860186027557,0.0,-0.028052233247189716,0.0,-0.006652330927378646,0.3784459842317734,0.02475690552002903,0.09649133583116663,0.0,0.0,0.0,0.3532132593138222,0.09649133583116663,0.0,0.0,0.040109949331417614,0.0,0.0,-0.004162002092012574,0.0,1.1589953223236056,0.0,4.242583148021541,0.0,0.06744868910212382,0.0,85.7956618103241,-1.379655138239994,0.0,-4.176042818814523,0.0,0.06744868910212382,0.0
sim_raptor_glider_3dof,raptor_glider_3dof,0.031,-14.631015414596218,0.0,-0.0077545665466903805,11.813804413021318,0.0,-0.6335346778872768,0.0,0.0,0.0,-39.80465801295053,-0.6947223399563305,-0.02936080190694075,0.0,0.0,0.0,0.0,0.0,-0.02077379336392434,-1.1902506842297418,0.0,0.0,11.830779386718683,0.0077545665466903805,0.03476675596320398,-0.05357532523892139,-3.0696400222309146,0.0,0.0,0.03280153187499705,1.8793893380011728,-5.2499233905340885,0.0,-13.368509773449723,11.82441535005477,0.0,-0.3879981012800007,0.0,8.986949546975321,0.0,0.0,-0.6947223399563305,0.0,-0.12314717063498054,0.3490658503988659,1.0,0.14,0.14,0.75,0.08726646259971647,5.0,0.184,0.175,0.174,0.0,0.0,0.0,-0.0054896966941405745,0.0,0.004141816143551066,0.0,6.062556655184569,0.0,-0.5215297663932542,0.0,0.13016729214501138,0.0,-3.687919805929602,0.0,-0.027708881681080388,0.0,-0.006559467849027671,0.37348128538622266,0.025119511393719998,0.09634451377981847,0.0,0.0,0.0,0.34856107188587554,0.09634451377981847,0.0,0.0,0.04027875099560154,0.0,0.0,-0.004110512266971705,0.0,1.1563462857755178,0.0,4.183500284845434,0.0,0.06768071703827115,0.0,85.73001204660338,-1.3787123253762654,0.0,-4.115575742199897,0.0,0.06768071703827115,0.0
sim_raptor_glider_3dof,raptor_glider_3dof,0.032,-14.61919334760391,0.0,-0.008145141853392037,11.808558068411418,0.0,-0.6467410641841103,0.0,0.0,0.0,-39.28892142347247,-0.685721038396932,-0.028991469111031083,0.0,0.0,0.0,0.0,0.0,-0.021464015060380554,-1.2297974743650426,0.0,0.0,11.826255436914357,0.008145141853392037,0.03475346156782261,-0.054714179438510806,-3.1348915613481374,0.0,0.0,0.03325016437813025,1.9050940869830948,-5.242765401779772,0.0,-13.044262978194721,11.8197186422892,0.0,-0.39315248475316905,0.0,9.015653324859743,0.0,0.0,-0.685721038396932,0.0,-0.12314717063498054,0.3490658503988659,1.0,0.14,0.14,0.75,0.08726646259971647,5.0,0.184,0.175,0.174,0.0,0.0,0.0,-0.005516068197196131,0.0,0.004138698830299305,0.0,6.062467975885891,0.0,-0.5216280020420221,0.0,0.12883755626256777,0.0,-3.686996131124797,0.0,-0.02737351652757596,0.0,-0.006469666522379051,0.3686290224305843,0.025473518442954594,0.09620410740031736,0.0,0.0,0.0,0.34402264300225277,0.09620410740031736,0.0,0.0,0.04043831926567398,0.0,0.0,-0.004058805675544352,0.0,1.1537782114896367,0.0,4.125871966187669,0.0,0.06789688518951872,0.0,85.66446030125013,-1.3776827264940152,0.0,-4.056601280357922,0.0,0.06789688518951872,0.0
sim_raptor_glider_3dof,raptor_glider_3dof,0.033,-14.607375972555367,0.0,-0.008540767294296701,11.803319219486271,0.0,-0.6596257706148749,0.0,0.0,0.0,-38.77159939690957,-0.6766920657403198,-0.028620671476500825,0.0,0.0,0.0,0.0,0.0,-0.022145221628159652,-1.2688277356753774,0.0,0.0,11.821736367994054,0.008540767294296701,0.03474018151574849,-0.05582669994948893,-3.198634291248922,0.0,0.0,0.03368147832132928,1.9298065555735446,-5.234931765462445,0.0,-12.725152086888476,11.815031464872845,0.0,-0.39809827733599157,0.0,9.04229087015397,0.0,0.0,-0.6766920657403198,0.0,-0.12314717063498054,0.3490658503988659,1.0,0.14,0.14,0.75,0.08726646259971647,5.0,0.184,0.175,0.174,0.0,0.0,0.0,-0.005541866444886924,0.0,0.004135533122896483,0.0,6.062375460466538,0.0,-0.5217224458037689,0.0,0.1275382316849795,0.0,-3.686089231485964,0.0,-0.02704603109427682,0.0,-0.006382836380495973,0.36388806183587813,0.025819042812748917,0.09606987814506879,0.0,0.0,0.0,0.3395967659369083,0.09606987814506879,0.0,0.0,0.04058881166258872,0.0,0.0,-0.004006894006710116,0.0,1.1512880278766835,0.0,4.069680304355328,0.0,0.06809749254312955,0.0,85.59900431004125,-1.3765732551418075,0.0,-3.9991008959537573,0.0,0.06809749254312955,0.0
sim_raptor_glider_3dof,raptor_glider_3dof,0.034,-14.595563281109222,0.0,-0.008941261356186128,11.798088445710986,0.0,-0.6721932924622164,0.0,0.0,0.0,-38.25279508957996,-0.6676372224038896,-0.028248484491499002,0.0,0.0,0.0,0.0,0.0,-0.022817389479719324,-1.3073401166941225,0.0,0.0,11.817221957602822,0.008941261356186128,0.0347269151535538,-0.05691323370381325,-3.2608880896702095,0.0,0.0,0.034095844224093924,1.953547972976087,-5.22645849708721,0.0,-12.411126313371762,11.810353705625992,0.0,-0.40284009638646523,0.0,9.066902214459557,0.0,0.0,-0.6676372224038896,0.0,-0.12314717063498054,0.3490658503988659,1.0,0.14,0.14,0.75,0.08726646259971647,5.0,0.184,0.175,0.174,0.0,0.0,0.0,-0.005567094443173231,0.0,0.004132328780208525,0.0,6.062279493747606,0.0,-0.5218132313862522,0.0,0.12626894246449694,0.0,-3.685199145425379,0.0,-0.02672631277219685,0.0,-0.0062988877164774654,0.3592571484325638,0.026156207519035576,0.0959415914663605,0.0,0.0,0.0,0.33528211927584717,0.0959415914663605,0.0,0.0,0.040730388246104365,0.0,0.0,-0.0039547878288098606,0.0,1.1488727067554403,0.0,4.014906048689033,0.0,0.06828284057709492,0.0,85.53364077308457,-1.3753904920523192,0.0,-3.943054662377816,0.0,0.06828284057709492,0.0
sim_raptor_glider_3dof,raptor_glider_3dof,0.034999999999999996,-14.583755262333291,0.0,-0.009346390154253304,11.792866474438455,0.0,-0.6844494901090419,0.0,0.0,0.0,-37.73264181033933,-0.6585588350660951,-0.02787500537230369,0.0,0.0,0.0,0.0,0.0,-0.023480489505120015,-1.3453329495445998,0.0,0.0,11.812712253688607,0.009346390154253304,0.03471366262214172,-0.05797424275204573,-3.3216794301591235,0.0,0.0,0.03449375324692572,1.9763464806145234,-5.217381774331851,0.0,-12.102118265174786,11.805685455630599,0.0,-0.4073839849051016,0.0,9.089537980143676,0.0,0.0,-0.6585588350660951,0.0,-0.12314717063498054,0.3490658503988659,1.0,0.14,0.14,0.75,0.08726646259971647,5.0,0.184,0.175,0.174,0.0,0.0,0.0,-0.005591758325223198,0.0,0.004129094537075363,0.0,6.062180432372106,0.0,-0.5219004978226375,0.0,0.1250291763650524,0.0,-3.6843258031442185,0.0,-0.026414215695655233,0.0,-0.006217724632563007,0.3547345113092576,0.026485171168302048,0.09581900640156475,0.0,0.0,0.0,0.33107684761242306,0.09581900640156475,0.0,0.0,0.040863255386136756,0.0,0.0,-0.003902500752122517,0.0,1.1465292050199087,0.0,3.9615238056504207,0.0,0.06845331052846203,0.0,85.46837030692731,-1.3741407074067558,0.0,-3.888436369152289,0.0,0.06845331052846203,0.0
sim_raptor_glider_3dof,raptor_glider_3dof,0.036,-14.571951907068781,0.0,-0.009755965649861288,11.787653868356763,0.0,-0.6963991714879273,0.0,0.0,0.0,-37.21124734125836,-0.6494587848789443,-0.027500313043243473,0.0,0.0,0.0,0.0,0.0,-0.02413450011727445,-1.3828049973778163,0.0,0.0,11.808207125818686,0.009755965649861288,0.03470042353821354,-0.05901010155611569,-3.381029767803801,0.0,0.0,0.03487560143884124,1.9982247704259843,-5.2077354785271766,0.0,-11.798071268839903,11.801026647777364,0.0,-0.4117348475460654,0.0,9.11024022045364,0.0,0.0,-0.6494587848789443,0.0,-0.12314717063498054,0.3490658503988659,1.0,0.14,0.14,0.75,0.08726646259971647,5.0,0.184,0.175,0.174,0.0,0.0,0.0,-0.005615862614938596,0.0,0.004125838732193313,0.0,6.062078622880532,0.0,-0.5219843725484651,0.0,0.12381852174017167,0.0,-3.683469192813859,0.0,-0.026109620366565833,0.0,-0.0061392606786215866,0.35031872969845457,0.026806064998446757,0.09570189956469126,0.0,0.0,0.0,0.3269794613233789,0.09570189956469126,0.0,0.0,0.04098758282270019,0.0,0.0,-0.0038500438260540867,0.0,1.1442546643499634,0.0,3.909512511953887,0.0,0.06860921910023637,0.0,85.40319094685155,-1.3728298480987704,0.0,-3.835224247182914,0.0,0.06860921910023637,0.0
sim_raptor_glider_3dof,raptor_glider_3dof,0.037,-14.560153205910883,0.0,-0.010169797589359887,11.782451179667026,0.0,-0.7080472617730632,0.0,0.0,0.0,-36.68872108908859,-0.6403389813504757,-0.0271244876470471,0.0,0.0,0.0,0.0,0.0,-0.02477940064665253,-1.4197550759169328,0.0,0.0,11.803706482547812,0.010169797589359887,0.03468719763304185,-0.06002119504755646,-3.4389611575565033,0.0,0.0,0.03524179440090393,2.0192060816395707,-5.197552450473084,0.0,-11.498926319068914,11.796377233438015,0.0,-0.415897694831891,0.0,9.129051706155726,0.0,0.0,-0.6403389813504757,0.0,-0.12314717063498054,0.3490658503988659,1.0,0.14,0.14,0.75,0.08726646259971647,5.0,0.184,0.175,0.174,0.0,0.0,0.0,-0.005639412471269535,0.0,0.004122569063366342,0.0,6.061974394032327,0.0,-0.5220649798210556,0.0,0.12263655309733919,0.0,-3.6826292810026646,0.0,-0.025812404761315865,0.0,-0.006063411129192027,0.3460083169324369,0.027119023297203275,0.09559005321160734,0.0,0.0,0.0,0.32298840399296647,0.09559005321160734,0.0,0.0,0.04110354383897277,0.0,0.0,-0.003797428270586594,0.0,1.1420463101251568,0.0,3.8588503991813847,0.0,0.06875088839905878,0.0,85.33810129483818,-1.3714635632998702,0.0,-3.783395812266229,0.0,0.06875088839905878,0.0
sim_raptor_glider_3dof,raptor_glider_3dof,0.038,-14.548359149489714,0.0,-0.010587700129408921,11.777258931093,0.0,-0.719398636953468,0.0,0.0,0.0,-36.165170323042645,-0.6312012966816354,-0.026747607837707976,0.0,0.0,0.0,0.0,0.0,-0.025415172162871754,-1.4561821005309277,0.0,0.0,11.799210241743314,0.010587700129408921,0.03467398466526584,-0.06100790466067889,-3.495495453993405,0.0,0.0,0.03559273249780713,2.039313353462477,-5.1868643534836965,0.0,-11.204624050550766,11.791737159598604,0.0,-0.41987746760430317,0.0,9.146014611313428,0.0,0.0,-0.6312012966816354,0.0,-0.12314717063498054,0.3490658503988659,1.0,0.14,0.14,0.75,0.08726646259971647,5.0,0.184,0.175,0.174,0.0,0.0,0.0,-0.0056624133356996615,0.0,0.004119292662592726,0.0,6.061868058573086,0.0,-0.5221424396642601,0.0,0.12148284750112337,0.0,-3.6818060245246276,0.0,-0.02552244841215973,0.0,-0.005990093983965537,0.34180178169278713,0.027424179038510757,0.09548325674888018,0.0,0.0,0.0,0.31910211594953736,0.09548325674888018,0.0,0.0,0.04121130955350011,0.0,0.0,-0.003744665097279117,0.0,1.1399014633474727,0.0,3.8095157341019217,0.0,0.06887863603780142,0.0,85.27310008956408,-1.3700472137660877,0.0,-3.7329286232881005,0.0,0.06887863603780142,0.0
sim_raptor_glider_3dof,raptor_glider_3dof,0.039,-14.536569728498815,0.0,-0.011009492982809232,11.772077610047171,0.0,-0.7304581057911889,0.0,0.0,0.0,-35.640699595374926,-0.6220475556535032,-0.026369750368683775,0.0,0.0,0.0,0.0,0.0,-0.02604179783658731,-1.4920851069693706,0.0,0.0,11.794718322252972,0.011009492982809232,0.03466078439640592,-0.06197060683633507,-3.550654225586566,0.0,0.0,0.03592880899974776,2.0585691186171955,-5.175701681074604,0.0,-10.915104966639587,11.78710636218836,0.0,-0.42367901499677035,0.0,9.161170350519582,0.0,0.0,-0.6220475556535032,0.0,-0.12314717063498054,0.3490658503988659,1.0,0.14,0.14,0.75,0.08726646259971647,5.0,0.184,0.175,0.174,0.0,0.0,0.0,-0.005684870870590253,0.0,0.004116016134050968,0.0,6.061759913960121,0.0,-0.5222168678724038,0.0,0.12035698640775447,0.0,-3.6809993721192114,0.0,-0.025239632818954263,0.0,-0.005919229995491393,0.33769763600538216,0.02772166339548594,0.09538130673260771,0.0,0.0,0.0,0.315319042603739,0.09538130673260771,0.0,0.0,0.04131104823249508,0.0,0.0,-0.0036917650516157287,0.0,1.137817538644415,0.0,3.7614869121985537,0.0,0.06899277390976297,0.0,85.20818608575371,-1.368585881816499,0.0,-3.6838003781394564,0.0,0.06899277390976297,0.0
sim_raptor_glider_3dof,raptor_glider_3dof,0.04,-14.524784933695539,0.0,-0.011435000300130527,11.766907676433835,0.0,-0.7412304218655417,0.0,0.0,0.0,-35.11541128636939,-0.6128795451391231,-0.02599099047679019,0.0,0.0,0.0,0.0,0.0,-0.026659262501202877,-1.5274632262503036,0.0,0.0,11.790230651010033,0.011435000300130527,0.03464759661174302,-0.06290967399975841,-3.604458810730046,0.0,0.0,0.03625041149855554,2.0769955844797425,-5.164093811814549,0.0,-10.630309440360211,11.782484773442764,0.0,-0.4273071115788863,0.0,9.174559700052676,0.0,0.0,-0.6128795451391231,0.0,-0.12314717063498054,0.3490658503988659,1.0,0.14,0.14,0.75,0.08726646259971647,5.0,0.184,0.175,0.174,0.0,0.0,0.0,-0.005706790956767374,0.0,0.004112745582377146,0.0,6.0616502428183665,0.0,-0.5222883762092971,0.0,0.11925855460320278,0.0,-3.6802092640651884,0.0,-0.024963841134986026,0.0,-0.0058507425133557285,0.3336943925833945,0.02801160602190684,0.09528400659372514,0.0,0.0,0.0,0.31163763146053297,0.09528400659372514,0.0,0.0,0.04140292577279471,0.0,0.0,-0.0036387386667506272,0.0,1.1357920420029666,0.0,3.714742425879855,0.0,0.0690936091010967,0.0,85.14335815676596,-1.3670843828617651,0.0,-3.635988881094727,0.0,0.0690936091010967,0.0
sim_raptor_glider_3dof,raptor_glider_3dof,0.04,-14.524784933695539,0.0,-0.011435000300130527,11.766907676433835,0.0,-0.7412304218655417,0.0,0.0,0.0,-35.11541128636939,-0.6128795451391231,-0.02599099047679019,0.0,0.0,0.0,0.0,0.0,-0.026659262501202877,-1.5274632262503036,0.0,0.0,11.790230651010033,0.011435000300130527,0.03464759661174302,-0.06290967399975841,-3.604458810730046,0.0,0.0,0.03625041149855554,2.0769955844797425,-5.170634347381704,0.0,-10.61278395226569,11.782484773442764,0.0,-0.4273071115788863,0.0,9.372855270869914,0.0,0.0,-0.6128795451391231,0.0,-0.124677654625445,0.3490658503988659,1.0,0.14,0.14,0.75,0.08726646259971647,5.0,0.184,0.175,0.174,0.0,0.0,0.0,-0.005332205457114603,0.0,0.004179484299982416,0.0,6.061154934339608,0.0,-0.5222415926225749,0.0,0.11924507001416432,0.0,-3.678305730840899,0.0,-0.025066066184571068,0.0,-0.005885514590890051,0.3332985575562998,0.028913400145047514,0.0954600192386096,0.0,0.0,0.0,0.3112435987315519,0.0954600192386096,0.0,0.0,0.04229779343598872,0.0,0.0,-0.0036387386667506272,0.0,1.1378901250758588,0.0,3.7100455281121776,0.0,0.07058697304492133,0.0,85.14335815676596,-1.3688830301427326,0.0,-3.6311693718687335,0.0,0.07058697304492133,0.0
sim_raptor_glider_3dof,raptor_glider_3dof,0.041,-14.513004782180513,0.0,-0.011864046529312106,11.761743185613998,0.0,-0.7517008295361844,0.0,0.0,0.0,-34.57808537849274,-0.603501438890408,-0.02560303644842524,0.0,0.0,0.0,0.0,0.0,-0.02726740536806622,-1.5623072458625595,0.0,0.0,11.785739556831498,0.011864046529312106,0.03463439876820211,-0.06382386178919099,-3.6568379127469264,0.0,0.0,0.03655645642112476,2.0945306668843666,-5.158465179261251,0.0,-10.330939333744851,11.777865352857752,0.0,-0.43074891922747816,0.0,9.383236410938721,0.0,0.0,-0.603501438890408,0.0,-0.124677654625445,0.3490658503988659,1.0,0.14,0.14,0.75,0.08726646259971647,5.0,0.184,0.175,0.174,0.0,0.0,0.0,-0.005352584056837303,0.0,0.004176517529073888,0.0,6.061043610969081,0.0,-0.5223099287507149,0.0,0.11817562830456299,0.0,-3.6775310467772457,0.0,-0.024797900636689213,0.0,-0.005819548319319635,0.32940194855192667,0.029195084806248897,0.09536772038658926,0.0,0.0,0.0,0.3076765916837276,0.09536772038658926,0.0,0.0,0.042376919406568354,0.0,0.0,-0.0035844251027795336,0.0,1.1359240370074277,0.0,3.6647330428086082,0.0,0.07066515341077952,0.0,85.0785054795395,-1.3673498885875264,0.0,-3.5848216099387944,0.0,0.07066515341077952,0.0
sim_raptor_glider_3dof,raptor_glider_3dof,0.042,-14.501229222019484,0.0,-0.012296435046418022,11.756590999733197,0.0,-0.7618931583400468,0.0,0.0,0.0,-34.04021621290583,-0.5941138510059618,-0.025214375353227948,0.0,0.0,0.0,0.0,0.0,-0.027866213019092645,-1.5966163970065164,0.0,0.0,11.78125261250827,0.012296435046418022,0.03462121311971633,-0.06471512417277027,-3.7079034857647892,0.0,0.0,0.036848911153677624,2.111287088758273,-5.145906226134041,0.0,-10.053718525540834,11.773254976233908,0.0,-0.43402809162138745,0.0,9.391939135246373,0.0,0.0,-0.5941138510059618,0.0,-0.124677654625445,0.3490658503988659,1.0,0.14,0.14,0.75,0.08726646259971647,5.0,0.184,0.175,0.174,0.0,0.0,0.0,-0.005372461714086012,0.0,0.004173561409065184,0.0,6.060931314625787,0.0,-0.5223755644551711,0.0,0.11713282244115625,0.0,-3.676772856755344,0.0,-0.02453653053955388,0.0,-0.005755808789055822,0.32560336777875226,0.02946948362647675,0.09527968433559243,0.0,0.0,0.0,0.30420820417675715,0.09527968433559243,0.0,0.0,0.042448537952307276,0.0,0.0,-0.0035300125494519136,0.0,1.1340114889303181,0.0,3.6206626939299626,0.0,0.07073069362754043,0.0,85.0137374013333,-1.3657857894016194,0.0,-3.5397471064626536,0.0,0.07073069362754043,0.0
sim_raptor_glider_3dof,raptor_glider_3dof,0.043000000000000003,-14.48945826776001,0.0,-0.012732023327686927,11.751451554356159,0.0,-0.7718105572364502,0.0,0.0,0.0,-33.50189558820888,-0.5847183836736074,-0.02482507501190281,0.0,0.0,0.0,0.0,0.0,-0.02845562914933713,-1.6303874536464584,0.0,0.0,11.776769725635353,0.012732023327686927,0.034608039394737874,-0.06558369918416578,-3.7576691681082792,0.0,0.0,0.037128070034828646,2.127281714461821,-5.132983824951912,0.0,-9.781084052523596,11.768653557283592,0.0,-0.4371482806527519,0.0,9.398993626965332,0.0,0.0,-0.5847183836736074,0.0,-0.124677654625445,0.3490658503988659,1.0,0.14,0.14,0.75,0.08726646259971647,5.0,0.184,0.175,0.174,0.0,0.0,0.0,-0.005391841666771016,0.0,0.004170621210455798,0.0,6.0608183024116,0.0,-0.5224385911830736,0.0,0.11611639070488144,0.0,-3.676031181449366,0.0,-0.024281879824635182,0.0,-0.005694235501333215,0.32190185890823,0.02973668393537244,0.09519574604257396,0.0,0.0,0.0,0.3008374212495066,0.09519574604257396,0.0,0.0,0.04251276891095283,0.0,0.0,-0.0034755105016663936,0.0,1.1321503802436075,0.0,3.577819545705469,0.0,0.07078382100467592,0.0,84.94905252063326,-1.3641949038002705,0.0,-3.4959304125744843,0.0,0.07078382100467592,0.0
sim_raptor_glider_3dof,raptor_glider_3dof,0.044,-14.477691911542907,0.0,-0.01317067257640807,11.74632516033003,0.0,-0.7814570552094408,0.0,0.0,0.0,-32.9632061105932,-0.5753164786433653,-0.02443519659993055,0.0,0.0,0.0,0.0,0.0,-0.029035647396372544,-1.6636200512421642,0.0,0.0,11.772290766938223,0.01317067257640807,0.0345948772133716,-0.06642990047577788,-3.8061529307361717,0.0,0.0,0.03739425307940533,2.1425328794940075,-5.119723119851763,0.0,-9.512982057974504,11.764060951369554,0.0,-0.4401134328794603,0.0,9.404434179893395,0.0,0.0,-0.5753164786433653,0.0,-0.124677654625445,0.3490658503988659,1.0,0.14,0.14,0.75,0.08726646259971647,5.0,0.184,0.175,0.174,0.0,0.0,0.0,-0.005410729068780398,0.0,0.004167701565454718,0.0,6.060704809727717,0.0,-0.5224991029611664,0.0,0.11512598187932518,0.0,-3.675305967797354,0.0,-0.024033850609146992,0.0,-0.005634764373018902,0.31829613187871536,0.029996796061977977,0.09511573824795752,0.0,0.0,0.0,0.2975628999803376,0.09511573824795752,0.0,0.0,0.04256975140630167,0.0,0.0,-0.0034209275239902768,0.0,1.1303385832893786,0.0,3.5361847891715907,0.0,0.07082479380877715,0.0,84.884448906319,-1.3625811161287005,0.0,-3.453352121925975,0.0,0.07082479380877715,0.0
