name,vehicle,t,north,east,down,u,v,w,p_rad,p_deg,p_hat_div_b,q_deg,q_rad,q_hat_div_c,r_rad,r_deg,r_hat_div_b,phi_rad,phi_deg,theta_rad,theta_deg,psi_rad,psi_deg,speed,altitude,mach,alpha_rad,alpha_deg,beta_rad,beta_deg,gamma_rad,gamma_deg,u_dot,v_dot,w_dot,north_dot,east_dot,down_dot,p_rad_dot,q_rad_dot,r_rad_dot,phi_rad_dot,theta_rad_dot,psi_rad_dot,del_tail_alt_rad,del_tail_splay_rad,DIM_b,DIM_c_bar,DIM_S,DIM_wing_position,DIM_wing_incidence_rad,DIM_wing_incidence_deg,DIM_empennage_length,DIM_nose_length,DIM_tail_length,CDp,CDq,CDr,CYp,CYq,CYr,CLp,CLq,CLr,Clp,Clq,Clr,Cmp,Cmq,Cmr,Cnp,Cnq,Cnr,CL_0,Cm_0,CD_0,Cl_0,CY_0,Cn_0,CL,CD,CY,Cl,Cm,Cn,p_hat,q_hat,r_hat,drag_force_wind,side_force_wind,lift_force_wind,roll_moment_wind,pitch_moment_wind,yaw_moment_wind,qbar,X_total,Y_total,Z_total,L_total,M_total,N_total
sim_raptor_glider_3dof,raptor_glider_3dof,0.0,-15.0,0.0,0.0,12.0,0.0,0.0,0.0,0.0,0.0,0.0,0.0,0.0,0.0,0.0,0.0,0.0,0.0,0.0,0.0,0.0,0.0,12.0,-0.0,0.035264039495724236,0.0,0.0,0.0,0.0,0.0,0.0,-5.10289433076532,0.0,-19.67544178980696,12.0,0.0,0.0,0.0,-28.969957082425218,0.0,0.0,0.0,0.0,0.103427506313021,0.3490658503988659,1.0,0.14,0.14,0.75,0.08726646259971647,5.0,0.184,0.175,0.174,0.0,0.0,0.0,-0.00015935579268684292,0.0,0.0030870486514487285,0.0,6.087640887536844,0.0,-0.5142393220465625,0.0,0.19358801721475388,0.0,-3.8030491415100656,0.0,-0.04584539659606327,0.0,-0.01118027324074688,0.6565900350648638,-0.1262047681020227,0.11364558496924192,0.0,0.0,0.0,0.6565900350648638,0.11364558496924192,0.0,0.0,-0.1262047681020227,0.0,0.0,0.0,0.0,1.403295940960463,0.0,8.107575242196914,0.0,-0.21817274678774431,0.0,88.20001620075907,-1.403295940960463,0.0,-8.107575242196914,0.0,-0.21817274678774431,0.0
sim_raptor_glider_3dof,raptor_glider_3dof,0.001,-14.988002555084252,0.0,-9.776011145595419e-6,11.994885658855198,0.0,-0.019660001489229296,0.0,0.0,0.0,-1.65123510220278,-0.028819489257943583,-0.0012013224372019883,0.0,0.0,0.0,0.0,0.0,-0.000014435759227996908,-0.0008271080778312544,0.0,0.0,11.994901770530205,9.776011145595419e-6,0.03524905748194247,-0.0016390305371271228,-0.09390953227044452,0.0,0.0,0.001624594777899126,0.09308242419261327,-5.12576583233741,0.0,-19.64393677181941,11.99488594141243,0.0,-0.01948684620584824,0.0,-28.669349514536226,0.0,0.0,-0.028819489257943583,0.0,0.103427506313021,0.3490658503988659,1.0,0.14,0.14,0.75,0.08726646259971647,5.0,0.184,0.175,0.174,0.0,0.0,0.0,-0.00017879031728236034,0.0,0.003075509515162334,0.0,6.088523902518517,0.0,-0.5144778076035673,0.0,0.19170376726333,0.0,-3.8036698849942487,0.0,-0.045354225291744585,0.0,-0.010979778052943272,0.6499511711963017,-0.12564111329608368,0.11317907904013272,0.0,0.0,0.0,0.6489271719440067,0.11317907904013272,0.0,0.0,-0.12500139253936626,0.0,0.0,-0.0001681851412082784,0.0,1.396348284144844,0.0,8.006146990802703,0.0,-0.2159088711939723,0.0,88.12508813385567,-1.4094687220828248,0.0,-8.00384758041054,0.0,-0.2159088711939723,0.0
sim_raptor_glider_3dof,raptor_glider_3dof,0.002,-14.976010234956046,0.0,-0.000038849631874418633,11.989748516339636,0.0,-0.03928671827544895,0.0,0.0,0.0,-3.2853015388007356,-0.05733932877290908,-0.002391168625400215,0.0,0.0,0.0,0.0,0.0,-0.0000575404387711074,-0.003296824292915383,0.0,0.0,11.989812881413178,0.000038849631874418633,0.03523410291637479,-0.0032766807093079935,-0.18773997545528098,0.0,0.0,0.003219140270536886,0.1844431511623656,-5.148495156233489,0.0,-19.608901668211104,11.9897507570662,0.0,-0.03859682282040699,0.0,-28.370651722072164,0.0,0.0,-0.05733932877290908,0.0,0.103427506313021,0.3490658503988659,1.0,0.14,0.14,0.75,0.08726646259971647,5.0,0.184,0.175,0.174,0.0,0.0,0.0,-0.0001980556108258306,0.0,0.0030639742725019612,0.0,6.089393516242104,0.0,-0.5147126006004898,0.0,0.18981990321820674,0.0,-3.804279944881027,0.0,-0.04486374013592836,0.0,-0.010781243122064594,0.6432962607077081,-0.12507759962785783,0.11271782432291148,0.0,0.0,0.0,0.6412577533663826,0.11271782432291148,0.0,0.0,-0.12380406514935641,0.0,0.0,-0.00033476360755603014,0.0,1.3894778136899348,0.0,7.904813870490309,0.0,-0.2136593781189255,0.0,88.05032909368632,-1.4153718593083982,0.0,-7.900218567970789,0.0,-0.2136593781189255,0.0
sim_raptor_glider_3dof,raptor_glider_3dof,0.003,-14.964023059855073,0.0,-0.00008684464227648688,11.984588723152985,0.0,-0.05887667590549947,0.0,0.0,0.0,-4.902308989093326,-0.08556143280979332,-0.0035696010229896045,0.0,0.0,0.0,0.0,0.0,-0.00012901563106940182,-0.00739205115149362,0.0,0.0,11.984733343971044,0.00008684464227648688,0.03521917583229317,-0.0049126593842474765,-0.28147464890271817,0.0,0.0,0.004783643753178074,0.27408259775122457,-5.171064560126627,0.0,-19.570443021092476,11.984596219422524,0.0,-0.05733047614256196,0.0,-28.0738768511179,0.0,0.0,-0.08556143280979332,0.0,0.103427506313021,0.3490658503988659,1.0,0.14,0.14,0.75,0.08726646259971647,5.0,0.184,0.175,0.174,0.0,0.0,0.0,-0.00021715861091163626,0.0,0.0030524423442519744,0.0,6.0902496012988125,0.0,-0.5149436758119345,0.0,0.18793678111902917,0.0,-3.8048792384153662,0.0,-0.04437403346672371,0.0,-0.01058470913569507,0.6366271085489286,-0.12451433179433245,0.11226193827509436,0.0,0.0,0.0,0.6335835419799404,0.11226193827509436,0.0,0.0,-0.12261286567928054,0.0,0.0,-0.0004997441432185447,0.0,1.3826857785137017,0.0,7.803597251717469,0.0,-0.21142436656576893,0.0,87.97573907179434,-1.4210053545907977,0.0,-7.796710448089038,0.0,-0.21142436656576893,0.0
sim_raptor_glider_3dof,raptor_glider_3dof,0.004,-14.952041048246143,0.0,-0.0001533854056829424,11.979406447628849,0.0,-0.0784265070233314,0.0,0.0,0.0,-6.50236787512067,-0.11348772859676316,-0.004736682786094982,0.0,0.0,0.0,0.0,0.0,-0.00022856486335777864,-0.013095802015385074,0.0,0.0,11.979663165318778,0.0001533854056829424,0.03520427625060618,-0.006546683838966025,-0.37509735377925674,0.0,0.0,0.006318118975608246,0.3620015517638716,-5.193457006246593,0.0,-19.528666088748288,11.979424060259097,0.0,-0.07568843360078742,0.0,-27.779037265483915,0.0,0.0,-0.11348772859676316,0.0,0.103427506313021,0.3490658503988659,1.0,0.14,0.14,0.75,0.08726646259971647,5.0,0.184,0.175,0.174,0.0,0.0,0.0,-0.00023610639253273663,0.0,0.0030409131140358074,0.0,6.0910920435912805,0.0,-0.5151710115969873,0.0,0.18605474804471858,0.0,-3.8054676930495437,0.0,-0.04388519487414734,0.0,-0.010390214447037843,0.629945495167038,-0.1239514118060709,0.11181153247066214,0.0,0.0,0.0,0.6259062752506421,0.11181153247066214,0.0,0.0,-0.12142787074201174,0.0,0.0,-0.0006631355900532976,0.0,1.375973350016978,0.0,7.702518115286992,0.0,-0.20920392964635937,0.0,87.90131799802207,-1.4263694543176288,0.0,-7.69334505635038,0.0,-0.20920392964635937,0.0
sim_raptor_glider_3dof,raptor_glider_3dof,0.005,-14.940064216979332,0.0,-0.00023809654009814606,11.974201874207145,0.0,-0.09793294071428194,0.0,0.0,0.0,-8.085589386602628,-0.14112015676052453,-0.0058924777902051384,0.0,0.0,0.0,0.0,0.0,-0.0003558932082178716,-0.02039117878825467,0.0,0.0,11.97460234768332,0.00023809654009814606,0.035189404177858055,-0.008178478886214218,-0.46859232301692894,0.0,0.0,0.007822585677996347,0.44820114422867424,-5.215656149383356,0.0,-19.48367494935404,11.974235969548818,0.0,-0.09367139748129105,0.0,-27.48614460876656,0.0,0.0,-0.14112015676052453,0.0,0.103427506313021,0.3490658503988659,1.0,0.14,0.14,0.75,0.08726646259971647,5.0,0.184,0.175,0.174,0.0,0.0,0.0,-0.00025490613728920263,0.0,0.003029385938737944,0.0,6.091920741558271,0.0,-0.5153945896730125,0.0,0.18417414305786695,0.0,-3.806045245861261,0.0,-0.0433973114589078,0.0,-0.010197795209464535,0.6232531786089771,-0.12338893927325736,0.11136671288874311,0.0,0.0,0.0,0.618227667535272,0.11136671288874311,0.0,0.0,-0.1202491540820919,0.0,0.0,-0.0008249468906287193,0.0,1.3693416258321238,0.0,7.60159707903816,0.0,-0.20699815504862096,0.0,87.82706573065475,-1.4314646383109688,0.0,-7.5901438477504035,0.0,-0.20699815504862096,0.0
sim_raptor_glider_3dof,raptor_glider_3dof,0.006,-14.928092581094274,0.0,-0.00034060345935038366,11.968975204700634,0.0,-0.11739281811121333,0.0,0.0,0.0,-9.652085415575655,-0.16846067018552036,-0.007037050584610792,0.0,0.0,0.0,0.0,0.0,-0.000510707844424472,-0.029261404049746094,0.0,0.0,11.969550890676002,0.00034060345935038366,0.03517455961290664,-0.009807778191200179,-0.5619442967562228,0.0,0.0,0.009297070346775706,0.5326828927064767,-5.237646351623902,0.0,-19.43557219269178,11.969033597242117,0.0,-0.11128015354082618,0.0,-27.195209715577942,0.0,0.0,-0.16846067018552036,0.0,0.103427506313021,0.3490658503988659,1.0,0.14,0.14,0.75,0.08726646259971647,5.0,0.184,0.175,0.174,0.0,0.0,0.0,-0.0002735651288119271,0.0,0.0030178601432381547,0.0,6.0927356065235925,0.0,-0.5156143951935683,0.0,0.18229529562752023,0.0,-3.8066118437568544,0.0,-0.04291046743654077,0.0,-0.010007485251881758,0.6165518877146895,-0.12282701093738053,0.11092757960372338,0.0,0.0,0.0,0.6105494033020423,0.11092757960372338,0.0,0.0,-0.11907678612331116,0.0,0.0,-0.0009851870818455108,0.0,1.3627916268736937,0.0,7.50085431941422,0.0,-0.20480712436801748,0.0,87.75298208989255,-1.4362916182105512,0.0,-7.487127815578556,0.0,-0.20480712436801748,0.0
sim_raptor_glider_3dof,raptor_glider_3dof,0.007,-14.91612615403419,0.0,-0.000460532391642643,11.963726655880695,0.0,-0.1368030801690421,0.0,0.0,0.0,-11.20196843855912,-0.19551123195734477,-0.008170466309710526,0.0,0.0,0.0,0.0,0.0,-0.0006927178725224146,-0.03968981048881574,0.0,0.0,11.96450878972363,0.000460532391642643,0.03515974254231282,-0.01143432326754639,-0.6551384648186449,0.0,0.0,0.010741605395023975,0.6154486543298292,-5.259412662583026,0.0,-19.384459023277216,11.963818551366602,0.0,-0.12851556073231524,0.0,-26.906242692610757,0.0,0.0,-0.19551123195734477,0.0,0.103427506313021,0.3490658503988659,1.0,0.14,0.14,0.75,0.08726646259971647,5.0,0.184,0.175,0.174,0.0,0.0,0.0,-0.0002920907221453165,0.0,0.0030063350312870187,0.0,6.093536561847268,0.0,-0.5158304165039161,0.0,0.18041852672649653,0.0,-3.8071674428380713,0.0,-0.042424744436361336,0.0,-0.00981931623131501,0.6098433248532495,-0.12226572100272397,0.11049422711879539,0.0,0.0,0.0,0.6028731399272708,0.11049422711879539,0.0,0.0,-0.11791083433692504,0.0,0.0,-0.0011438652833594737,0.0,1.3563243014192936,0.0,7.400309606013977,0.0,-0.20263091371805161,0.0,87.6790668349366,-1.440851325381845,0.0,-7.384317526598424,0.0,-0.20263091371805161,0.0
sim_raptor_glider_3dof,raptor_glider_3dof,0.008,-14.904164947699211,0.0,-0.000597510442643983,11.958456458702006,0.0,-0.15616076568922585,0.0,0.0,0.0,-12.73535147327343,-0.222273814607332,-0.009292790668058286,0.0,0.0,0.0,0.0,0.0,-0.0009016343118620333,-0.05165984073387676,0.0,0.0,11.95947603615695,0.000597510442643983,0.035144952940600514,-0.013057863327512773,-0.7481604581251353,0.0,0.0,0.01215622901565074,0.6965006173912586,-5.280940812149101,0.0,-19.33043522767079,11.958592397807472,0.0,-0.1453785490150258,0.0,-26.61925293369264,0.0,0.0,-0.222273814607332,0.0,0.103427506313021,0.3490658503988659,1.0,0.14,0.14,0.75,0.08726646259971647,5.0,0.184,0.175,0.174,0.0,0.0,0.0,-0.0003104903240399097,0.0,0.0029948098901414746,0.0,6.094323542531453,0.0,-0.516042645020058,0.0,0.17854414894767293,0.0,-3.8077120080883193,0.0,-0.04194022154502043,0.0,-0.00963331768255953,0.6031291652419206,-0.12170516117425381,0.1100667444616394,0.0,0.0,0.0,0.5952005070297376,0.1100667444616394,0.0,0.0,-0.11675136328809549,0.0,0.0,-0.0013009906935281602,0.0,1.3499405266330706,0.0,7.2999822956699365,0.0,-0.20046959384363927,0.0,87.60531966541404,-1.445144902848286,0.0,-7.281733114603453,0.0,-0.20046959384363927,0.0
sim_raptor_glider_3dof,raptor_glider_3dof,0.009000000000000001,-14.892208972434812,0.0,-0.0007511656868934509,11.953164858146552,0.0,-0.17546301311552115,0.0,0.0,0.0,-14.252348059221946,-0.24875039977364674,-0.010404089912070707,0.0,0.0,0.0,0.0,0.0,-0.001137170169609193,-0.06515505130678276,0.0,0.0,11.954452617957932,0.0007511656868934509,0.035130190772452705,-0.014678155446733778,-0.8409963581348069,0.0,0.0,0.013540985277124586,0.7758413068280242,-5.302217206853443,0.0,-19.273599092158427,11.95335666075537,0.0,-0.16187012008550244,0.0,-26.334249111033806,0.0,0.0,-0.24875039977364674,0.0,0.103427506313021,0.3490658503988659,1.0,0.14,0.14,0.75,0.08726646259971647,5.0,0.184,0.175,0.174,0.0,0.0,0.0,-0.00032877137767724663,0.0,0.0029832839927429185,0.0,6.095096494979813,0.0,-0.5162510751499407,0.0,0.17667246625884261,0.0,-3.8082455131655286,0.0,-0.04145697525666444,0.0,-0.00944951703244091,0.5964110550188003,-0.12114542058726559,0.10964521520011351,0.0,0.0,0.0,0.5875331045448879,0.10964521520011351,0.0,0.0,-0.11559843456559563,0.0,0.0,-0.0014565725876898993,0.0,1.3436411092477927,0.0,7.19989131189808,0.0,-0.19832323005519562,0.0,87.53174023244704,-1.4491736983998333,0.0,-7.179394258951952,0.0,-0.19832323005519562,0.0
sim_raptor_glider_3dof,raptor_glider_3dof,0.01,-14.88025823707888,0.0,-0.0009211272355368697,11.94785211250225,0.0,-0.19470705864952362,0.0,0.0,0.0,-15.753072214616346,-0.27494297744949003,-0.011504430814534622,0.0,0.0,0.0,0.0,0.0,-0.001399040442407503,-0.08015911271806545,0.0,0.0,11.94943851990178,0.0009211272355368697,0.035115455993128736,-0.016294964421873864,-0.9336326886892059,0.0,0.0,0.01489592397946636,0.8534735759711404,-5.323228920543975,0.0,-19.21404737388709,11.948112822614709,0.0,-0.17799134524574153,0.0,-26.051239190084484,0.0,0.0,-0.27494297744949003,0.0,0.103427506313021,0.3490658503988659,1.0,0.14,0.14,0.75,0.08726646259971647,5.0,0.184,0.175,0.174,0.0,0.0,0.0,-0.00034694134475336434,0.0,0.0029717566018411003,0.0,6.095855376604412,0.0,-0.5164557041743117,0.0,0.17480377411338802,0.0,-3.8087679400894423,0.0,-0.04097507951532156,0.0,-0.009267939650583232,0.5896906106327056,-0.12058658584329603,0.10922971754357476,0.0,0.0,0.0,0.5798725021317279,0.10922971754357476,0.0,0.0,-0.11445210682754331,0.0,0.0,-0.001610620314034847,0.0,1.3374267871519072,0.0,7.100055139979568,0.0,-0.19619188234052626,0.0,87.45832814083313,-1.4529392563365038,0.0,-7.077320179216006,0.0,-0.19619188234052626,0.0
sim_raptor_glider_3dof,raptor_glider_3dof,0.01,-14.88025823707888,0.0,-0.0009211272355368697,11.94785211250225,0.0,-0.19470705864952362,0.0,0.0,0.0,-15.753072214616346,-0.27494297744949003,-0.011504430814534622,0.0,0.0,0.0,0.0,0.0,-0.001399040442407503,-0.08015911271806545,0.0,0.0,11.94943851990178,0.0009211272355368697,0.035115455993128736,-0.016294964421873864,-0.9336326886892059,0.0,0.0,0.01489592397946636,0.8534735759711404,-4.613681708940949,0.0,-17.73861971719856,11.948112822614709,0.0,-0.17799134524574153,0.0,-8.745303571501292,0.0,0.0,-0.27494297744949003,0.0,-0.024694210183840992,0.3490658503988659,1.0,0.14,0.14,0.75,0.08726646259971647,5.0,0.184,0.175,0.174,0.0,0.0,0.0,-0.005945472664014758,0.0,0.0005162096709379546,0.0,6.081143466942433,0.0,-0.516771402312321,0.0,0.1740492112678792,0.0,-3.7880719487054746,0.0,-0.038620179195828226,0.0,-0.00840525224016021,0.5562740192120711,-0.04452228987359842,0.09383558530750936,0.0,0.0,0.0,0.5464796060116534,0.09383558530750936,0.0,0.0,-0.038421144241987816,0.0,0.0,-0.001610620314034847,0.0,1.148938477555581,0.0,6.6911869786776546,0.0,-0.06586088119697624,0.0,87.45832814083313,-1.2578137731456718,0.0,-6.671577573626659,0.0,-0.06586088119697624,0.0
sim_raptor_glider_3dof,raptor_glider_3dof,0.011,-14.868312396570929,0.0,-0.0011062928470745611,11.943230023704999,0.0,-0.21234058840797865,0.0,0.0,0.0,-16.249422380901066,-0.2836059220939798,-0.011871206886711502,0.0,0.0,0.0,0.0,0.0,-0.001678326846311122,-0.09616104493712885,0.0,0.0,11.94511749312722,0.0011062928470745611,0.03510275792155873,-0.017777286271376775,-1.018563474545749,0.0,0.0,0.016098959425065652,0.9224024296086202,-4.630396621772159,0.0,-17.528687416220066,11.943569579720005,0.0,-0.19229565517935515,0.0,-8.580944328554633,0.0,0.0,-0.2836059220939798,0.0,-0.024694210183840992,0.3490658503988659,1.0,0.14,0.14,0.75,0.08726646259971647,5.0,0.184,0.175,0.174,0.0,0.0,0.0,-0.005988300050021088,0.0,0.0005083455167324655,0.0,6.081548539947501,0.0,-0.5169601546658483,0.0,0.1723350794892321,0.0,-3.7877814434379102,0.0,-0.03817150494810673,0.0,-0.00824505390948207,0.5501117984400938,-0.044021511872435796,0.09350432995563511,0.0,0.0,0.0,0.5400044535127926,0.09350432995563511,0.0,0.0,-0.03772633667049805,0.0,0.0,-0.0016619689641396104,0.0,1.1440546816767434,0.0,6.607123150989115,0.0,-0.06462309173834495,0.0,87.39508810673425,-1.2613244406508146,0.0,-6.58574203126874,0.0,-0.06462309173834495,0.0
sim_raptor_glider_3dof,raptor_glider_3dof,0.012,-14.856371101190314,0.0,-0.001305610224285678,11.938591586636583,0.0,-0.2297648340301071,0.0,0.0,0.0,-16.73642174570255,-0.2921056644648866,-0.012231408564876237,0.0,0.0,0.0,0.0,0.0,-0.0019661953754820296,-0.11265469671326048,0.0,0.0,11.940802357943403,0.001305610224285678,0.035090077163429434,-0.019243180489406857,-1.1025530264515029,0.0,0.0,0.01727698511392483,0.9898983297382425,-4.646360535235202,0.0,-17.320001032065584,11.939020272061667,0.0,-0.2062908014606403,0.0,-8.41890257037399,0.0,0.0,-0.2921056644648866,0.0,-0.024694210183840992,0.3490658503988659,1.0,0.14,0.14,0.75,0.08726646259971647,5.0,0.184,0.175,0.174,0.0,0.0,0.0,-0.006030604708611129,0.0,0.0005003829925158075,0.0,6.081938838577209,0.0,-0.5171441482450829,0.0,0.17063904782019088,0.0,-3.7874860152756886,0.0,-0.037728099873580834,0.0,-0.008088098764196817,0.5440057980056301,-0.04352635327957033,0.09318076574333016,0.0,0.0,0.0,0.5335911029734584,0.09318076574333016,0.0,0.0,-0.037040672835447444,0.0,0.0,-0.0017123971990826734,0.0,1.139272209416036,0.0,6.523937745734023,0.0,-0.06340275525748652,0.0,87.33195712408556,-1.26459484337326,0.0,-6.500808008199796,0.0,-0.06340275525748652,0.0
sim_raptor_glider_3dof,raptor_glider_3dof,0.013000000000000001,-14.844434357646167,0.0,-0.001518775499964563,11.933937540738468,0.0,-0.24698100931684794,0.0,0.0,0.0,-17.21420012311432,-0.30044447024555815,-0.01258512322486028,0.0,0.0,0.0,0.0,0.0,-0.0022624861567036515,-0.12963090798589344,0.0,0.0,11.936492987691572,0.001518775499964563,0.03507741334653258,-0.020692730789108372,-1.1856061408163232,0.0,0.0,0.01843024463240472,1.05597523283043,-4.661587159828319,0.0,-17.112598976148142,11.93446578740936,0.0,-0.21998003174275493,0.0,-8.259157212205798,0.0,0.0,-0.30044447024555815,0.0,-0.024694210183840992,0.3490658503988659,1.0,0.14,0.14,0.75,0.08726646259971647,5.0,0.184,0.175,0.174,0.0,0.0,0.0,-0.006072391686120596,0.0,0.0004923310825143332,0.0,6.0823147303935645,0.0,-0.5173234896287561,0.0,0.16896105954369062,0.0,-3.7871859107166603,0.0,-0.03728992977991504,0.0,-0.007934331454453585,0.5379564579806618,-0.04303679131885178,0.09286476947652231,0.0,0.0,0.0,0.5272399227282478,0.09286476947652231,0.0,0.0,-0.03636408312819644,0.0,0.0,-0.0017619172514804393,0.0,1.1345893115878054,0.0,6.4416331870730055,0.0,-0.06219971296512186,0.0,87.26893324742701,-1.2676318798723438,0.0,-6.416778041969422,0.0,-0.06219971296512186,0.0
sim_raptor_glider_3dof,raptor_glider_3dof,0.014,-14.832502170890368,0.0,-0.0017454741137870754,11.929268641638977,0.0,-0.2639904573642547,0.0,0.0,0.0,-17.682892893701606,-0.3086247022726007,-0.012932442435138658,0.0,0.0,0.0,0.0,0.0,-0.0025670339570415045,-0.1470802116052453,0.0,0.0,11.932189291407107,0.0017454741137870754,0.035064766203553165,-0.02212603170001308,-1.2677282337834195,0.0,0.0,0.019558997742971575,1.120648022178174,-4.676090491428663,0.0,-16.90651716555705,11.92990700845258,0.0,-0.2333667835072097,0.0,-8.101685839476515,0.0,0.0,-0.3086247022726007,0.0,-0.024694210183840992,0.3490658503988659,1.0,0.14,0.14,0.75,0.08726646259971647,5.0,0.184,0.175,0.174,0.0,0.0,0.0,-0.006113666243065854,0.0,0.0004841983814203892,0.0,6.082676579362443,0.0,-0.5174982846380575,0.0,0.1673010441944802,0.0,-3.786881369616356,0.0,-0.03685695731707521,0.0,-0.007783696204053371,0.5319641394534526,-0.04255279908205944,0.09255621625764808,0.0,0.0,0.0,0.5209511983934686,0.09255621625764808,0.0,0.0,-0.03569649153708268,0.0,0.0,-0.0018105419409194124,0.0,1.1300042303865914,0.0,6.360210927063915,0.0,-0.061013796057097634,0.0,87.2060150558358,-1.2704423850328674,0.0,-6.333653664650981,0.0,-0.061013796057097634,0.0
sim_raptor_glider_3dof,raptor_glider_3dof,0.015,-14.820574544716543,0.0,-0.0019854096292644943,11.924585595014909,0.0,-0.28079449773864834,0.0,0.0,0.0,-18.142627838907522,-0.3166485907529196,-0.013273452402786925,0.0,0.0,0.0,0.0,0.0,-0.0028796836442014453,-0.1649937191455954,0.0,0.0,11.927891144825114,0.0019854096292644943,0.03505213536931768,-0.023543175893808183,-1.3489246150493486,0.0,0.0,0.020663492249606737,1.1839308959037531,-4.689884362896086,0.0,-16.701788809398057,11.925344750476604,0.0,-0.24645434684231923,0.0,-7.946466740025422,0.0,0.0,-0.3166485907529196,0.0,-0.024694210183840992,0.3490658503988659,1.0,0.14,0.14,0.75,0.08726646259971647,5.0,0.184,0.175,0.174,0.0,0.0,0.0,-0.006154433490940427,0.0,0.0004759931713784035,0.0,6.083024742488519,0.0,-0.5176686367645028,0.0,0.16565893224889505,0.0,-3.78657262772502,0.0,-0.0364291458134827,0.0,-0.007636138173314671,0.5260291783860891,-0.04207434982947322,0.09225498233734916,0.0,0.0,0.0,0.5147251948722735,0.09225498233734916,0.0,0.0,-0.03503782501334068,0.0,0.0,-0.00185828333639017,0.0,1.1255152210706412,0.0,6.279672130648225,0.0,-0.059844841019131456,0.0,87.14320064385443,-1.2730330776556045,0.0,-6.251436104168099,0.0,-0.059844841019131456,0.0
sim_raptor_glider_3dof,raptor_glider_3dof,0.016,-14.808651482231884,0.0,-0.0022382844100327613,11.91988910385164,0.0,-0.29739449857469236,0.0,0.0,0.0,-18.59353341563027,-0.3245183776823355,-0.01360823996803337,0.0,0.0,0.0,0.0,0.0,-0.003200279918892705,-0.1833625326130214,0.0,0.0,11.92359843905788,0.0022382844100327613,0.03503952052384107,-0.02494426015283944,-1.4292008298340537,0.0,0.0,0.021743980233946733,1.2458382972210322,-4.702982674869998,0.0,-16.49844503142217,11.920779807411114,0.0,-0.2592460590308144,0.0,-7.793477797427597,0.0,0.0,-0.3245183776823355,0.0,-0.024694210183840992,0.3490658503988659,1.0,0.14,0.14,0.75,0.08726646259971647,5.0,0.184,0.175,0.174,0.0,0.0,0.0,-0.006194698566755338,0.0,0.0004677233966772813,0.0,6.0833595713620365,0.0,-0.517834647924148,0.0,0.1640346482402731,0.0,-3.7862599154267826,0.0,-0.03600645747455814,0.0,-0.007491602833142291,0.5201518617380065,-0.04160141499330767,0.0919609438713819,0.0,0.0,0.0,0.5085621273777567,0.0919609438713819,0.0,0.0,-0.0343880083018414,0.0,0.0,-0.001905153595524672,0.0,1.1211205459883666,0.0,6.200017375987249,0.0,-0.05869268129242724,0.0,87.08048833336281,-1.275410583192923,0.0,-6.170125978086716,0.0,-0.05869268129242724,0.0
sim_raptor_glider_3dof,raptor_glider_3dof,0.017,-14.796732985743065,0.0,-0.0025038042468948076,11.915179856872276,0.0,-0.3137918589233949,0.0,0.0,0.0,-19.03573677602001,-0.3322362822845195,-0.013936891166347588,0.0,0.0,0.0,0.0,0.0,-0.0035286697738694645,-0.2021778853381029,0.0,0.0,11.919311068696103,0.0025038042468948076,0.0350269213573602,-0.026329383919359295,-1.5085625757589054,0.0,0.0,0.02280071414548983,1.3063846904208025,-4.715399317596077,0.0,-16.296514788187523,11.916212941506467,0.0,-0.27174525757632,0.0,-7.642696763611496,0.0,0.0,-0.3322362822845195,0.0,-0.024694210183840992,0.3490658503988659,1.0,0.14,0.14,0.75,0.08726646259971647,5.0,0.184,0.175,0.174,0.0,0.0,0.0,-0.006234466593599451,0.0,0.0004593966792899141,0.0,6.0836814117676346,0.0,-0.5179964182900049,0.0,0.16242811246127023,0.0,-3.7859434580040667,0.0,-0.03558885382432586,0.0,-0.007350036128033771,0.514332434514647,-0.04113396468670167,0.09167397730019113,0.0,0.0,0.0,0.5024621697129318,0.09167397730019113,0.0,0.0,-0.033746965215640905,0.0,0.0,-0.0019511647632886626,0.0,1.1168184768887461,0.0,6.121246744160201,0.0,-0.05755714932675818,0.0,87.01787649943037,-1.2775814245153523,0.0,-6.089723385913788,0.0,-0.05755714932675818,0.0
sim_raptor_glider_3dof,raptor_glider_3dof,0.018000000000000002,-14.784819056765533,0.0,-0.0027816784576429852,11.91045852813256,0.0,-0.329988007475808,0.0,0.0,0.0,-19.46936372190202,-0.3398045002155279,-0.014259491192707741,0.0,0.0,0.0,0.0,0.0,-0.003864702536513624,-0.22143114441573458,0.0,0.0,11.91502893137249,0.0027816784576429852,0.03501433756905137,-0.027698649197964213,-1.5870156972567722,0.0,0.0,0.02383394666145059,1.3655845528410375,-4.727148151853613,0.0,-16.096024928291918,11.911644883696347,0.0,-0.28395527844028284,0.0,-7.494101274777183,0.0,0.0,-0.3398045002155279,0.0,-0.024694210183840992,0.3490658503988659,1.0,0.14,0.14,0.75,0.08726646259971647,5.0,0.184,0.175,0.174,0.0,0.0,0.0,-0.006273742680219603,0.0,0.00045102032696569145,0.0,6.083990603655121,0.0,-0.5181540462944816,0.0,0.1608392411002922,0.0,-3.7856234756310374,0.0,-0.035176295737611954,0.0,-0.007211384493840027,0.5085711011592425,-0.04067196775529754,0.0913939594287671,0.0,0.0,0.0,0.4964254556991354,0.0913939594287671,0.0,0.0,-0.03311461870994396,0.0,0.0,-0.001996328766979084,0.0,1.1126072957535205,0.0,6.043359837573402,0.0,-0.056438076700346965,0.0,86.95536356384784,-1.279552018987336,0.0,-6.010227928428723,0.0,-0.056438076700346965,0.0
sim_raptor_glider_3dof,raptor_glider_3dof,0.019000000000000003,-14.77290969614417,0.0,-0.00307161950533564,11.905725778636583,0.0,-0.3459843969755483,0.0,0.0,0.0,-19.894538842726785,-0.34722520597148476,-0.014576124498072865,0.0,0.0,0.0,0.0,0.0,-0.00420822959167593,-0.24111379482509251,0.0,0.0,11.910751929204228,0.00307161950533564,0.03500176887126929,-0.0290521600913246,-1.6645661589713039,0.0,0.0,0.02484393049964867,1.4234523641462113,-4.738242992336088,0.0,-15.897000361432852,11.907076335854965,0.0,-0.29587945377287367,0.0,-7.347668881615075,0.0,0.0,-0.34722520597148476,0.0,-0.024694210183840992,0.3490658503988659,1.0,0.14,0.14,0.75,0.08726646259971647,5.0,0.184,0.175,0.174,0.0,0.0,0.0,-0.006312531910082611,0.0,0.00044260134359975074,0.0,6.084287481037238,0.0,-0.518307628591858,0.0,0.1592679468038539,0.0,-3.785300183460914,0.0,-0.03476874358239992,0.0,-0.007075594911135338,0.5028680284752522,-0.040215391952133715,0.0911207675771556,0.0,0.0,0.0,0.49045208202245916,0.0911207675771556,0.0,0.0,-0.03249089100899511,0.0,0.0,-0.002040657429730201,0.0,1.1084852968374879,0.0,5.966355817458318,0.0,-0.05533529434744313,0.0,86.89294801608746,-1.2813286754820543,0.0,-5.931638746519465,0.0,-0.05533529434744313,0.0
sim_raptor_glider_3dof,raptor_glider_3dof,0.02,-14.761004904034126,0.0,-0.0033733431921036993,11.900982255564198,0.0,-0.36178250421716357,0.0,0.0,0.0,-20.31138543597915,-0.3545005514994601,-0.014886874729272945,0.0,0.0,0.0,0.0,0.0,-0.00455910449409847,-0.2612174458709687,0.0,0.0,11.906479967967508,0.0033733431921036993,0.0349892149871213,-0.030390022808891744,-1.741220046255804,0.0,0.0,0.025830918314793276,1.4800026003848354,-4.748697591483718,0.0,-15.699464087783715,11.902507970766028,0.0,-0.3075211105968684,0.0,-7.2033770590710775,0.0,0.0,-0.3545005514994601,0.0,-0.024694210183840992,0.3490658503988659,1.0,0.14,0.14,0.75,0.08726646259971647,5.0,0.184,0.175,0.174,0.0,0.0,0.0,-0.006350839344011777,0.0,0.0004341464367735543,0.0,6.084572372006645,0.0,-0.5184572600780983,0.0,0.15771413869068668,0.0,-3.7849737916130857,0.0,-0.03436615721926646,0.0,-0.006942614908778262,0.4972233465479204,-0.039764203952479954,0.09085427962870171,0.0,0.0,0.0,0.48454210921226426,0.09085427962870171,0.0,0.0,-0.03187570365597442,0.0,0.0,-0.002084162462098212,0.0,1.1044507870330185,0.0,5.890233416160005,0.0,-0.05424863263186429,0.0,86.8306284011392,-1.2829175923901017,0.0,-5.8539545342410895,0.0,-0.05424863263186429,0.0
sim_raptor_glider_3dof,raptor_glider_3dof,0.02,-14.761004904034126,0.0,-0.0033733431921036993,11.900982255564198,0.0,-0.36178250421716357,0.0,0.0,0.0,-20.31138543597915,-0.3545005514994601,-0.014886874729272945,0.0,0.0,0.0,0.0,0.0,-0.00455910449409847,-0.2612174458709687,0.0,0.0,11.906479967967508,0.0033733431921036993,0.0349892149871213,-0.030390022808891744,-1.741220046255804,0.0,0.0,0.025830918314793276,1.4800026003848354,-4.750145145388816,0.0,-15.69472035333108,11.902507970766028,0.0,-0.3075211105968684,0.0,-7.148809409520084,0.0,0.0,-0.3545005514994601,0.0,-0.02510997857496644,0.3490658503988659,1.0,0.14,0.14,0.75,0.08726646259971647,5.0,0.184,0.175,0.174,0.0,0.0,0.0,-0.006433094313709217,0.0,0.00045010713613372397,0.0,6.084510416116658,0.0,-0.5184720523042078,0.0,0.15771341227279254,0.0,-3.784780748764762,0.0,-0.03434129151110726,0.0,-0.006948289606620133,0.49711694905217263,-0.039522334012055876,0.09089027186732991,0.0,0.0,0.0,0.48443584084265673,0.09089027186732991,0.0,0.0,-0.03163423604820839,0.0,0.0,-0.002084162462098212,0.0,1.1048883190506897,0.0,5.8889415872563,0.0,-0.05383768366309575,0.0,86.8306284011392,-1.2833156697140038,0.0,-5.8526500072666146,0.0,-0.05383768366309575,0.0
sim_raptor_glider_3dof,raptor_glider_3dof,0.021,-14.749104685121615,0.0,-0.0036865641304589247,11.896227177697677,0.0,-0.3773787224059469,0.0,0.0,0.0,-20.716907387595686,-0.3615782447442818,-0.015189540546828568,0.0,0.0,0.0,0.0,0.0,-0.004917155880574438,-0.28173227916484916,0.0,0.0,11.902211381231538,0.0036865641304589247,0.034976671019517284,-0.03171192052461473,-1.8169592063147155,0.0,0.0,0.026794764644040292,1.5352269271498664,-4.759947250249627,0.0,-15.498212435758916,11.897938984513656,0.0,-0.31887879250229223,0.0,-7.007006024029372,0.0,0.0,-0.3615782447442818,0.0,-0.02510997857496644,0.3490658503988659,1.0,0.14,0.14,0.75,0.08726646259971647,5.0,0.184,0.175,0.174,0.0,0.0,0.0,-0.006471264057093951,0.0,0.00044157925121339676,0.0,6.084781980959217,0.0,-0.5186179005573613,0.0,0.1561774962810139,0.0,-3.784447621763477,0.0,-0.033943687396534875,0.0,-0.006818089417372182,0.4915326323947008,-0.039076748373610234,0.09063055419895505,0.0,0.0,0.0,0.4785931264281259,0.09063055419895505,0.0,0.0,-0.031028985489872693,0.0,0.0,-0.0021265356765559997,0.0,1.1009412956397904,0.0,5.8137450592810564,0.0,-0.0527697623669652,0.0,86.76838034294776,-1.2847218853143032,0.0,-5.775914908320099,0.0,-0.0527697623669652,0.0
sim_raptor_glider_3dof,raptor_glider_3dof,0.022,-14.73720902998796,0.0,-0.004010997541916905,11.891462606341124,0.0,-0.3927793742100809,0.0,0.0,0.0,-21.1143710099037,-0.3685152936104598,-0.015486506752933338,0.0,0.0,0.0,0.0,0.0,-0.005282209547140338,-0.3026483135548512,0.0,0.0,11.89794766145885,0.004010997541916905,0.034964141354312056,-0.033018362770024234,-1.8918128331542747,0.0,0.0,0.0277361532228839,1.5891645195994235,-4.769135735145556,0.0,-15.30324394454429,11.893371443803831,0.0,-0.32996098939975954,0.0,-6.867297281782258,0.0,0.0,-0.3685152936104598,0.0,-0.02510997857496644,0.3490658503988659,1.0,0.14,0.14,0.75,0.08726646259971647,5.0,0.184,0.175,0.174,0.0,0.0,0.0,-0.006508956608315871,0.0,0.00043302796633388487,0.0,6.0850422171981275,0.0,-0.5187599797009987,0.0,0.1546589044177626,0.0,-3.784111858060182,0.0,-0.03355097606553068,0.0,-0.0066905976134546295,0.48600697641885054,-0.038636489821890094,0.09037730046777508,0.0,0.0,0.0,0.4728139297844573,0.09037730046777508,0.0,0.0,-0.030432115483771515,0.0,0.0,-0.0021681109454106677,0.0,1.0970784437429215,0.0,5.739427572887729,0.0,-0.051717615829102184,0.0,86.7062255412002,-1.2859525437279307,0.0,-5.700082107428716,0.0,-0.051717615829102184,0.0
sim_raptor_glider_3dof,raptor_glider_3dof,0.023,-14.725317941385029,0.0,-0.004346375777909569,11.886689149524198,0.0,-0.40798584230719975,0.0,0.0,0.0,-21.503889821481533,-0.3753136793709484,-0.015777850260941403,0.0,0.0,0.0,0.0,0.0,-0.0056541303233280495,-0.3239578043436368,0.0,0.0,11.893688720701387,0.004346375777909569,0.0349516257330553,-0.034309448103579346,-1.9657865737582227,0.0,0.0,0.028655317780251297,1.6418287694145859,-4.777723924196849,0.0,-15.109834004988633,11.888805938951526,0.0,-0.34077078937359556,0.0,-6.729662004265013,0.0,0.0,-0.3753136793709484,0.0,-0.02510997857496644,0.3490658503988659,1.0,0.14,0.14,0.75,0.08726646259971647,5.0,0.184,0.175,0.174,0.0,0.0,0.0,-0.006546176645428168,0.0,0.00042445928511333845,0.0,6.085291432883253,0.0,-0.5188983780745428,0.0,0.15315755162505748,0.0,-3.7837736562912334,0.0,-0.03316311998663688,0.0,-0.006565764717960086,0.4805400657414642,-0.038201526525326934,0.09013039295353513,0.0,0.0,0.0,0.4670982713583532,0.09013039295353513,0.0,0.0,-0.029843552541490834,0.0,0.0,-0.0022088990365317965,0.0,1.0932981396001935,0.0,5.6659874028267385,0.0,-0.050681084554119814,0.0,86.64416263825208,-1.287013485528833,0.0,-5.625149807703921,0.0,-0.050681084554119814,0.0
sim_raptor_glider_3dof,raptor_glider_3dof,0.024,-14.713431417165657,0.0,-0.004692444121217313,11.881907365362,0.0,-0.42299959974219087,0.0,0.0,0.0,-21.885574956618743,-0.38197534168501224,-0.016063646408759236,0.0,0.0,0.0,0.0,0.0,-0.006032788700207392,-0.3456533312160972,0.0,0.0,11.8894344398893,0.004692444121217313,0.034939123805840015,-0.03558528288363313,-2.038886522011306,0.0,0.0,0.029552494183425735,1.6932331907952087,-4.7857250280084935,0.0,-14.917998602834668,11.884242999470823,0.0,-0.3513113006359762,0.0,-6.594078570683329,0.0,0.0,-0.38197534168501224,0.0,-0.02510997857496644,0.3490658503988659,1.0,0.14,0.14,0.75,0.08726646259971647,5.0,0.184,0.175,0.174,0.0,0.0,0.0,-0.006582928996654949,0.0,0.0004158789080710559,0.0,6.085529931591047,0.0,-0.5190331830160894,0.0,0.1516733428121843,0.0,-3.7834332087570637,0.0,-0.032780079413106344,0.0,-0.0064435412223324455,0.4751319279604771,-0.037771823722194627,0.08988971348138108,0.0,0.0,0.0,0.4614461158161372,0.08988971348138108,0.0,0.0,-0.029263221063466308,0.0,0.0,-0.002248910497226293,0.0,1.0895987530356832,0.0,5.593422127110973,0.0,-0.04966000571581615,0.0,86.5821898251042,-1.2879104424485615,0.0,-5.551115493925838,0.0,-0.04966000571581615,0.0
sim_raptor_glider_3dof,raptor_glider_3dof,0.025,-14.701549454325802,0.0,-0.005048914940201621,11.877117878733333,0.0,-0.437822342657881,0.0,0.0,0.0,-22.2595520558985,-0.38850247339450167,-0.016343981193230578,0.0,0.0,0.0,0.0,0.0,-0.006418038817702718,-0.3677265370054985,0.0,0.0,11.885184790698773,0.005048914940201621,0.034926635489431875,-0.036845992102371376,-2.111119839438243,0.0,0.0,0.030427953284668657,1.7433933024327444,-4.793152651647005,0.0,-14.72775205457046,11.879683204571318,0.0,-0.36158604520029963,0.0,-6.460522781093352,0.0,0.0,-0.38850247339450167,0.0,-0.02510997857496644,0.3490658503988659,1.0,0.14,0.14,0.75,0.08726646259971647,5.0,0.184,0.175,0.174,0.0,0.0,0.0,-0.006619218953698125,0.0,0.0004072921626848329,0.0,6.085758014195134,0.0,-0.5191644819562684,0.0,0.15020616025344,0.0,-3.783090698306386,0.0,-0.03240180914002382,0.0,-0.006323876591715713,0.4697824883646055,-0.03734734009170303,0.08965514153907433,0.0,0.0,0.0,0.45585731633032744,0.08965514153907433,0.0,0.0,-0.02869103324014631,0.0,0.0,-0.0022881573670522812,0.0,1.085978646999203,0.0,5.521728069520015,0.0,-0.04865419706441403,0.0,86.52030661652425,-1.2886490696467687,0.0,-5.477975362372669,0.0,-0.04865419706441403,0.0
sim_raptor_glider_3dof,raptor_glider_3dof,0.026000000000000002,-14.689672049497554,0.0,-0.005415528970249421,11.872321245720393,0.0,-0.45245563886330736,0.0,0.0,0.0,-22.625934520756882,-0.3948970537278529,-0.01661893183967351,0.0,0.0,0.0,0.0,0.0,-0.006809749632815367,-0.3901699135010826,0.0,0.0,11.880939687866572,0.005415528970249421,0.034914160533270365,-0.0380916902525276,-2.1824930859894485,0.0,0.0,0.031281940619712234,1.792323172488366,-4.800019901799087,0.0,-14.539107244070914,11.875127056854891,0.0,-0.3715982377190837,0.0,-6.328972222754337,0.0,0.0,-0.3948970537278529,0.0,-0.02510997857496644,0.3490658503988659,1.0,0.14,0.14,0.75,0.08726646259971647,5.0,0.184,0.175,0.174,0.0,0.0,0.0,-0.006655051434518586,0.0,0.00039870420542676885,0.0,6.085975973385665,0.0,-0.5192923593445986,0.0,0.1487558974973742,0.0,-3.782746306062034,0.0,-0.032028267254053944,0.0,-0.006206722066981041,0.46449169421864445,-0.0369280375826094,0.08942655984075976,0.0,0.0,0.0,0.45033175543550225,0.08942655984075976,0.0,0.0,-0.028126909158798362,0.0,0.0,-0.0023266504575542917,0.0,1.0824362178301636,0.0,5.450901868420593,0.0,-0.04766348980956291,0.0,86.45851169924381,-1.2892348749975184,0.0,-5.4057259255267205,0.0,-0.04766348980956291,0.0
sim_raptor_glider_3dof,raptor_glider_3dof,0.027,-14.677799198804621,0.0,-0.005792025173997288,11.867518020615977,0.0,-0.466901095558133,0.0,0.0,0.0,-22.98483663691052,-0.40116107734710893,-0.01688857633178874,0.0,0.0,0.0,0.0,0.0,-0.007207789522377275,-0.4129759192508333,0.0,0.0,11.87669906172074,0.005792025173997288,0.0349016987326126,-0.03932249523337577,-2.2530130167957285,0.0,0.0,0.032114705710998497,1.8400370975448956,-4.806339810553052,0.0,-14.35207564467773,11.870575045624188,0.0,-0.38135113593985087,0.0,-6.199404162451401,0.0,0.0,-0.40116107734710893,0.0,-0.02510997857496644,0.3490658503988659,1.0,0.14,0.14,0.75,0.08726646259971647,5.0,0.184,0.175,0.174,0.0,0.0,0.0,-0.006690431386396673,0.0,0.00039011993628765756,0.0,6.086184096380779,0.0,-0.519416898159908,0.0,0.14732244321796767,0.0,-3.7824002077802885,0.0,-0.031659410957146715,0.0,-0.006092029322079134,0.4592594566927632,-0.03651387674338208,0.08920385170809529,0.0,0.0,0.0,0.44486927883741684,0.08920385170809529,0.0,0.0,-0.027570767095676137,0.0,0.0,-0.002364400686450424,0.0,1.078969876748365,0.0,5.380939743802356,0.0,-0.046687712747421506,0.0,86.39680398868182,-1.2896732533111308,0.0,-5.334363262944888,0.0,-0.046687712747421506,0.0
sim_raptor_glider_3dof,raptor_glider_3dof,0.028,-14.66593089787438,0.0,-0.00617814588336862,11.862708744289774,0.0,-0.4811603311687049,0.0,0.0,0.0,-23.33637134119348,-0.4072965153718712,-0.01715299178757234,0.0,0.0,0.0,0.0,0.0,-0.0076120289202271,-0.43613713066053805,0.0,0.0,11.872462845430995,0.00617814588336862,0.034889249891066426,-0.04053852602303045,-2.3226864488009027,0.0,0.0,0.03292649710280335,1.8865493181403645,-4.812125254989151,0.0,-14.166667354199172,11.866027636561936,0.0,-0.39084798130195064,0.0,-6.071795905649243,0.0,0.0,-0.4072965153718712,0.0,-0.02510997857496644,0.3490658503988659,1.0,0.14,0.14,0.75,0.08726646259971647,5.0,0.184,0.175,0.174,0.0,0.0,0.0,-0.006725363721078059,0.0,0.00038154402140464747,0.0,6.086382664540738,0.0,-0.5195381796893948,0.0,0.1459056839455864,0.0,-3.782052574492259,0.0,-0.031295197265878365,0.0,-0.005979750685562891,0.4540856615350222,-0.03610481752048913,0.08898690153961152,0.0,0.0,0.0,0.43946970747449765,0.08898690153961152,0.0,0.0,-0.02702252517542857,0.0,0.0,-0.002401418850260128,0.0,1.0755780531256949,0.0,5.311837632224209,0.0,-0.04572669496544445,0.0,86.335182443108,-1.2899694806044069,0.0,-5.263883159663419,0.0,-0.04572669496544445,0.0
sim_raptor_glider_3dof,raptor_glider_3dof,0.029,-14.654067141860784,0.0,-0.006573636794421605,11.85789394429119,0.0,-0.4952349740013045,0.0,0.0,0.0,-23.680650219013252,-0.41330531533489756,-0.017412254455152473,0.0,0.0,0.0,0.0,0.0,-0.008022340299495964,-0.45964624097883555,0.0,0.0,11.868230974898143,0.006573636794421605,0.03487681382026549,-0.04173990257003772,-2.3915202545504193,0.0,0.0,0.033717562270541755,1.9318740135715837,-4.817388949939374,0.0,-13.982891154176714,11.861485272375836,0.0,-0.4000919978491164,0.0,-5.94612480800962,0.0,0.0,-0.41330531533489756,0.0,-0.02510997857496644,0.3490658503988659,1.0,0.14,0.14,0.75,0.08726646259971647,5.0,0.184,0.175,0.174,0.0,0.0,0.0,-0.0067598533138348,0.0,0.00037298090075448383,0.0,6.086571953407792,0.0,-0.5196562835445763,0.0,0.14450550421649277,0.0,-3.7817035725622934,0.0,-0.030935583044118753,0.0,-0.0058698391477598946,0.4489701703214186,-0.035700819308650815,0.08877559485582888,0.0,0.0,0.0,0.4341328387756923,0.08877559485582888,0.0,0.0,-0.02648210142553288,0.0,0.0,-0.0024377156237213467,0.0,1.072259194934414,0.0,5.24359120269698,0.0,-0.044780265929120454,0.0,86.27364606195765,-1.2901287141823468,0.0,-5.194281122827755,0.0,-0.044780265929120454,0.0
sim_raptor_glider_3dof,raptor_glider_3dof,0.03,-14.642207925510403,0.0,-0.006978246657728869,11.853074136183489,0.0,-0.5091266599307499,0.0,0.0,0.0,-24.01778362422351,-0.4191894032742768,-0.01766643979695275,0.0,0.0,0.0,0.0,0.0,-0.00843859797121732,-0.48349604875841135,0.0,0.0,11.864003389822265,0.006978246657728869,0.034864390343008214,-0.042926745599007124,-2.4595213510548892,0.0,0.0,0.0344881476277898,1.9760253022964778,-4.822143444466977,0.0,-13.800754610715064,11.856948374573918,0.0,-0.40908639234656274,0.0,-5.822368283891124,0.0,0.0,-0.4191894032742768,0.0,-0.02510997857496644,0.3490658503988659,1.0,0.14,0.14,0.75,0.08726646259971647,5.0,0.184,0.175,0.174,0.0,0.0,0.0,-0.006793905000021066,0.0,0.0003644347963588076,0.0,6.086752232737242,0.0,-0.5197712876696431,0.0,0.14312178682237525,0.0,-3.781353363775705,0.0,-0.030580525061233255,0.0,-0.005762248374963952,0.4439128220522573,-0.03530184102951563,0.08856981835649284,0.0,0.0,0.0,0.42885844818925045,0.08856981835649284,0.0,0.0,-0.025949413812214876,0.0,0.0,-0.002473301571573385,0.0,1.0690117695531771,0.0,5.176195876809223,0.0,-0.04384825554598406,0.0,86.21219390128175,-1.2901559930440152,0.0,-5.125552402634533,0.0,-0.04384825554598406,0.0
sim_raptor_glider_3dof,raptor_glider_3dof,0.03,-14.642207925510403,0.0,-0.006978246657728869,11.853074136183489,0.0,-0.5091266599307499,0.0,0.0,0.0,-24.01778362422351,-0.4191894032742768,-0.01766643979695275,0.0,0.0,0.0,0.0,0.0,-0.00843859797121732,-0.48349604875841135,0.0,0.0,11.864003389822265,0.006978246657728869,0.034864390343008214,-0.042926745599007124,-2.4595213510548892,0.0,0.0,0.0344881476277898,1.9760253022964778,-4.823753153295012,0.0,-13.79545121464501,11.856948374573918,0.0,-0.40908639234656274,0.0,-5.761382223110464,0.0,0.0,-0.4191894032742768,0.0,-0.025580384699487924,0.3490658503988659,1.0,0.14,0.14,0.75,0.08726646259971647,5.0,0.184,0.175,0.174,0.0,0.0,0.0,-0.006890745854971223,0.0,0.0003820872204620221,0.0,6.086665195383658,0.0,-0.5197893724771278,0.0,0.1431210156899318,0.0,-3.78109173548975,0.0,-0.030551646072302166,0.0,-0.005768515976124282,0.44379345775671797,-0.03502938830553844,0.08861164610967004,0.0,0.0,0.0,0.42873929916333453,0.08861164610967004,0.0,0.0,-0.025677608173888505,0.0,0.0,-0.002473301571573385,0.0,1.0695166182846085,0.0,5.174757782959666,0.0,-0.043388969522244906,0.0,86.21219390128175,-1.290598662971725,0.0,-5.124093968715267,0.0,-0.043388969522244906,0.0
sim_raptor_glider_3dof,raptor_glider_3dof,0.031,-14.630353253833814,0.0,-0.0073917247362815346,11.848248260607482,0.0,-0.5228311831918973,0.0,0.0,0.0,-24.344391094921672,-0.4248897789995706,-0.017913057534633688,0.0,0.0,0.0,0.0,0.0,-0.008860650827395926,-0.5076778961488874,0.0,0.0,11.859778214246084,0.0073917247362815346,0.03485197394647531,-0.04409868970682862,-2.5266688022582855,0.0,0.0,0.03523803887943269,2.0189909061093982,-4.827976007851141,0.0,-13.61442853629876,11.8524157178899,0.0,-0.4178288422578152,0.0,-5.639931862251094,0.0,0.0,-0.4248897789995706,0.0,-0.025580384699487924,0.3490658503988659,1.0,0.14,0.14,0.75,0.08726646259971647,5.0,0.184,0.175,0.174,0.0,0.0,0.0,-0.006924697660825037,0.0,0.0003735122561817553,0.0,6.086835085343038,0.0,-0.5199014281005839,0.0,0.14175421109277386,0.0,-3.780736666684551,0.0,-0.03020117649050156,0.0,-0.005663227087809141,0.4387962573441294,-0.034635673155687184,0.08841148227898347,0.0,0.0,0.0,0.4235315215518687,0.08841148227898347,0.0,0.0,-0.025154235674980444,0.0,0.0,-0.0025078280548487164,0.0,1.0663407730212329,0.0,5.108261036336413,0.0,-0.04247432685461299,0.0,86.15079864015705,-1.2904987002589932,0.0,-5.056285846764414,0.0,-0.04247432685461299,0.0
sim_raptor_glider_3dof,raptor_glider_3dof,0.032,-14.618503101317556,0.0,-0.00781380355752218,11.843418415485285,0.0,-0.5363559309515328,0.0,0.0,0.0,-24.664109558156593,-0.4304699188624364,-0.018154773756383795,0.0,0.0,0.0,0.0,0.0,-0.009288330679696635,-0.5321821466684965,0.0,0.0,11.855557239072438,0.00781380355752218,0.034839569893539146,-0.04525633440823488,-2.5929969578245466,0.0,0.0,0.03596800372853824,2.06081481115605,-4.831714125256354,0.0,-13.435066828745347,11.847889314641384,0.0,-0.4263287897027015,0.0,-5.520347945958336,0.0,0.0,-0.4304699188624364,0.0,-0.025580384699487924,0.3490658503988659,1.0,0.14,0.14,0.75,0.08726646259971647,5.0,0.184,0.175,0.174,0.0,0.0,0.0,-0.0069582162514199315,0.0,0.00036496234311628406,0.0,6.086996512424227,0.0,-0.5200105338248296,0.0,0.1404036403443981,0.0,-3.78038075748322,0.0,-0.029855179821669995,0.0,-0.005560169056302427,0.4338568582104858,-0.03424689732172875,0.08821662398226474,0.0,0.0,0.0,0.41838573197503154,0.08821662398226474,0.0,0.0,-0.024638423290615503,0.0,0.0,-0.0025416683258937312,0.0,1.0632333372348541,0.0,5.04260578084117,0.0,-0.04157374038101223,0.0,86.08948625055788,-1.2902766606157947,0.0,-4.9893410716697355,0.0,-0.04157374038101223,0.0
sim_raptor_glider_3dof,raptor_glider_3dof,0.033,-14.606657471903928,0.0,-0.008244262400945427,11.838585068778972,0.0,-0.5497021510897551,0.0,0.0,0.0,-24.97702929368349,-0.4359313985418506,-0.018391649570233235,0.0,0.0,0.0,0.0,0.0,-0.00972153136053714,-0.5570027173628512,0.0,0.0,11.85134038350216,0.008244262400945427,0.034827177946757645,-0.04639976818399155,-2.658510887328112,0.0,0.0,0.03667823682345441,2.101508169965261,-4.834979034901466,0.0,-13.257373770967316,11.843369514194594,0.0,-0.43458881241379593,0.0,-5.402612053766511,0.0,0.0,-0.4359313985418506,0.0,-0.025580384699487924,0.3490658503988659,1.0,0.14,0.14,0.75,0.08726646259971647,5.0,0.184,0.175,0.174,0.0,0.0,0.0,-0.0069913054210061,0.0,0.00035644137622887074,0.0,6.08714972476393,0.0,-0.5201167595882571,0.0,0.1390692214905199,0.0,-3.7800241666242136,0.0,-0.029513622832511334,0.0,-0.005459300590928868,0.4289751833943765,-0.03386302992782474,0.08802696719026307,0.0,0.0,0.0,0.41330180194766053,0.08802696719026307,0.0,0.0,-0.024130106750285568,0.0,0.0,-0.0025748309398326533,0.0,1.0601928993364436,0.0,4.97778862198873,0.0,-0.040687071376915594,0.0,86.02825549429346,-1.2899372093445565,0.0,-4.923256091749875,0.0,-0.040687071376915594,0.0
sim_raptor_glider_3dof,raptor_glider_3dof,0.034,-14.594816359670933,0.0,-0.008682891607276696,11.833748631565085,0.0,-0.5628713111766048,0.0,0.0,0.0,-25.283242859137424,-0.4412758334732929,-0.01862374791849354,0.0,0.0,0.0,0.0,0.0,-0.010160149281315,-0.5821336730422261,0.0,0.0,11.847127533204587,0.008682891607276696,0.034814797770150716,-0.04752909833525441,-2.723216738672345,0.0,0.0,0.037368949053939414,2.1410830656301187,-4.837782224194897,0.0,-13.081353016316616,11.838856604126205,0.0,-0.44261167511886984,0.0,-5.286704125677589,0.0,0.0,-0.4412758334732929,0.0,-0.025580384699487924,0.3490658503988659,1.0,0.14,0.14,0.75,0.08726646259971647,5.0,0.184,0.175,0.174,0.0,0.0,0.0,-0.007023969454457098,0.0,0.000347952929324047,0.0,6.087294967981415,0.0,-0.5202201755952365,0.0,0.13775084990286982,0.0,-3.7796670432594066,0.0,-0.029176466788549762,0.0,-0.0053605793768870865,0.42415105943970094,-0.033484033605472766,0.08784240586874847,0.0,0.0,0.0,0.40827950486121295,0.08784240586874847,0.0,0.0,-0.023629214333342623,0.0,0.0,-0.002607324708589096,0.0,1.0572180217024556,0.0,4.9138049688208,0.0,-0.03981416877047792,0.0,85.967104648272,-1.2894849085094127,0.0,-4.858026130821747,0.0,-0.03981416877047792,0.0
sim_raptor_glider_3dof,raptor_glider_3dof,0.034999999999999996,-14.58297975649533,0.0,-0.009129417653200097,11.828909634513884,0.0,-0.5758653492656768,0.0,0.0,0.0,-25.582871098583233,-0.44650533278357624,-0.01885115244681728,0.0,0.0,0.0,0.0,0.0,-0.01060404956869619,-0.6075672860338126,0.0,0.0,11.842918729856263,0.009129417653200097,0.034802429486191964,-0.04864447146334226,-2.7871229114940834,0.0,0.0,0.03804042189464607,2.1795556254602704,-4.840135962968767,0.0,-12.907005618775363,11.834350975011775,0.0,-0.4504009793707902,0.0,-5.172598878224537,0.0,0.0,-0.44650533278357624,0.0,-0.025580384699487924,0.3490658503988659,1.0,0.14,0.14,0.75,0.08726646259971647,5.0,0.184,0.175,0.174,0.0,0.0,0.0,-0.007056213719635767,0.0,0.00033950009910234364,0.0,6.087432487215319,0.0,-0.5203208540543925,0.0,0.1364483743464069,0.0,-3.779309519977937,0.0,-0.028843661359948237,0.0,-0.005263960378449568,0.4193841292610058,-0.0331098576461778,0.08766282894611867,0.0,0.0,0.0,0.40331841276533725,0.08766282894611867,0.0,0.0,-0.023135650059504125,0.0,0.0,-0.00263916134255442,0.0,1.054307238088301,0.0,4.850647953582919,0.0,-0.038954842151908996,0.0,85.90603425510871,-1.2889242485328245,0.0,-4.793644083933186,0.0,-0.038954842151908996,0.0
sim_raptor_glider_3dof,raptor_glider_3dof,0.036,-14.571147655181713,0.0,-0.009583617207345515,11.824068504209055,0.0,-0.5886858789160562,0.0,0.0,0.0,-25.87601283328233,-0.4516216212290832,-0.019073930861102945,0.0,0.0,0.0,0.0,0.0,-0.011053122478557937,-0.6332972684625495,0.0,0.0,11.83871391056747,0.009583617207345515,0.03479007291006926,-0.049746007341949804,-2.8502362683205305,0.0,0.0,0.03869288486339187,2.216938999857981,-4.842051642548693,0.0,-12.734332800928588,11.829852914002798,0.0,-0.457959702728573,0.0,-5.060274867972275,0.0,0.0,-0.4516216212290832,0.0,-0.025580384699487924,0.3490658503988659,1.0,0.14,0.14,0.75,0.08726646259971647,5.0,0.184,0.175,0.174,0.0,0.0,0.0,-0.0070880427562696425,0.0,0.0003310860065053033,0.0,6.087562518540297,0.0,-0.5204188631140781,0.0,0.13516167418707592,0.0,-3.7789517336376113,0.0,-0.028515164367601868,0.0,-0.0051694016361521315,0.414674135206756,-0.032740460207781805,0.08748813120185009,0.0,0.0,0.0,0.39841821068397687,0.08748813120185009,0.0,0.0,-0.02264933523450296,0.0,0.0,-0.002670350320554412,0.0,1.0514591380680707,0.0,4.788311998914186,0.0,-0.038108930030699206,0.0,85.84504334015438,-1.2882595736927915,0.0,-4.73010416256992,0.0,-0.038108930030699206,0.0
sim_raptor_glider_3dof,raptor_glider_3dof,0.037,-14.559320048025969,0.0,-0.010045261472894492,11.819225672535248,0.0,-0.6013345731083775,0.0,0.0,0.0,-26.16276937926232,-0.4566264671080805,-0.019292152781082327,0.0,0.0,0.0,0.0,0.0,-0.01150725580971465,-0.6593171916740462,0.0,0.0,11.834513034642859,0.010045261472894492,0.03477772792219242,-0.05083383085177288,-2.9125639642885006,0.0,0.0,0.03932657504205823,2.2532467726144545,-4.843540582117392,0.0,-12.563334707885652,11.82536270639045,0.0,-0.4652909084021056,0.0,-4.9497100988845855,0.0,0.0,-0.4566264671080805,0.0,-0.025580384699487924,0.3490658503988659,1.0,0.14,0.14,0.75,0.08726646259971647,5.0,0.184,0.175,0.174,0.0,0.0,0.0,-0.007119461201848354,0.0,0.00032271356417737514,0.0,6.087685293280092,0.0,-0.5205142698475158,0.0,0.13389062214089129,0.0,-3.778593815417991,0.0,-0.02819093224430489,0.0,-0.005076861449292099,0.4100207833308954,-0.032375797604760934,0.08731820799837745,0.0,0.0,0.0,0.39357854566434036,0.08731820799837745,0.0,0.0,-0.022170188318903397,0.0,0.0,-0.0027009013893515258,0.0,1.0486723261855568,0.0,4.726791106686726,0.0,-0.03727626675469981,0.0,85.78413125187257,-1.2874951210446104,0.0,-4.667400146467674,0.0,-0.03727626675469981,0.0
sim_raptor_glider_3dof,raptor_glider_3dof,0.038,-14.547496927055331,0.0,-0.010514124269445995,11.814381561329816,0.0,-0.6138131063137702,0.0,0.0,0.0,-26.443240982300168,-0.46152162003943753,-0.019505887141554917,0.0,0.0,0.0,0.0,0.0,-0.011966338888475961,-0.6856207145329413,0.0,0.0,11.83031606535398,0.010514124269445995,0.034765394414628635,-0.05190806716024782,-2.974113170963828,0.0,0.0,0.03994172827177186,2.288492456430887,-4.844613909194325,0.0,-12.394010657059994,11.820880621831131,0.0,-0.47239764033035975,0.0,-4.840882676690793,0.0,0.0,-0.46152162003943753,0.0,-0.025580384699487924,0.3490658503988659,1.0,0.14,0.14,0.75,0.08726646259971647,5.0,0.184,0.175,0.174,0.0,0.0,0.0,-0.007150473653999498,0.0,0.0003143855183486514,0.0,6.087801037452311,0.0,-0.5206071398370286,0.0,0.1326350899203517,0.0,-3.778235892382216,0.0,-0.027870921473236582,0.0,-0.004986298792229448,0.40542376458747964,-0.03201582593603786,0.08715295608268826,0.0,0.0,0.0,0.38879905019072963,0.08715295608268826,0.0,0.0,-0.021698127928500725,0.0,0.0,-0.002730824199817689,0.0,1.045945428263909,0.0,4.666079125009986,0.0,-0.036456687438158365,0.0,85.72329739711094,-1.286635016324149,0.0,-4.60552565670073,0.0,-0.036456687438158365,0.0
sim_raptor_glider_3dof,raptor_glider_3dof,0.039,-14.535678283998754,0.0,-0.01098998285340784,11.809536579918793,0.0,-0.6261231518967559,0.0,0.0,0.0,-26.71752647112315,-0.46630880490984067,-0.019715201939204792,0.0,0.0,0.0,0.0,0.0,-0.012430263013182294,-0.7122016088929151,0.0,0.0,11.826122967134292,0.01098998285340784,0.03475307228285959,-0.05296884151587641,-3.0348910645570557,0.0,0.0,0.040538578502694114,2.322689455664141,-4.845282544352712,0.0,-12.226359138575214,11.816406912457607,0.0,-0.47928291541146134,0.0,-4.733770855373999,0.0,0.0,-0.46630880490984067,0.0,-0.025580384699487924,0.3490658503988659,1.0,0.14,0.14,0.75,0.08726646259971647,5.0,0.184,0.175,0.174,0.0,0.0,0.0,-0.007181084648023869,0.0,0.00030610441839496307,0.0,6.087909971742815,0.0,-0.5206975369749393,0.0,0.13139494856988584,0.0,-3.777878087814923,0.0,-0.027555088519431968,0.0,-0.004897673318566646,0.4008827563871471,-0.031660501172779944,0.08699227354733877,0.0,0.0,0.0,0.384079343959862,0.08699227354733877,0.0,0.0,-0.02123307305636441,0.0,0.0,-0.002760128271488671,0.0,1.0432770903606832,0.0,4.606169767663727,0.0,-0.03565002831182159,0.0,85.66254120036146,-1.2856832739657607,0.0,-4.544474175837668,0.0,-0.03565002831182159,0.0
sim_raptor_glider_3dof,raptor_glider_3dof,0.04,-14.523864110362371,0.0,-0.011472617254623806,11.804691127678408,0.0,-0.6382663813474612,0.0,0.0,0.0,-26.985723528198935,-0.4709897265999723,-0.01992016442649033,0.0,0.0,0.0,0.0,0.0,-0.01289892106277085,-0.7390537371691721,0.0,0.0,11.821933707877392,0.011472617254623806,0.03474076143253516,-0.05401627917508845,-3.094904821732968,0.0,0.0,0.0411173581123176,2.355851084563796,-4.845557160730001,0.0,-12.060377972559285,11.811941815632844,0.0,-0.4859497273916198,0.0,-4.628353052719521,0.0,0.0,-0.4709897265999723,0.0,-0.025580384699487924,0.3490658503988659,1.0,0.14,0.14,0.75,0.08726646259971647,5.0,0.184,0.175,0.174,0.0,0.0,0.0,-0.007211298379627524,0.0,0.00029787205284762083,0.0,6.088012310339839,0.0,-0.5207855203095603,0.0,0.13017006971005987,0.0,-3.7775205246289465,0.0,-0.027243387903170876,0.0,-0.004810945270289297,0.39639742478282947,-0.03130977933410504,0.08683605868026487,0.0,0.0,0.0,0.3794190359074841,0.08683605868026487,0.0,0.0,-0.020774943137597948,0.0,0.0,-0.0027888230197086468,0.0,1.040665965313727,0.0,4.54705664054744,0.0,-0.03485612684003071,0.0,85.60186213701154,-1.2846437859180646,0.0,-4.484239075585848,0.0,-0.03485612684003071,0.0
sim_raptor_glider_3dof,raptor_glider_3dof,0.04,-14.523864110362371,0.0,-0.011472617254623806,11.804691127678408,0.0,-0.6382663813474612,0.0,0.0,0.0,-26.985723528198935,-0.4709897265999723,-0.01992016442649033,0.0,0.0,0.0,0.0,0.0,-0.01289892106277085,-0.7390537371691721,0.0,0.0,11.821933707877392,0.011472617254623806,0.03474076143253516,-0.05401627917508845,-3.094904821732968,0.0,0.0,0.0411173581123176,2.355851084563796,-4.847262696521199,0.0,-12.054754943138112,11.811941815632844,0.0,-0.4859497273916198,0.0,-4.563612030832904,0.0,0.0,-0.4709897265999723,0.0,-0.02608589095708519,0.3490658503988659,1.0,0.14,0.14,0.75,0.08726646259971647,5.0,0.184,0.175,0.174,0.0,0.0,0.0,-0.007318898654897818,0.0,0.0003164214796664939,0.0,6.087902700733237,0.0,-0.5208062405521091,0.0,0.1301692354497394,0.0,-3.777198033282035,0.0,-0.027211644238468998,0.0,-0.004817590013022557,0.3962703899484594,-0.03101828176664177,0.08688210447508034,0.0,0.0,0.0,0.3792923067549081,0.08688210447508034,0.0,0.0,-0.0204843449414266,0.0,0.0,-0.0027888230197086468,0.0,1.0412177901228965,0.0,4.545537885344784,0.0,-0.034368562204202605,0.0,85.60186213701154,-1.2851128082606438,0.0,-4.482692742495026,0.0,-0.034368562204202605,0.0
sim_raptor_glider_3dof,raptor_glider_3dof,0.041,-14.512054416509146,0.0,-0.011961817662934608,11.799843939565422,0.0,-0.6502379943742332,0.0,0.0,0.0,-27.24421426932079,-0.4755012411184689,-0.020118101667979307,0.0,0.0,0.0,0.0,0.0,-0.013372186062619145,-0.766169824251739,0.0,0.0,11.817746250763157,0.011961817662934608,0.03472845587811325,-0.05504996646300917,-3.1541307406671497,0.0,0.0,0.041677780400390024,2.3879609164154108,-4.847111086964,0.0,-11.889882208861408,11.807483802926312,0.0,-0.4923948527954584,0.0,-4.460306056702481,0.0,0.0,-0.4755012411184689,0.0,-0.02608589095708519,0.3490658503988659,1.0,0.14,0.14,0.75,0.08726646259971647,5.0,0.184,0.175,0.174,0.0,0.0,0.0,-0.007349029935157047,0.0,0.00030818802141800565,0.0,6.087997119109143,0.0,-0.5208919345965305,0.0,0.12896011717442926,0.0,-3.7768372719627683,0.0,-0.026904120201529044,0.0,-0.0047327540714089626,0.39184282788535924,-0.030672425188465708,0.08673044456378977,0.0,0.0,0.0,0.37469577558583483,0.08673044456378977,0.0,0.0,-0.02003483371755923,0.0,0.0,-0.0028165342335171027,0.0,1.0386640549320132,0.0,4.487271287415537,0.0,-0.03359056491302639,0.0,85.54123066143674,-1.2839900023235173,0.0,-4.42332412330421,0.0,-0.03359056491302639,0.0
sim_raptor_glider_3dof,raptor_glider_3dof,0.042,-14.500249157193416,0.0,-0.012457329377669656,11.794997090701589,0.0,-0.6620462759024157,0.0,0.0,0.0,-27.496858620396893,-0.47991071688131137,-0.020311853949202634,0.0,0.0,0.0,0.0,0.0,-0.013849892044745803,-0.7935403608757484,0.0,0.0,11.81356261426227,0.012457329377669656,0.034716161551212994,-0.05607057981765878,-3.2126075784032615,0.0,0.0,0.042220687772912976,2.4190672175275125,-4.846586530555138,0.0,-11.726680769945398,11.803034829817296,0.0,-0.49862856638482933,0.0,-4.3586455595220475,0.0,0.0,-0.47991071688131137,0.0,-0.02608589095708519,0.3490658503988659,1.0,0.14,0.14,0.75,0.08726646259971647,5.0,0.184,0.175,0.174,0.0,0.0,0.0,-0.007378767881761675,0.0,0.0003000058679351054,0.0,6.088085379268192,0.0,-0.5209753248122544,0.0,0.12776598995862376,0.0,-3.776477039268439,0.0,-0.026600631906291534,0.0,-0.0046497368374620335,0.38747018957044504,-0.030331078636754185,0.08658304626159129,0.0,0.0,0.0,0.37015774742288904,0.08658304626159129,0.0,0.0,-0.019592063627774905,0.0,0.0,-0.002843659552888369,0.0,1.036164824913146,0.0,4.429786824430832,0.0,-0.032824959708760544,0.0,85.48067595643592,-1.2827870355720168,0.0,-4.364757298597099,0.0,-0.032824959708760544,0.0
sim_raptor_glider_3dof,raptor_glider_3dof,0.043000000000000003,-14.488448342238394,0.0,-0.012958970170835029,11.790150948068998,0.0,-0.6736921921729547,0.0,0.0,0.0,-27.743724940931138,-0.48421934698691765,-0.020501467261716623,0.0,0.0,0.0,0.0,0.0,-0.014331957118557847,-0.821160655055841,0.0,0.0,11.809382733574482,0.012958970170835029,0.03470387826140786,-0.057078185393808385,-3.270339125330481,0.0,0.0,0.04274622827525054,2.4491784702746404,-4.845698353488122,0.0,-11.56515292584968,11.79859508791882,0.0,-0.5046528503684571,0.0,-4.258615969256146,0.0,0.0,-0.48421934698691765,0.0,-0.02608589095708519,0.3490658503988659,1.0,0.14,0.14,0.75,0.08726646259971647,5.0,0.184,0.175,0.174,0.0,0.0,0.0,-0.007408114757033262,0.0,0.00029187656523326454,0.0,6.088167674539118,0.0,-0.5210564596449329,0.0,0.12658679342151208,0.0,-3.7761174688729073,0.0,-0.026301150858027166,0.0,-0.004568505245445016,0.383152359771502,-0.029994217700236706,0.08643982006124432,0.0,0.0,0.0,0.3656780679346253,0.08643982006124432,0.0,0.0,-0.019155984887207524,0.0,0.0,-0.0028702054166403275,0.0,1.0337189044712907,0.0,4.3730809655403355,0.0,-0.03207163686446804,0.0,85.42019702583505,-1.2815074898697096,0.0,-4.306988560240248,0.0,-0.03207163686446804,0.0
