name,vehicle,t,north,east,down,u,v,w,p_rad,p_deg,p_hat_div_b,q_deg,q_rad,q_hat_div_c,r_rad,r_deg,r_hat_div_b,phi_rad,phi_deg,theta_rad,theta_deg,psi_rad,psi_deg,speed,altitude,mach,alpha_rad,alpha_deg,beta_rad,beta_deg,gamma_rad,gamma_deg,u_dot,v_dot,w_dot,north_dot,east_dot,down_dot,p_rad_dot,q_rad_dot,r_rad_dot,phi_rad_dot,theta_rad_dot,psi_rad_dot,del_tail_alt_rad,del_tail_splay_rad,DIM_b,DIM_c_bar,DIM_S,DIM_wing_position,DIM_wing_incidence_rad,DIM_wing_incidence_deg,DIM_empennage_length,DIM_nose_length,DIM_tail_length,CDp,CDq,CDr,CYp,CYq,CYr,CLp,CLq,CLr,Clp,Clq,Clr,Cmp,Cmq,Cmr,Cnp,Cnq,Cnr,CL_0,Cm_0,CD_0,Cl_0,CY_0,Cn_0,CL,CD,CY,Cl,Cm,Cn,p_hat,q_hat,r_hat,drag_force_wind,side_force_wind,lift_force_wind,roll_moment_wind,pitch_moment_wind,yaw_moment_wind,qbar,X_total,Y_total,Z_total,L_total,M_total,N_total
sim_raptor_glider_3dof,raptor_glider_3dof,0.0,-15.0,0.0,0.0,12.0,0.0,0.0,0.0,0.0,0.0,0.0,0.0,0.0,0.0,0.0,0.0,0.0,0.0,0.0,0.0,0.0,0.0,12.0,-0.0,0.035264039495724236,0.0,0.0,0.0,0.0,0.0,0.0,-7.487178041450953,0.0,-25.024054441263395,12.0,0.0,0.0,0.0,-89.41363838472799,0.0,0.0,0.0,0.0,0.4363323129985824,0.3490658503988659,1.0,0.14,0.14,0.75,0.08726646259971647,5.0,0.184,0.175,0.174,0.0,0.0,0.0,-0.053153656886407115,0.0,0.055671173493162154,0.0,6.024209384397437,0.0,-0.5269202128147928,0.0,0.19813275846416445,0.0,-3.4552995296441478,0.0,-0.03588346466142729,0.0,-0.029845922084054996,0.7757079658211316,-0.38952171953159265,0.1667455120831285,0.0,0.0,0.0,0.7757079658211316,0.1667455120831285,0.0,0.0,-0.38952171953159265,0.0,0.0,0.0,0.0,2.0589739613990123,0.0,9.578443721347433,0.0,-0.6733741106753866,0.0,88.20001620075907,-2.0589739613990123,0.0,-9.578443721347433,0.0,-0.6733741106753866,0.0
sim_raptor_glider_3dof,raptor_glider_3dof,0.001,-14.988003746590733,0.0,-0.000012415174634177188,11.992502827180262,0.0,-0.02526770405029525,0.0,0.0,0.0,-5.103039651887635,-0.0890648437852645,-0.0037133468875430262,0.0,0.0,0.0,0.0,0.0,-0.000044590487564095195,-0.0025548467438532376,0.0,0.0,11.992529446150822,0.000012415174634177188,0.03524208600355821,-0.002106955238988487,-0.12071964281701804,0.0,0.0,0.002062364751424392,0.1181647960731648,-7.507675599275719,0.0,-25.508550485583747,11.99250394195709,0.0,-0.024732952477174667,0.0,-88.71856693472195,0.0,0.0,-0.0890648437852645,0.0,0.4363323129985824,0.3490658503988659,1.0,0.14,0.14,0.75,0.08726646259971647,5.0,0.184,0.175,0.174,0.0,0.0,0.0,-0.053430186057496054,0.0,0.0554080780660455,0.0,6.0240249874908525,0.0,-0.5274002219771142,0.0,0.1957017793236076,0.0,-3.453669819760639,0.0,-0.03525814560644711,0.0,-0.029499655008724115,0.7671435812705255,-0.38877083359862435,0.165760584735996,0.0,0.0,0.0,0.7640118800492363,0.165760584735996,0.0,0.0,-0.386975379228011,0.0,0.0,-0.0005198685642560238,0.0,2.0442643995802876,0.0,9.422277857722193,0.0,-0.6681395275853911,0.0,88.09023322213056,-2.064112165078258,0.0,-9.417949773357746,0.0,-0.6681395275853911,0.0
sim_raptor_glider_3dof,raptor_glider_3dof,0.002,-14.976014997218163,0.0,-0.000049270492086499364,11.984983638081903,0.0,-0.051011581957007696,0.0,0.0,0.0,-10.166686259086081,-0.1774421492383174,-0.0074026192836820276,0.0,0.0,0.0,0.0,0.0,-0.00017790069037163533,-0.010192958730758345,0.0,0.0,11.985092197667264,0.000049270492086499364,0.03522023038486956,-0.004256265628603735,-0.24386605700559036,0.0,0.0,0.0040783649382321,0.233673098274832,-7.5312069778045,0.0,-25.97647568606275,11.984992523423195,0.0,-0.04887944429772272,0.0,-88.03854836579413,0.0,0.0,-0.1774421492383174,0.0,0.4363323129985824,0.3490658503988659,1.0,0.14,0.14,0.75,0.08726646259971647,5.0,0.184,0.175,0.174,0.0,0.0,0.0,-0.05371000072613438,0.0,0.05518325282971427,0.0,6.023796383437123,0.0,-0.5278990096560925,0.0,0.1932332307470952,0.0,-3.4519868033346692,0.0,-0.03462545852853912,0.0,-0.029153229463314653,0.758374006898808,-0.388063512765844,0.16478068235403653,0.0,0.0,0.0,0.7521311449211472,0.16478068235403653,0.0,0.0,-0.38448598859501065,0.0,0.0,-0.001036366699715484,0.0,2.0296598650783366,0.0,9.264255835778041,0.0,-0.6630183077427956,0.0,87.98100758981425,-2.069072495287059,0.0,-9.25553317577674,0.0,-0.6630183077427956,0.0
sim_raptor_glider_3dof,raptor_glider_3dof,0.003,-14.964033765483153,0.0,-0.00010997650410396534,11.977439408842296,0.0,-0.07721526894416839,0.0,0.0,0.0,-15.191799193026208,-0.2651469152201249,-0.011068367643203196,0.0,0.0,0.0,0.0,0.0,-0.0003992506169425001,-0.022875375318799577,0.0,0.0,11.97768829909372,0.00010997650410396534,0.035198472770559576,-0.006446636600632963,-0.3693650692708328,0.0,0.0,0.006047385983690463,0.3464896939520332,-7.557751963901034,0.0,-26.428240508352538,11.977469282477013,0.0,-0.07243326284374174,0.0,-87.37346069275941,0.0,0.0,-0.2651469152201249,0.0,0.4363323129985824,0.3490658503988659,1.0,0.14,0.14,0.75,0.08726646259971647,5.0,0.184,0.175,0.174,0.0,0.0,0.0,-0.0539933342342998,0.0,0.0549956890768542,0.0,6.023523849844041,0.0,-0.5284156910211553,0.0,0.1907277346999606,0.0,-3.450251759098094,0.0,-0.033984927296559594,0.0,-0.028807107836358457,0.7494038488665931,-0.387399686775176,0.16380724554970857,0.0,0.0,0.0,0.7400699681597184,0.16380724554970857,0.0,0.0,-0.38205327508479314,0.0,0.0,-0.0015495714700484477,0.0,2.015177614704102,0.0,9.104435082498677,0.0,-0.6580095324771711,0.0,87.87233904709669,-2.0738283182350847,0.0,-9.09125486919839,0.0,-0.6580095324771711,0.0
sim_raptor_glider_3dof,raptor_glider_3dof,0.004,-14.95206006146447,0.0,-0.00019393750269191865,11.969867139046595,0.0,-0.10386280993339823,0.0,0.0,0.0,-20.179227607931264,-0.35219396226773997,-0.01471113674262299,0.0,0.0,0.0,0.0,0.0,-0.0007079751977142588,-0.040563990828967035,0.0,0.0,11.970317740549529,0.00019393750269191865,0.03517681313159225,-0.008676805031272569,-0.49714430794979647,0.0,0.0,0.00796882983355831,0.4565803171208294,-7.587282867422961,0.0,-26.864252771312174,11.96993767151242,0.0,-0.09538841555743248,0.0,-86.72306067972036,0.0,0.0,-0.35219396226773997,0.0,0.4363323129985824,0.3490658503988659,1.0,0.14,0.14,0.75,0.08726646259971647,5.0,0.184,0.175,0.174,0.0,0.0,0.0,-0.054280487125545326,0.0,0.054843901706905056,0.0,6.023207997132767,0.0,-0.5289492506950555,0.0,0.18818569052618506,0.0,-3.4484661334741316,0.0,-0.033335929119057396,0.0,-0.028461722112779208,0.7402377623774763,-0.38677875516894367,0.16284159593212236,0.0,0.0,0.0,0.727832609270965,0.16284159593212236,0.0,0.0,-0.37967643521108574,0.0,0.0,-0.0020595591439672187,0.0,2.000833340210975,0.0,8.942873240625298,0.0,-0.6531113699789741,0.0,87.76422654166264,-2.078352616244555,0.0,-8.925175978978858,0.0,-0.6531113699789741,0.0
sim_raptor_glider_3dof,raptor_glider_3dof,0.005,-14.94009389182307,0.0,-0.0003005518855746,11.962263859629724,0.0,-0.13093865674169305,0.0,0.0,0.0,-25.12980322664479,-0.4385978066832464,-0.01833146045868009,0.0,0.0,0.0,0.0,0.0,-0.0011034240774344013,-0.06322154265010774,0.0,0.0,11.962980463882431,0.0003005518855746,0.035155251297077285,-0.010945539172903748,-0.6271331991024985,0.0,0.0,0.009842115095469346,0.5639116564523908,-7.619764933048298,0.0,-27.284916404279006,11.96240105817221,0.0,-0.11773912974501546,0.0,-86.08698535636344,0.0,0.0,-0.4385978066832464,0.0,0.4363323129985824,0.3490658503988659,1.0,0.14,0.14,0.75,0.08726646259971647,5.0,0.184,0.175,0.174,0.0,0.0,0.0,-0.05457182683161292,0.0,0.05472593032343835,0.0,6.022849768199583,0.0,-0.529498543215881,0.0,0.18560727572066893,0.0,-3.446631540314975,0.0,-0.03267769521599154,0.0,-0.028117473742245224,0.7308804509402165,-0.3861995880247053,0.16188493539638366,0.0,0.0,0.0,0.7154233824078116,0.16188493539638366,0.0,0.0,-0.37735413745313595,0.0,0.0,-0.002566404464215213,0.0,1.9866411722863777,0.0,8.779628219436473,0.0,-0.6483210867187731,0.0,87.65666831823584,-2.0826180146542357,0.0,-8.757357879177162,0.0,-0.6483210867187731,0.0
sim_raptor_glider_3dof,raptor_glider_3dof,0.006,-14.92813525992473,0.0,-0.0004292124397594923,11.954626639550906,0.0,-0.15842765930436845,0.0,0.0,0.0,-30.04433358782197,-0.5243725426750143,-0.02192985685369944,0.0,0.0,0.0,0.0,0.0,-0.0015849610904613313,-0.09081158117588696,0.0,0.0,11.955676367913814,0.0004292124397594923,0.03513378696968413,-0.01325163807797221,-0.7592629335026617,0.0,0.0,0.01166667698751088,0.6684513523267749,-7.65515672930522,0.0,-27.690630360815796,11.954862725505864,0.0,-0.13947985016959272,0.0,-85.46475387002384,0.0,0.0,-0.5243725426750143,0.0,0.4363323129985824,0.3490658503988659,1.0,0.14,0.14,0.75,0.08726646259971647,5.0,0.184,0.175,0.174,0.0,0.0,0.0,-0.05486778710977721,0.0,0.05463934182373924,0.0,6.022450437086101,0.0,-0.5300622937916623,0.0,0.18299244783751023,0.0,-3.444749760445701,0.0,-0.03200931203935526,0.0,-0.02777473367758559,0.7213366671206888,-0.3856605284654083,0.16093834608201854,0.0,0.0,0.0,0.7028466604815571,0.16093834608201854,0.0,0.0,-0.37508452678533377,0.0,0.0,-0.003070179959517922,0.0,1.9726136922696764,0.0,8.61475825857789,0.0,-0.6436350613951496,0.0,87.54966199755503,-2.0865968109073574,0.0,-8.58786227075033,0.0,-0.6436350613951496,0.0
sim_raptor_glider_3dof,raptor_glider_3dof,0.007,-14.916184165882276,0.0,-0.0005793064854676666,11.946952592434664,0.0,-0.18631506489291877,0.0,0.0,0.0,-34.923595341205655,-0.6095317253381911,-0.025506823267053384,0.0,0.0,0.0,0.0,0.0,-0.00215196395569408,-0.12329845232554847,0.0,0.0,11.94840531406963,0.0005793064854676666,0.03511241974218939,-0.015593931681301612,-0.8934664713539263,0.0,0.0,0.013441967725607532,0.7701680190283778,-7.693410528399182,0.0,-28.081787400130356,11.947325872576652,0.0,-0.1606052419691676,0.0,-84.85576962259707,0.0,0.0,-0.6095317253381911,0.0,0.4363323129985824,0.3490658503988659,1.0,0.14,0.14,0.75,0.08726646259971647,5.0,0.184,0.175,0.174,0.0,0.0,0.0,-0.05516886739682447,0.0,0.05458123429015566,0.0,6.022011606567932,0.0,-0.5306390995932566,0.0,0.18034094615955698,0.0,-3.442822740123928,0.0,-0.031329722669104235,0.0,-0.027433842397851762,0.7116112100401488,-0.3851593965008954,0.16000279048359145,0.0,0.0,0.0,0.6901068760336266,0.16000279048359145,0.0,0.0,-0.3728652305367967,0.0,0.0,-0.0035709552573874744,0.0,1.9587619456352325,0.0,8.448321951825605,0.0,-0.6390488010277785,0.0,87.4432046606849,-2.090261009781001,0.0,-8.416751218395161,0.0,-0.6390488010277785,0.0
sim_raptor_glider_3dof,raptor_glider_3dof,0.008,-14.904240606651282,0.0,-0.0007502161182813057,11.939238882633015,0.0,-0.21458650998107728,0.0,0.0,0.0,-39.768327695755914,-0.6940882563029905,-0.02906283149078703,0.0,0.0,0.0,0.0,0.0,-0.0028038236298313884,-0.16064726048838937,0.0,0.0,11.941167131685324,0.0007502161182813057,0.035091149113066274,-0.017971280258754233,-1.0296785112733915,0.0,0.0,0.015167456628922844,0.8690312507850021,-7.734472659743328,0.0,-28.458772998507442,11.939793614875626,0.0,-0.18111019026309105,0.0,-84.25932271685393,0.0,0.0,-0.6940882563029905,0.0,0.4363323129985824,0.3490658503988659,1.0,0.14,0.14,0.75,0.08726646259971647,5.0,0.184,0.175,0.174,0.0,0.0,0.0,-0.05547563193059443,0.0,0.054548242134604644,0.0,6.021535204946049,0.0,-0.5312274312413525,0.0,0.17765229454057654,0.0,-3.440852589499303,0.0,-0.030637728722487007,0.0,-0.027095110104628704,0.7017089249620452,-0.38469349440195466,0.1590791122370665,0.0,0.0,0.0,0.6772085241452388,0.1590791122370665,0.0,0.0,-0.37069336574289874,0.0,0.0,-0.004068796408710184,0.0,1.9450954633896698,0.0,8.280378294547667,0.0,-0.634556959380627,0.0,87.33729292823296,-2.0935823601488033,0.0,-8.244087212286694,0.0,-0.634556959380627,0.0
sim_raptor_glider_3dof,raptor_glider_3dof,0.009000000000000001,-14.892304576113405,0.0,-0.0009413184291606596,11.931482731000013,0.0,-0.24322801242629782,0.0,0.0,0.0,-44.57922600410458,-0.7780542717623,-0.03259832301805841,0.0,0.0,0.0,0.0,0.0,-0.0035399435977275817,-0.2028238278641469,0.0,0.0,11.933961623290918,0.0009413184291606596,0.03506997450201568,-0.020382573901800104,-1.1678354601866447,0.0,0.0,0.01684263030407252,0.9650116323224979,-7.778283843616755,0.0,-28.821964269395146,11.932268984822977,0.0,-0.20098980076623565,0.0,-83.67459264387269,0.0,0.0,-0.7780542717623,0.0,0.4363323129985824,0.3490658503988659,1.0,0.14,0.14,0.75,0.08726646259971647,5.0,0.184,0.175,0.174,0.0,0.0,0.0,-0.055788708736007504,0.0,0.0545365423304085,0.0,6.021023482042527,0.0,-0.531825634606743,0.0,0.17492580464570248,0.0,-3.4388415806117196,0.0,-0.029931992558805562,0.0,-0.02675881698380161,0.6916347024036031,-0.3842596132891834,0.15816803727685969,0.0,0.0,0.0,0.6641561648322319,0.15816803727685969,0.0,0.0,-0.3685655476778038,0.0,0.0,-0.004563765222528177,0.0,1.9316222876944662,0.0,8.110986723910683,0.0,-0.6301533572010052,0.0,87.23192303897322,-2.096532395351765,0.0,-8.0699332223392,0.0,-0.6301533572010052,0.0
sim_raptor_glider_3dof,raptor_glider_3dof,0.01,-14.88037606515921,0.0,-0.0011519857253842968,11.923681420343334,0.0,-0.27222596258209436,0.0,0.0,0.0,-49.356935507178044,-0.8614410332947542,-0.03611370438294382,0.0,0.0,0.0,0.0,0.0,-0.004359739052099519,-0.24979464746366856,0.0,0.0,11.926788569792983,0.0011519857253842968,0.03504889526519434,-0.022826731891997996,-1.3078753974881616,0.0,0.0,0.01846699283989848,1.058080750024493,-7.824779502619,0.0,-29.171728920063018,11.924754932281528,0.0,-0.22023940058925584,0.0,-83.10065118556057,0.0,0.0,-0.8614410332947542,0.0,0.4363323129985824,0.3490658503988659,1.0,0.14,0.14,0.75,0.08726646259971647,5.0,0.184,0.175,0.174,0.0,0.0,0.0,-0.05610878847395166,0.0,0.05454186162840115,0.0,6.020479004498773,0.0,-0.5324319328652451,0.0,0.17216057968112747,0.0,-3.4367921450673697,0.0,-0.02921103978427371,0.0,-0.02642521354291394,0.6813934773072167,-0.3838540408424605,0.15727017538811427,0.0,0.0,0.0,0.6509544254455103,0.15727017538811427,0.0,0.0,-0.3664778994650984,0.0,0.0,-0.0050559186136121355,0.0,1.9183490019530007,0.0,7.940207158086878,0.0,-0.6258310040784566,0.0,87.12709092666549,-2.099082476605616,0.0,-7.894352751368246,0.0,-0.6258310040784566,0.0
sim_raptor_glider_3dof,raptor_glider_3dof,0.01,-14.88037606515921,0.0,-0.0011519857253842968,11.923681420343334,0.0,-0.27222596258209436,0.0,0.0,0.0,-49.356935507178044,-0.8614410332947542,-0.03611370438294382,0.0,0.0,0.0,0.0,0.0,-0.004359739052099519,-0.24979464746366856,0.0,0.0,11.926788569792983,0.0011519857253842968,0.03504889526519434,-0.022826731891997996,-1.3078753974881616,0.0,0.0,0.01846699283989848,1.058080750024493,-5.971509444141263,0.0,-19.437127850088167,11.924754932281528,0.0,-0.22023940058925584,0.0,28.96246841879424,0.0,0.0,-0.8614410332947542,0.0,-0.26541233738022774,0.3490658503988659,1.0,0.14,0.14,0.75,0.08726646259971647,5.0,0.184,0.175,0.174,0.0,0.0,0.0,-0.044897909822323424,0.0,0.023518008410040328,0.0,6.0115318070905825,0.0,-0.5234229388175407,0.0,0.1655102560402778,0.0,-3.510186700246346,0.0,-0.024391991941443213,0.0,-0.016707776273284562,0.4609845605767806,0.1099786712097965,0.12050825467145045,0.0,0.0,0.0,0.43059074501698996,0.12050825467145045,0.0,0.0,0.12772588948482577,0.0,0.0,-0.0050559186136121355,0.0,1.4699347127042515,0.0,5.252256659058629,0.0,0.21811634966193943,0.0,87.12709092666549,-1.5894332105242381,0.0,-5.217337457125162,0.0,0.21811634966193943,0.0
sim_raptor_glider_3dof,raptor_glider_3dof,0.011,-14.868454158584273,0.0,-0.0013767686076780594,11.917706073650587,0.0,-0.29134805852404727,0.0,0.0,0.0,-47.69926568054948,-0.8325092369091222,-0.03491697870506311,0.0,0.0,0.0,0.0,0.0,-0.005206704469653038,-0.29832219128302073,0.0,0.0,11.921266784580144,0.0013767686076780594,0.03503266856087497,-0.024441787472220054,-1.400411265913938,0.0,0.0,0.019235083002567016,1.1020890746309173,-5.978924259719103,0.0,-18.808521291215897,11.919061487256162,0.0,-0.2292924162304005,0.0,28.900823425200326,0.0,0.0,-0.8325092369091222,0.0,-0.26541233738022774,0.3490658503988659,1.0,0.14,0.14,0.75,0.08726646259971647,5.0,0.184,0.175,0.174,0.0,0.0,0.0,-0.04518787717931185,0.0,0.02347631579261489,0.0,6.01115037567473,0.0,-0.5236769543600774,0.0,0.16366003414344282,0.0,-3.507839877032575,0.0,-0.023843599369057333,0.0,-0.01652544111280757,0.454285762530444,0.1104244858822417,0.1202505817346131,0.0,0.0,0.0,0.4249009931779927,0.1202505817346131,0.0,0.0,0.12757212972243817,0.0,0.0,-0.004888377018708836,0.0,1.4654338151305077,0.0,5.17805630961317,0.0,0.21765210121518366,0.0,87.0464345602113,-1.5915444620691803,0.0,-5.140695442963883,0.0,0.21765210121518366,0.0
sim_raptor_glider_3dof,raptor_glider_3dof,0.012,-14.856537940794738,0.0,-0.0016104704044616345,11.911724430955493,0.0,-0.3098469472586369,0.0,0.0,0.0,-46.045210148439374,-0.803640521862974,-0.03372176650725722,0.0,0.0,0.0,0.0,0.0,-0.006024775122077684,-0.3451941870104666,0.0,0.0,11.915753608133539,0.0016104704044616345,0.03501646715487831,-0.026006066080217202,-1.490037828134774,0.0,0.0,0.019981290958139518,1.1448436411243073,-5.98407103779065,0.0,-18.190665056627527,11.913374993113626,0.0,-0.2380762970191776,0.0,28.83622236641359,0.0,0.0,-0.803640521862974,0.0,-0.26541233738022774,0.3490658503988659,1.0,0.14,0.14,0.75,0.08726646259971647,5.0,0.184,0.175,0.174,0.0,0.0,0.0,-0.0454682656097917,0.0,0.02343478400615048,0.0,6.010769779742648,0.0,-0.5239203865234962,0.0,0.16186686356807453,0.0,-3.5055588188633684,0.0,-0.02331326449628218,0.0,-0.01635013423631258,0.4477882720260854,0.110854876333193,0.12000606185454181,0.0,0.0,0.0,0.41941114352029507,0.12000606185454181,0.0,0.0,0.12740478536859637,0.0,0.0,-0.004721047311016012,0.0,1.4611016167204673,0.0,5.106427878708785,0.0,0.21716559064146077,0.0,86.96594120455197,-1.593390694202687,0.0,-5.066707975645107,0.0,0.21716559064146077,0.0
sim_raptor_glider_3dof,raptor_glider_3dof,0.013000000000000001,-14.844627406331357,0.0,-0.0018528359264400474,11.90573862860991,0.0,-0.32773289991134436,0.0,0.0,0.0,-44.39493213938325,-0.7748377370316879,-0.03252819334859077,0.0,0.0,0.0,0.0,0.0,-0.006814007406930837,-0.390413865988019,0.0,0.0,11.910248576182552,0.0018528359264400474,0.03500028968286623,-0.027520355318011617,-1.576800210422476,0.0,0.0,0.02070634791108078,1.1863863444344571,-5.987082794487057,0.0,-17.583470775901436,11.907695390934505,0.0,-0.24660012809335588,0.0,28.76874353222404,0.0,0.0,-0.7748377370316879,0.0,-0.26541233738022774,0.3490658503988659,1.0,0.14,0.14,0.75,0.08726646259971647,5.0,0.184,0.175,0.174,0.0,0.0,0.0,-0.04573924057576661,0.0,0.023393564719617475,0.0,6.010390959438743,0.0,-0.5241535687836274,0.0,0.16012992629508604,0.0,-3.503343137387907,0.0,-0.022800623510776098,0.0,-0.01618171535297117,0.4414901523780182,0.1112701367935346,0.11977409253210294,0.0,0.0,0.0,0.4141191500859238,0.11977409253210294,0.0,0.0,0.12722417600505234,0.0,0.0,-0.004553947068802708,0.0,1.45693021076503,0.0,5.037338942516359,0.0,0.21665740754117926,0.0,86.88560391153096,-1.5949903872661255,0.0,-4.995341322208156,0.0,0.21665740754117926,0.0
sim_raptor_glider_3dof,raptor_glider_3dof,0.014,-14.832722547814667,0.0,-0.0021035937352003385,11.89975087539698,0.0,-0.34501717132248927,0.0,0.0,0.0,-42.74860433406036,-0.7461038962616712,-0.03133639108978176,0.0,0.0,0.0,0.0,0.0,-0.007574472477093508,-0.4339853049754602,0.0,0.0,11.904751477667167,0.0021035937352003385,0.034984135524603034,-0.028985526354965877,-1.6607483271047616,0.0,0.0,0.021411053877872368,1.2267630221293013,-5.988089399207343,0.0,-16.986831065568538,11.902022815086841,0.0,-0.25487380047957475,0.0,28.69847271828623,0.0,0.0,-0.7461038962616712,0.0,-0.26541233738022774,0.3490658503988659,1.0,0.14,0.14,0.75,0.08726646259971647,5.0,0.184,0.175,0.174,0.0,0.0,0.0,-0.046000983894622545,0.0,0.02335278954745368,0.0,6.010014764354224,0.0,-0.5243768412345297,0.0,0.15844830690647724,0.0,-3.5011922820249337,0.0,-0.022305292055686647,0.0,-0.016020027911783693,0.435388986224297,0.1116705879983955,0.11955408390626872,0.0,0.0,0.0,0.4090224819887337,0.11955408390626872,0.0,0.0,0.12703065028660374,0.0,0.0,-0.004387094752569446,0.0,1.4529119358683698,0.0,4.9707515352286205,0.0,0.21612819804141362,0.0,86.80541943842057,-1.5963613142539874,0.0,-4.926556045831585,0.0,0.21612819804141362,0.0
sim_raptor_glider_3dof,raptor_glider_3dof,0.015,-14.820823358394028,0.0,-0.0023625039957950226,11.89376306477703,0.0,-0.36171003636409726,0.0,0.0,0.0,-41.10638078174515,-0.7174416882199735,-0.03014647856627615,0.0,0.0,0.0,0.0,0.0,-0.008306239338562628,-0.47591245772517504,0.0,0.0,11.899261909524506,0.0023625039957950226,0.03496800349561993,-0.030402370063179193,-1.7419274918150498,0.0,0.0,0.022096130724616567,1.2660150340898748,-5.987214593382355,0.0,-16.400644328021254,11.896357185884598,0.0,-0.2629062519466901,0.0,28.625488818834405,0.0,0.0,-0.7174416882199735,0.0,-0.26541233738022774,0.3490658503988659,1.0,0.14,0.14,0.75,0.08726646259971647,5.0,0.184,0.175,0.174,0.0,0.0,0.0,-0.04625366409177624,0.0,0.023312575970689704,0.0,6.009641997723248,0.0,-0.5245905250384404,0.0,0.1568211802841021,0.0,-3.499105780951524,0.0,-0.021826920186711365,0.0,-0.015864918560054838,0.4294825679354686,0.11205653133517056,0.1193454830252667,0.0,0.0,0.0,0.4041188318209186,0.1193454830252667,0.0,0.0,0.1268245317748929,0.0,0.0,-0.004220506999278661,0.0,1.4490395605650175,0.0,4.906630394665694,0.0,0.21557855629464193,0.0,86.72538174966493,-1.5975201493895235,0.0,-4.860315509330043,0.0,0.21557855629464193,0.0
sim_raptor_glider_3dof,raptor_glider_3dof,0.016,-14.808929831143365,0.0,-0.0026293295383921856,11.887777024173262,0.0,-0.37782189976438396,0.0,0.0,0.0,-39.46841487240608,-0.6888537900665838,-0.02895857398476386,0.0,0.0,0.0,0.0,0.0,-0.009009380830517456,-0.5161994976147186,0.0,0.0,11.893779549176253,0.0026293295383921856,0.034951892647965714,-0.03177168960139735,-1.8203837221597527,0.0,0.0,0.02276230877087989,1.3041842245450341,-5.984577890828586,0.0,-15.824802015321525,11.89069846362133,0.0,-0.27070650460712103,0.0,28.549871965585265,0.0,0.0,-0.6888537900665838,0.0,-0.26541233738022774,0.3490658503988659,1.0,0.14,0.14,0.75,0.08726646259971647,5.0,0.184,0.175,0.174,0.0,0.0,0.0,-0.0464974526970255,0.0,0.023273026227994067,0.0,6.0092733968668615,0.0,-0.5247949365447309,0.0,0.1552477052409479,0.0,-3.4970831072363557,0.0,-0.021365160505492854,0.0,-0.015716227903916462,0.4237685290638762,0.11242827347378151,0.11914775860404059,0.0,0.0,0.0,0.3994057307077783,0.11914775860404059,0.0,0.0,0.12660614905862957,0.0,0.0,-0.004054200357866941,0.0,1.4453061628982764,0.0,4.844938510402368,0.0,0.21500908577282263,0.0,86.64548599341678,-1.5984827354359987,0.0,-4.796581284478009,0.0,0.21500908577282263,0.0
sim_raptor_glider_3dof,raptor_glider_3dof,0.017,-14.797041959185265,0.0,-0.0029038425681435706,11.881794458040373,0.0,-0.3933630508704569,0.0,0.0,0.0,-37.834855210274156,-0.6603427954346155,-0.027772792093686122,0.0,0.0,0.0,0.0,0.0,-0.009683972553034164,-0.5548507562093864,0.0,0.0,11.888304085651116,0.0029038425681435706,0.034935802067798394,-0.03309427998621326,-1.896162569234288,0.0,0.0,0.023410307433179095,1.3413118130249015,-5.98029426456641,0.0,-15.259191951289917,11.885046586514902,0.0,-0.27828343335441974,0.0,28.47170149343909,0.0,0.0,-0.6603427954346155,0.0,-0.26541233738022774,0.3490658503988659,1.0,0.14,0.14,0.75,0.08726646259971647,5.0,0.184,0.175,0.174,0.0,0.0,0.0,-0.046732520329894375,0.0,0.02323422915614364,0.0,6.0089096414370715,0.0,-0.5249903839700006,0.0,0.15372704777438512,0.0,-3.4951237100668537,0.0,-0.020919674605902112,0.0,-0.015573793781801444,0.4182444328382529,0.11278612003749323,0.11896040326731899,0.0,0.0,0.0,0.39488064509286,0.11896040326731899,0.0,0.0,0.12637582821728918,0.0,0.0,-0.0038881908931160574,0.0,1.4417051392828633,0.0,4.785638244302322,0.0,0.21442038394708982,0.0,86.56572749572635,-1.5992640545885934,0.0,-4.735314308223319,0.0,0.21442038394708982,0.0
sim_raptor_glider_3dof,raptor_glider_3dof,0.018000000000000002,-14.785159735716167,0.0,-0.0031858246294075568,11.875816951114103,0.0,-0.4083436586585238,0.0,0.0,0.0,-36.20584560606893,-0.6319112142946246,-0.026589244180469176,0.0,0.0,0.0,0.0,0.0,-0.010330092818919652,-0.5918707205024955,0.0,0.0,11.882835217233962,0.0031858246294075568,0.03491973086847677,-0.034370927683860596,-1.969309094234574,0.0,0.0,0.024040834864940942,1.3774383737320786,-5.974474242050955,0.0,-14.703698830466736,11.87940147055482,0.0,-0.2856457619424014,0.0,28.391055772090503,0.0,0.0,-0.6319112142946246,0.0,-0.26541233738022774,0.3490658503988659,1.0,0.14,0.14,0.75,0.08726646259971647,5.0,0.184,0.175,0.174,0.0,0.0,0.0,-0.046959036395764306,0.0,0.02319626140175279,0.0,6.008551356584115,0.0,-0.5251771672172708,0.0,0.15225838138768574,0.0,-3.49322701670643,0.0,-0.02049013276682261,0.0,-0.015437452210236194,0.4129077847549973,0.11313037484486559,0.11878293271725857,0.0,0.0,0.0,0.39054098726824266,0.11878293271725857,0.0,0.0,0.12613389210236828,0.0,0.0,-0.003722494185265685,0.0,1.4382301923200513,0.0,4.728691457422291,0.0,0.2138130410196136,0.0,86.48610172590438,-1.5998782546759083,0.0,-4.67647501391964,0.0,0.2138130410196136,0.0
sim_raptor_glider_3dof,raptor_glider_3dof,0.019000000000000003,-14.77328315402044,0.0,-0.0034750653595334523,11.869845987216351,0.0,-0.4227737820586241,0.0,0.0,0.0,-34.58152569224498,-0.6035614836926861,-0.025408038490477142,0.0,0.0,0.0,0.0,0.0,-0.010947822245607634,-0.6272640095327529,0.0,0.0,11.877372665325959,0.0034750653595334523,0.034903678231290834,-0.03560241144049722,-2.0398679160287685,0.0,0.0,0.024654589194889588,1.4126039064960156,-5.967224042739426,0.0,-14.158204619135857,11.87376302500143,0.0,-0.29280207844403944,0.0,28.308012249916413,0.0,0.0,-0.6035614836926861,0.0,-0.26541233738022774,0.3490658503988659,1.0,0.14,0.14,0.75,0.08726646259971647,5.0,0.184,0.175,0.174,0.0,0.0,0.0,-0.04717716902481352,0.0,0.02315918851017619,0.0,6.008199115635038,0.0,-0.525355577910709,0.0,0.15084088600931478,0.0,-3.4913924325784658,0.0,-0.02007621325640975,0.0,-0.015307038112258886,0.40775603733980326,0.11346133955131073,0.1186148847558723,0.0,0.0,0.0,0.3863841197254124,0.1186148847558723,0.0,0.0,0.12588066021503472,0.0,0.0,-0.0035571253886668005,0.0,1.4348753208522003,0.0,4.674059574430845,0.0,0.21318764025412051,0.0,86.4066044978488,-1.6003386816945573,0.0,-4.620023397732037,0.0,0.21318764025412051,0.0
sim_raptor_glider_3dof,raptor_glider_3dof,0.02,-14.761412207477875,0.0,-0.0037713629240752984,11.863882945921688,0.0,-0.4366633606658544,0.0,0.0,0.0,-32.96203068891325,-0.575295963664951,-0.0242292800772866,0.0,0.0,0.0,0.0,0.0,-0.011537243853574113,-0.6610353800230466,0.0,0.0,11.871916165686121,0.0037713629240752984,0.03488764337972353,-0.036789501520388984,-2.107883167508414,0.0,0.0,0.02525225766681487,1.4468477874853676,-5.958645664709686,0.0,-13.622588991591012,11.86813114575046,0.0,-0.2997608252379377,0.0,28.222647245340212,0.0,0.0,-0.575295963664951,0.0,-0.26541233738022774,0.3490658503988659,1.0,0.14,0.14,0.75,0.08726646259971647,5.0,0.184,0.175,0.174,0.0,0.0,0.0,-0.04738708474955302,0.0,0.02312306598022014,0.0,6.007853443076015,0.0,-0.5255258992268729,0.0,0.14947374876371572,0.0,-3.4896193436764205,0.0,-0.019677602199196377,0.0,-0.015182386137645023,0.40278660094853147,0.1137793129212459,0.11845581855898972,0.0,0.0,0.0,0.38240736602555037,0.11845581855898972,0.0,0.0,0.12561644794299334,0.0,0.0,-0.0033920992108201244,0.0,1.431634807646511,0.0,4.621703708289895,0.0,0.21254475640465714,0.0,86.32723184187337,-1.60065790452714,0.0,-4.5659191475934415,0.0,0.21254475640465714,0.0
sim_raptor_glider_3dof,raptor_glider_3dof,0.02,-14.761412207477875,0.0,-0.0037713629240752984,11.863882945921688,0.0,-0.4366633606658544,0.0,0.0,0.0,-32.96203068891325,-0.575295963664951,-0.0242292800772866,0.0,0.0,0.0,0.0,0.0,-0.011537243853574113,-0.6610353800230466,0.0,0.0,11.871916165686121,0.0037713629240752984,0.03488764337972353,-0.036789501520388984,-2.107883167508414,0.0,0.0,0.02525225766681487,1.4468477874853676,-5.9484562704400865,0.0,-13.644534028354233,11.86813114575046,0.0,-0.2997608252379377,0.0,27.978671161998314,0.0,0.0,-0.575295963664951,0.0,-0.2639620203220735,0.3490658503988659,1.0,0.14,0.14,0.75,0.08726646259971647,5.0,0.184,0.175,0.174,0.0,0.0,0.0,-0.045440341502130686,0.0,0.02270478878654877,0.0,6.0084845356939605,0.0,-0.5252672076075033,0.0,0.14945086139063987,0.0,-3.4919788519236405,0.0,-0.020251203652559197,0.0,-0.015042157953264936,0.40327921243226517,0.11268539377494834,0.11820576025967015,0.0,0.0,0.0,0.38289783678051276,0.11820576025967015,0.0,0.0,0.12453053248275908,0.0,0.0,-0.0033920992108201244,0.0,1.4286126499374026,0.0,4.627631445850437,0.0,0.21070737252100932,0.0,86.32723184187337,-1.5978558211030003,0.0,-4.571954032703328,0.0,0.21070737252100932,0.0
sim_raptor_glider_3dof,raptor_glider_3dof,0.021,-14.749546890649924,0.0,-0.004074529269670376,11.857939318841455,0.0,-0.4500453168860764,0.0,0.0,0.0,-31.36143859007354,-0.5473603615587915,-0.02306330608419122,0.0,0.0,0.0,0.0,0.0,-0.012098537454833497,-0.6931951344429083,0.0,0.0,11.866476548520088,0.004074529269670376,0.034871658140174816,-0.037934872506640835,-2.1735080909973816,0.0,0.0,0.025836335051807338,1.4803129565544737,-5.938798659635532,0.0,-13.120816175014372,11.86251623610578,0.0,-0.3065521565802545,0.0,27.892702036555985,0.0,0.0,-0.5473603615587915,0.0,-0.2639620203220735,0.3490658503988659,1.0,0.14,0.14,0.75,0.08726646259971647,5.0,0.184,0.175,0.174,0.0,0.0,0.0,-0.04563492003111574,0.0,0.022671219224303922,0.0,6.008155546449904,0.0,-0.5254281540988871,0.0,0.14813085860428282,0.0,-3.4902867755191447,0.0,-0.019868838496244507,0.0,-0.01492367243416904,0.3984806232030183,0.11299207975988494,0.11805484542713687,0.0,0.0,0.0,0.37908111295132957,0.11805484542713687,0.0,0.0,0.12426173707144134,0.0,0.0,-0.0032288628517867708,0.0,1.425481534721301,0.0,4.577305782906106,0.0,0.21005993903730313,0.0,86.2481410691382,-1.5980538530429744,0.0,-4.519950189861785,0.0,0.21005993903730313,0.0
sim_raptor_glider_3dof,raptor_glider_3dof,0.022,-14.737687179687619,0.0,-0.004384413665782262,11.852005751582473,0.0,-0.4629075705058319,0.0,0.0,0.0,-29.765810678553233,-0.5195114008660414,-0.02189990512622871,0.0,0.0,0.0,0.0,0.0,-0.012631959487104246,-0.7237579655913133,0.0,0.0,11.861042270996913,0.004384413665782262,0.03485568859207415,-0.03903747693834087,-2.2366826714062147,0.0,0.0,0.026405517451236628,1.5129247058149013,-5.9280045990363295,0.0,-12.606684568975899,11.856907447377232,0.0,-0.3131605637783674,0.0,27.804546104463256,0.0,0.0,-0.5195114008660414,0.0,-0.2639620203220735,0.3490658503988659,1.0,0.14,0.14,0.75,0.08726646259971647,5.0,0.184,0.175,0.174,0.0,0.0,0.0,-0.045821924850559394,0.0,0.02263862992948194,0.0,6.007833588383519,0.0,-0.5255816281533725,0.0,0.14685949745331336,0.0,-3.4886538585172637,0.0,-0.019501063917344342,0.0,-0.01481057851639843,0.3938586049689201,0.11328636690733125,0.11791209552755019,0.0,0.0,0.0,0.37543866698495243,0.11791209552755019,0.0,0.0,0.12398253330010042,0.0,0.0,-0.003065986717672019,0.0,1.4224541396947494,0.0,4.529173056121663,0.0,0.20939603671271279,0.0,86.16916412728307,-1.598133006168017,0.0,-4.470207517155053,0.0,0.20939603671271279,0.0
sim_raptor_glider_3dof,raptor_glider_3dof,0.023,-14.725833072422084,0.0,-0.004700768931336046,11.846083812145581,0.0,-0.4752632156741738,0.0,0.0,0.0,-28.17532955269218,-0.4917522685289397,-0.020739216033613613,0.0,0.0,0.0,0.0,0.0,-0.01313760399419543,-0.752729261781611,0.0,0.0,11.855613725512086,0.004700768931336046,0.034839735888542375,-0.0400983543708309,-2.297466470868568,0.0,0.0,0.02696075037663547,1.544737209086957,-5.916167259712956,0.0,-12.101971242259536,11.85130517003703,0.0,-0.3195975206475936,0.0,27.714300832336733,0.0,0.0,-0.4917522685289397,0.0,-0.2639620203220735,0.3490658503988659,1.0,0.14,0.14,0.75,0.08726646259971647,5.0,0.184,0.175,0.174,0.0,0.0,0.0,-0.0460015603559948,0.0,0.022607042104508538,0.0,6.0075189739453165,0.0,-0.5257279273465665,0.0,0.1456356449777003,0.0,-3.4870790142714463,0.0,-0.019147491427115144,0.0,-0.014702684239911012,0.38940924702761054,0.11356862070498243,0.1177770920519345,0.0,0.0,0.0,0.3719664742918747,0.1177770920519345,0.0,0.0,0.12369332060543825,0.0,0.0,-0.0029034902447059056,0.0,1.4195252352688787,0.0,4.483179094780818,0.0,0.20871639956832794,0.0,86.09030660848052,-1.5981041101827236,0.0,-4.422670001533237,0.0,0.20871639956832794,0.0
sim_raptor_glider_3dof,raptor_glider_3dof,0.024,-14.713984566276283,0.0,-0.005023521678602504,11.840173922808301,0.0,-0.48711635433418077,0.0,0.0,0.0,-26.590046646301193,-0.4640838622368319,-0.019581283752595834,0.0,0.0,0.0,0.0,0.0,-0.013615510910681562,-0.7801113110963775,0.0,0.0,11.850189908394276,0.005023521678602504,0.034823797080120705,-0.04111779171817165,-2.3558759283492052,0.0,0.0,0.027502280807490086,1.5757646172528277,-5.90336733799711,0.0,-11.606620730151421,11.845708594507956,0.0,-0.3258661673293038,0.0,27.62200204737927,0.0,0.0,-0.4640838622368319,0.0,-0.2639620203220735,0.3490658503988659,1.0,0.14,0.14,0.75,0.08726646259971647,5.0,0.184,0.175,0.174,0.0,0.0,0.0,-0.046173902882937795,0.0,0.022576492713873984,0.0,6.007212197224404,0.0,-0.5258672380984706,0.0,0.14445903362671006,0.0,-3.4855622457865376,0.0,-0.0188079869814592,0.0,-0.014599875502873514,0.3851317425105289,0.11383900410583836,0.117649529464925,0.0,0.0,0.0,0.3686636927871021,0.117649529464925,0.0,0.0,0.12339425377792976,0.0,0.0,-0.0027413797253634173,0.0,1.4166906371073968,0.0,4.439307187952962,0.0,0.20802129741881328,0.0,86.01155382859615,-1.5979763039845458,0.0,-4.377320230709937,0.0,0.20802129741881328,0.0
sim_raptor_glider_3dof,raptor_glider_3dof,0.025,-14.70214165350661,0.0,-0.005352456304138821,11.834277321217789,0.0,-0.4984791329430188,0.0,0.0,0.0,-25.01011358662258,-0.4365088283843321,-0.018426224814457135,0.0,0.0,0.0,0.0,0.0,-0.014065799474512796,-0.8059109453669143,0.0,0.0,11.844771047237227,0.005352456304138821,0.03480787283563204,-0.042096752250264276,-2.411966235147994,0.0,0.0,0.028030952775751482,1.6060552897810798,-5.8896895191184075,0.0,-11.12046972648156,11.840117930401547,0.0,-0.3319767396265212,0.0,27.527738148255448,0.0,0.0,-0.4365088283843321,0.0,-0.2639620203220735,0.3490658503988659,1.0,0.14,0.14,0.75,0.08726646259971647,5.0,0.184,0.175,0.174,0.0,0.0,0.0,-0.04633914261451396,0.0,0.0225469926284527,0.0,6.006913512932317,0.0,-0.5259998329932228,0.0,0.14332861279962306,0.0,-3.4841025260167267,0.0,-0.01848219441798685,0.0,-0.014501970994999716,0.38102240047464264,0.1140978575846818,0.11752903235481839,0.0,0.0,0.0,0.3655265370384019,0.11752903235481839,0.0,0.0,0.12308569748362211,0.0,0.0,-0.0025796714740239997,0.0,1.4139456298384292,0.0,4.397506209998453,0.0,0.2073113959945118,0.0,85.93290899573212,-1.5977590202317788,0.0,-4.334105354554978,0.0,0.2073113959945118,0.0
sim_raptor_glider_3dof,raptor_glider_3dof,0.026000000000000002,-14.690304328540174,0.0,-0.005687425717258649,11.82839480115905,0.0,-0.5093603054356306,0.0,0.0,0.0,-23.435636057096264,-0.4090290114954316,-0.017274122885497654,0.0,0.0,0.0,0.0,0.0,-0.014488560522999306,-0.830133369187717,0.0,0.0,11.839356886792453,0.005687425717258649,0.03479196240498531,-0.04303591609598645,-2.46577635977915,0.0,0.0,0.02854735557298714,1.6356429905914331,-5.875211913040854,0.0,-10.643397245026996,11.834532963523692,0.0,-0.33793642613814995,0.0,27.431574324341046,0.0,0.0,-0.4090290114954316,0.0,-0.2639620203220735,0.3490658503988659,1.0,0.14,0.14,0.75,0.08726646259971647,5.0,0.184,0.175,0.174,0.0,0.0,0.0,-0.04649742100905134,0.0,0.022518555793300095,0.0,6.006623222703529,0.0,-0.5261259384719662,0.0,0.14224365570370076,0.0,-3.482699223079825,0.0,-0.018169855008746662,0.0,-0.014408820176093266,0.37707867460884237,0.1143454435840049,0.1174152770015745,0.0,0.0,0.0,0.3625523939342213,0.1174152770015745,0.0,0.0,0.12276792399338404,0.0,0.0,-0.002418377203969672,0.0,1.4112860211559408,0.0,4.35773894643307,0.0,0.20658718623661243,0.0,85.85436830927009,-1.5974607115232584,0.0,-4.2929868662633215,0.0,0.20658718623661243,0.0
sim_raptor_glider_3dof,raptor_glider_3dof,0.027,-14.678472585746047,0.0,-0.006028281943136635,11.822527132709116,0.0,-0.519768901004729,0.0,0.0,0.0,-21.866721421196182,-0.3816462854162471,-0.016125062811081347,0.0,0.0,0.0,0.0,0.0,-0.014883890015776653,-0.8527840806409065,0.0,0.0,11.833947249928693,0.006028281943136635,0.034776065267650216,-0.04393598789683842,-2.5173466752267077,0.0,0.0,0.029052097881061764,1.664562594585801,-5.8600095938327845,0.0,-10.175276916619291,11.828953531116463,0.0,-0.34375263312775267,0.0,27.33357691714366,0.0,0.0,-0.3816462854162471,0.0,-0.2639620203220735,0.3490658503988659,1.0,0.14,0.14,0.75,0.08726646259971647,5.0,0.184,0.175,0.174,0.0,0.0,0.0,-0.04664888281726047,0.0,0.022491190627072274,0.0,6.006341585742841,0.0,-0.5262457773509325,0.0,0.1412034044377059,0.0,-3.4813516445654753,0.0,-0.01787070469656768,0.0,-0.014320272292517583,0.3732978771934112,0.11458202817129119,0.11730795160136545,0.0,0.0,0.0,0.3597385082465233,0.11730795160136545,0.0,0.0,0.12244121012234234,0.0,0.0,-0.0022575087935513887,0.0,1.4087077956489227,0.0,4.319966669302007,0.0,0.2058491677630089,0.0,85.77592910788091,-1.5970892944712325,0.0,-4.253924712884292,0.0,0.2058491677630089,0.0
sim_raptor_glider_3dof,raptor_glider_3dof,0.028,-14.666646419690286,0.0,-0.006374885456828616,11.816675000903375,0.0,-0.5297138031153519,0.0,0.0,0.0,-20.303472709761948,-0.35436244837416103,-0.014979126324736271,0.0,0.0,0.0,0.0,0.0,-0.015251886027676034,-0.8738686990003871,0.0,0.0,11.828541955380034,0.006374885456828616,0.034760180890946055,-0.044797661529687394,-2.566716937706659,0.0,0.0,0.02954577550201136,1.692848238706272,-5.844154298107592,0.0,-9.71598251183246,11.82337945124258,0.0,-0.3494326002541807,0.0,27.233810480415034,0.0,0.0,-0.35436244837416103,0.0,-0.2639620203220735,0.3490658503988659,1.0,0.14,0.14,0.75,0.08726646259971647,5.0,0.184,0.175,0.174,0.0,0.0,0.0,-0.04679367005432079,0.0,0.022464901592825232,0.0,6.0060688312530885,0.0,-0.5263595641114247,0.0,0.1402071107201697,0.0,-3.4800590910175635,0.0,-0.017584485630556007,0.0,-0.014236180194167255,0.3696773310420289,0.11480787152236578,0.117206760067357,0.0,0.0,0.0,0.3570821381186527,0.117206760067357,0.0,0.0,0.12210582578623164,0.0,0.0,-0.002097077685463078,0.0,1.4062071399870375,0.0,4.284150947400298,0.0,0.20509782672800564,0.0,85.69758867509682,-1.596652124994515,0.0,-4.216879160280965,0.0,0.20509782672800564,0.0
sim_raptor_glider_3dof,raptor_glider_3dof,0.029,-14.654825825118015,0.0,-0.0067271038848077955,11.810839021143995,0.0,-0.5392037694879382,0.0,0.0,0.0,-18.74598931294117,-0.3271792350544931,-0.013836392535455013,0.0,0.0,0.0,0.0,0.0,-0.01559264839909371,-0.8933929446994893,0.0,0.0,11.823140830101266,0.0067271038848077955,0.03474430876635007,-0.04562162173124445,-2.613926379742627,0.0,0.0,0.030028973332150738,1.7205334350431376,-5.827714566599132,0.0,-9.26538796491156,11.817810535654337,0.0,-0.35498342466232946,0.0,27.132337968784597,0.0,0.0,-0.3271792350544931,0.0,-0.2639620203220735,0.3490658503988659,1.0,0.14,0.14,0.75,0.08726646259971647,5.0,0.184,0.175,0.174,0.0,0.0,0.0,-0.04693192222328888,0.0,0.022439689621158596,0.0,6.00580515970616,0.0,-0.5264675052548334,0.0,0.13925403403976894,0.0,-3.478820854509126,0.0,-0.017310945425039113,0.0,-0.014156400384222015,0.36621436629252124,0.11502322822816072,0.11711142121541192,0.0,0.0,0.0,0.3545805514171595,0.11711142121541192,0.0,0.0,0.12176203455465286,0.0,0.0,-0.0019370949549637022,0.0,1.4037804351716594,0.0,4.250253609818566,0.0,0.2043336372429168,0.0,85.6193444183857,-1.5961560282265694,0.0,-4.181810755103879,0.0,0.2043336372429168,0.0
sim_raptor_glider_3dof,raptor_glider_3dof,0.03,-14.643010796959954,0.0,-0.007084811523271746,11.805019745410887,0.0,-0.548247437951572,0.0,0.0,0.0,-17.194367242489612,-0.300098321178502,-0.012696938116601367,0.0,0.0,0.0,0.0,0.0,-0.01590627858256121,-0.9113626305400907,0.0,0.0,11.817743712010401,0.007084811523271746,0.03472844841755679,-0.04640854456139674,-2.6590137367128435,0.0,0.0,0.030502265978835527,1.7476511061727524,-5.810755858151221,0.0,-8.823367493747138,11.812246593408284,0.0,-0.3604120687154611,0.0,27.02922078594687,0.0,0.0,-0.300098321178502,0.0,-0.2639620203220735,0.3490658503988659,1.0,0.14,0.14,0.75,0.08726646259971647,5.0,0.184,0.175,0.174,0.0,0.0,0.0,-0.04706377635134788,0.0,0.022415552527439795,0.0,6.00555074437068,0.0,-0.5265697995068518,0.0,0.1383434411524915,0.0,-3.47763621890739,0.0,-0.01704983681970967,0.0,-0.014080793152334436,0.3629063217605389,0.11522834731845369,0.11702166811887006,0.0,0.0,0.0,0.35223102689850516,0.11702166811887006,0.0,0.0,0.1214100937793463,0.0,0.0,-0.0017775713363241917,0.0,1.4014242485685233,0.0,4.2182367601556905,0.0,0.20355706173896587,0.0,85.5411939085725,-1.5956073242063666,0.0,-4.148680339113104,0.0,0.20355706173896587,0.0
sim_raptor_glider_3dof,raptor_glider_3dof,0.03,-14.643010796959954,0.0,-0.007084811523271746,11.805019745410887,0.0,-0.548247437951572,0.0,0.0,0.0,-17.194367242489612,-0.300098321178502,-0.012696938116601367,0.0,0.0,0.0,0.0,0.0,-0.01590627858256121,-0.9113626305400907,0.0,0.0,11.817743712010401,0.007084811523271746,0.03472844841755679,-0.04640854456139674,-2.6590137367128435,0.0,0.0,0.030502265978835527,1.7476511061727524,-5.769239066711133,0.0,-8.913534103348272,11.812246593408284,0.0,-0.3604120687154611,0.0,26.022178306565642,0.0,0.0,-0.300098321178502,0.0,-0.2578426126775012,0.3490658503988659,1.0,0.14,0.14,0.75,0.08726646259971647,5.0,0.184,0.175,0.174,0.0,0.0,0.0,-0.03910725609278667,0.0,0.020775682163398194,0.0,6.0085466808022305,0.0,-0.5254860844263846,0.0,0.13824987471094569,0.0,-3.488363159048342,0.0,-0.019384314569742784,0.0,-0.013533976536781848,0.3649356895078107,0.11068583707191237,0.1159732885322141,0.0,0.0,0.0,0.3542550691550508,0.1159732885322141,0.0,0.0,0.11688665143412602,0.0,0.0,-0.0017775713363241917,0.0,1.3888690987568537,0.0,4.242476218916175,0.0,0.19597302482674586,0.0,85.5411939085725,-1.5841902065603426,0.0,-4.1734761567534155,0.0,0.19597302482674586,0.0
sim_raptor_glider_3dof,raptor_glider_3dof,0.031,-14.631201314933442,0.0,-0.00744793088362564,11.799258907790739,0.0,-0.5569480813931242,0.0,0.0,0.0,-15.706227620913118,-0.2741253850526097,-0.011603292948457643,0.0,0.0,0.0,0.0,0.0,-0.01619335997016855,-0.9278111824267506,0.0,0.0,11.812396113339858,0.00744793088362564,0.034712733589996346,-0.04716694552498998,-2.7024669111053905,0.0,0.0,0.030973585554821426,1.77465572867864,-5.752473223851743,0.0,-8.48876439237594,11.806730378420852,0.0,-0.3658137637115286,0.0,25.923920122485757,0.0,0.0,-0.2741253850526097,0.0,-0.2578426126775012,0.3490658503988659,1.0,0.14,0.14,0.75,0.08726646259971647,5.0,0.184,0.175,0.174,0.0,0.0,0.0,-0.039214448171932835,0.0,0.020756756712157515,0.0,6.008325532878895,0.0,-0.5255791036015818,0.0,0.1373716742610367,0.0,-3.48728020598765,0.0,-0.01913764785189517,0.0,-0.013463477001931122,0.36174434146292445,0.11088579965329873,0.11588762720079226,0.0,0.0,0.0,0.3519840508826476,0.11588762720079226,0.0,0.0,0.11655075038857926,0.0,0.0,-0.00162446101278407,0.0,1.386587508287413,0.0,4.211465018820782,0.0,0.19523304244244025,0.0,85.46379563546301,-1.5836137047210035,0.0,-4.141404370151464,0.0,0.19523304244244025,0.0
sim_raptor_glider_3dof,raptor_glider_3dof,0.032,-14.619397340419358,0.0,-0.007816389680847653,11.793515018310718,0.0,-0.5652285111955981,0.0,0.0,0.0,-14.223755669538061,-0.24825136843264967,-0.010512842914394001,0.0,0.0,0.0,0.0,0.0,-0.016454548356000225,-0.9427761745927401,0.0,0.0,11.807052119686304,0.007816389680847653,0.03469702935639103,-0.04789041507740053,-2.743918663064734,0.0,0.0,0.03143586672140031,1.8011424884719942,-5.735305236511602,0.0,-8.07209574038438,11.801218654674349,0.0,-0.37110378811726064,0.0,25.824112767224406,0.0,0.0,-0.24825136843264967,0.0,-0.2578426126775012,0.3490658503988659,1.0,0.14,0.14,0.75,0.08726646259971647,5.0,0.184,0.175,0.174,0.0,0.0,0.0,-0.03931656679845278,0.0,0.020738671536148424,0.0,6.008112344375784,0.0,-0.5256671590291675,0.0,0.1365336420935877,0.0,-3.4862453728848237,0.0,-0.018902448056893496,0.0,-0.013396713869783692,0.3586994317044279,0.11107610156019297,0.11580702527805317,0.0,0.0,0.0,0.34985670392404433,0.11580702527805317,0.0,0.0,0.11620715055545693,0.0,0.0,-0.0014717980080151602,0.0,1.3843696682147753,0.0,4.182224765476561,0.0,0.19448139324996702,0.0,85.3864845351195,-1.5829943800702924,0.0,-4.111157034206361,0.0,0.19448139324996702,0.0
sim_raptor_glider_3dof,raptor_glider_3dof,0.033,-14.607598875480106,0.0,-0.008190085820693149,11.787788470397286,0.0,-0.5730962671366592,0.0,0.0,0.0,-12.747045086725679,-0.22247790666352923,-0.009425662754347973,0.0,0.0,0.0,0.0,0.0,-0.016689913000703493,-0.9562615753808336,0.0,0.0,11.80171158579285,0.008190085820693149,0.034681335289878774,-0.048579542063000816,-2.783402730888203,0.0,0.0,0.03188962906229732,1.8271411555073696,-5.71779006270965,0.0,-7.66341770229697,11.795711228219766,0.0,-0.3762884195498538,0.0,25.72281015194479,0.0,0.0,-0.22247790666352923,0.0,-0.2578426126775012,0.3490658503988659,1.0,0.14,0.14,0.75,0.08726646259971647,5.0,0.184,0.175,0.174,0.0,0.0,0.0,-0.039413712488279615,0.0,0.020721421279249842,0.0,6.007907259474646,0.0,-0.5257504147389301,0.0,0.13573513400932538,0.0,-3.485258064497915,0.0,-0.018678507463274527,0.0,-0.01333356978140062,0.3557986018029015,0.11125695642431215,0.11573126191063554,0.0,0.0,0.0,0.34787061072669256,0.11573126191063554,0.0,0.0,0.11585607782220819,0.0,0.0,-0.0013195927856087164,0.0,1.38221273841637,0.0,4.15472173662464,0.0,0.19371848325429622,0.0,85.30925843674905,-1.5823371689808425,0.0,-4.082699333367991,0.0,0.19371848325429622,0.0
sim_raptor_glider_3dof,raptor_glider_3dof,0.034,-14.595805916450614,0.0,-0.008568929160505438,11.782079547201008,0.0,-0.5805583118611937,0.0,0.0,0.0,-11.27616984247249,-0.19680629076523526,-0.008341812743163689,0.0,0.0,0.0,0.0,0.0,-0.016899542605995424,-0.9682724670250544,0.0,0.0,11.79637429085918,0.008568929160505438,0.03466565074160034,-0.049234867971934625,-2.820950139675685,0.0,0.0,0.0323353253659392,1.8526776726506304,-5.699979641804218,0.0,-7.262624663054922,11.790207841376631,0.0,-0.38137313379999743,0.0,25.620060786105093,0.0,0.0,-0.19680629076523526,0.0,-0.2578426126775012,0.3490658503988659,1.0,0.14,0.14,0.75,0.08726646259971647,5.0,0.184,0.175,0.174,0.0,0.0,0.0,-0.039505978254812564,0.0,0.02070500007188089,0.0,6.007710413527286,0.0,-0.5258290233351995,0.0,0.13497555840846873,0.0,-3.4843177364697926,0.0,-0.018465635168117767,0.0,-0.013273934840091916,0.3530396753962516,0.11142856237406695,0.11566013188894754,0.0,0.0,0.0,0.3460235480563797,0.11566013188894754,0.0,0.0,0.11549773602741105,0.0,0.0,-0.0011678537840429165,0.0,1.3801140578218312,0.0,4.128924593208357,0.0,0.19294467778015748,0.0,85.23211408176033,-1.5816465843712624,0.0,-4.055998914095633,0.0,0.19294467778015748,0.0
sim_raptor_glider_3dof,raptor_glider_3dof,0.034999999999999996,-14.58401845867164,0.0,-0.008952806110062482,11.776388574641702,0.0,-0.5876237643030986,0.0,0.0,0.0,-9.811225077953688,-0.1712381812645292,-0.00726136871813108,0.0,0.0,0.0,0.0,0.0,-0.01708355616049139,-0.978815667070874,0.0,0.0,11.791040223378316,0.008952806110062482,0.0346499756777405,-0.049857117749483884,-2.856602425732212,0.0,0.0,0.03277356158899249,1.877786758661338,-5.681924278527133,0.0,-6.869580614297968,11.784708374640319,0.0,-0.38636520807093555,0.0,25.515925581650627,0.0,0.0,-0.1712381812645292,0.0,-0.2578426126775012,0.3490658503988659,1.0,0.14,0.14,0.75,0.08726646259971647,5.0,0.184,0.175,0.174,0.0,0.0,0.0,-0.03959348206646974,0.0,0.02068939596191933,0.0,6.0075218644834285,0.0,-0.5259031537233599,0.0,0.13425410876752053,0.0,-3.483423564566576,0.0,-0.018263582025500255,0.0,-0.013217685724743066,0.35041968839361537,0.11159116239686764,0.11559342036493954,0.0,0.0,0.0,0.3443124920059806,0.11559342036493954,0.0,0.0,0.11513238160339186,0.0,0.0,-0.0010165916205383512,0.0,1.3780709087923837,0.0,4.104792705927818,0.0,0.19216043555541087,0.0,85.15505124041546,-1.580926864275345,0.0,-4.031013872229988,0.0,0.19216043555541087,0.0
sim_raptor_glider_3dof,raptor_glider_3dof,0.036,-14.572236498492183,0.0,-0.009341631147963176,11.77071576041765,0.0,-0.5943000047139482,0.0,0.0,0.0,-8.35228539238276,-0.14577488016330567,-0.006184391509352655,0.0,0.0,0.0,0.0,0.0,-0.017242053953529114,-0.9878969216740735,0.0,0.0,11.785709228050191,0.009341631147963176,0.03463430964192363,-0.050446870791329465,-2.890392785984966,0.0,0.0,0.033204816837800355,1.9024958643108925,-5.6636712448911934,0.0,-6.484172726511748,11.779212600027709,0.0,-0.3912704071303206,0.0,25.410454010775318,0.0,0.0,-0.14577488016330567,0.0,-0.2578426126775012,0.3490658503988659,1.0,0.14,0.14,0.75,0.08726646259971647,5.0,0.184,0.175,0.174,0.0,0.0,0.0,-0.03967632049696,0.0,0.020674599356440455,0.0,6.007341692532725,0.0,-0.5259729517191678,0.0,0.13357014500116737,0.0,-3.4825749172549716,0.0,-0.018072147433444267,0.0,-0.013164715708881324,0.34793627586137776,0.11174495813855914,0.1155309382915997,0.0,0.0,0.0,0.3427350304473866,0.1155309382915997,0.0,0.0,0.11476022308341301,0.0,0.0,-0.0008658148113093718,0.0,1.3760808570191094,0.0,4.082292772851156,0.0,0.19136612915514892,0.0,85.07806760730347,-1.5801818019698477,0.0,-4.0077098548985,0.0,0.19136612915514892,0.0
sim_raptor_glider_3dof,raptor_glider_3dof,0.037,-14.560460032329395,0.0,-0.009735320416296248,11.765061279268602,0.0,-0.6005946068712666,0.0,0.0,0.0,-6.899425871564367,-0.12041769795607762,-0.005110942341274968,0.0,0.0,0.0,0.0,0.0,-0.017375141399505203,-0.9955222706346788,0.0,0.0,11.780381181725327,0.009735320416296248,0.03461865227225404,-0.05100472409651195,-2.9223554259593456,0.0,0.0,0.03362958269700675,1.9268331553246671,-5.645265631498498,0.0,-6.106284955082906,11.773720305348823,0.0,-0.3960946328404969,0.0,25.303695990334294,0.0,0.0,-0.12041769795607762,0.0,-0.2578426126775012,0.3490658503988659,1.0,0.14,0.14,0.75,0.08726646259971647,5.0,0.184,0.175,0.174,0.0,0.0,0.0,-0.03975459171547899,0.0,0.02066059911646274,0.0,6.007169952526443,0.0,-0.5260385599029017,0.0,0.13292300446156255,0.0,-3.481771122586267,0.0,-0.01789112622785581,0.0,-0.01311491972623698,0.34558698687747313,0.11189015273138521,0.1154725041195891,0.0,0.0,0.0,0.3412886649808488,0.1154725041195891,0.0,0.0,0.11438147113481285,0.0,0.0,-0.0007155319277784955,0.0,1.374141573502386,0.0,4.061390602819301,0.0,0.19056213450320758,0.0,85.00116134507014,-1.5794148613765027,0.0,-3.986051603825468,0.0,0.19056213450320758,0.0
sim_raptor_glider_3dof,raptor_glider_3dof,0.038,-14.548689056797178,0.0,-0.010133795477186165,11.759425264823614,0.0,-0.6065150404507105,0.0,0.0,0.0,-5.452719001647053,-0.09516789976479918,-0.0040410805698990904,0.0,0.0,0.0,0.0,0.0,-0.017482925171185916,-1.0016978258519853,0.0,0.0,11.775055968158489,0.010133795477186165,0.03460300322712536,-0.05153126709904504,-2.952524117736638,0.0,0.0,0.034048341927859126,1.9508262918846528,-5.626750317776235,0.0,-5.73580222079128,11.768231277621549,0.0,-0.40084367236461427,0.0,25.195700089385568,0.0,0.0,-0.09516789976479918,0.0,-0.2578426126775012,0.3490658503988659,1.0,0.14,0.14,0.75,0.08726646259971647,5.0,0.184,0.175,0.174,0.0,0.0,0.0,-0.039828391943814496,0.0,0.02064738334937072,0.0,6.007006682556361,0.0,-0.5261001147730063,0.0,0.13231203117245327,0.0,-3.481011504991458,0.0,-0.017720316773020214,0.0,-0.013068196642250018,0.34336939198547,0.11202694424201956,0.1154179461289891,0.0,0.0,0.0,0.33997092026713144,0.1154179461289891,0.0,0.0,0.11399633095591782,0.0,0.0,-0.0005657512797858727,0.0,1.372250855918458,0.0,4.042052401474692,0.0,0.1897488173731627,0.0,84.92433071919918,-1.5786291811107818,0.0,-3.9660042784119343,0.0,0.1897488173731627,0.0
sim_raptor_glider_3dof,raptor_glider_3dof,0.039,-14.53692356875421,0.0,-0.01053698441597478,11.753807802923657,0.0,-0.6120686449126416,0.0,0.0,0.0,-4.012234141717643,-0.07002669613390165,-0.002974863293537261,0.0,0.0,0.0,0.0,0.0,-0.017565513359747688,-1.0064297804942055,0.0,0.0,11.76973346742203,0.01053698441597478,0.03458736215410982,-0.05202707946903576,-2.980932073967485,0.0,0.0,0.03446156610928807,1.9745022934732794,-5.608166031173219,0.0,-5.372610758438158,11.762745294040762,0.0,-0.40552317033201196,0.0,25.086513335246615,0.0,0.0,-0.07002669613390165,0.0,-0.2578426126775012,0.3490658503988659,1.0,0.14,0.14,0.75,0.08726646259971647,5.0,0.184,0.175,0.174,0.0,0.0,0.0,-0.039897815155231914,0.0,0.02063493960949223,0.0,6.0068519056491745,0.0,-0.5261577466750528,0.0,0.13173657844914385,0.0,-3.4802953891431954,0.0,-0.017559521594212476,0.0,-0.01302444940911298,0.34128109381041344,0.11215552515623707,0.11536710224860876,0.0,0.0,0.0,0.3387793549562772,0.11536710224860876,0.0,0.0,0.11360500157677314,0.0,0.0,-0.00041648086109521656,0.0,1.3704066234426324,0.0,4.0242448919037805,0.0,0.18892653192774225,0.0,84.84757394514509,-1.577827589128068,0.0,-3.9475335796640683,0.0,0.18892653192774225,0.0
sim_raptor_glider_3dof,raptor_glider_3dof,0.04,-14.525163565266991,0.0,-0.010944820433658402,11.748208943275174,0.0,-0.617262655737986,0.0,0.0,0.0,-2.578038222202453,-0.04499525521969398,-0.001912345862621178,0.0,0.0,0.0,0.0,0.0,-0.01762301513980946,-1.0097243898062345,0.0,0.0,11.764413566388232,0.010944820433658402,0.03457172872076238,-0.05249273327155445,-3.0076120715660246,0.0,0.0,0.03486971813174499,1.99788768175979,-5.58955145031062,0.0,-5.016597914424295,11.757262132041713,0.0,-0.41013865884282713,0.0,24.976181459530487,0.0,0.0,-0.04499525521969398,0.0,-0.2578426126775012,0.3490658503988659,1.0,0.14,0.14,0.75,0.08726646259971647,5.0,0.184,0.175,0.174,0.0,0.0,0.0,-0.039962953395276474,0.0,0.020623254965944884,0.0,6.0067056300592006,0.0,-0.5262115802449636,0.0,0.13119600646960275,0.0,-3.479622097507088,0.0,-0.017408546602283775,0.0,-0.012983584812694774,0.339319719182253,0.11227608301123751,0.11531981943801607,0.0,0.0,0.0,0.3377115533699052,0.11531981943801607,0.0,0.0,0.11320767674026892,0.0,0.0,-0.00026772842076696495,0.0,1.368606911312599,0.0,4.0079352207154075,0.0,0.1880956225717241,0.0,84.77088933951445,-1.577012622769542,0.0,-3.9306056529203235,0.0,0.1880956225717241,0.0
sim_raptor_glider_3dof,raptor_glider_3dof,0.04,-14.525163565266991,0.0,-0.010944820433658402,11.748208943275174,0.0,-0.617262655737986,0.0,0.0,0.0,-2.578038222202453,-0.04499525521969398,-0.001912345862621178,0.0,0.0,0.0,0.0,0.0,-0.01762301513980946,-1.0097243898062345,0.0,0.0,11.764413566388232,0.010944820433658402,0.03457172872076238,-0.05249273327155445,-3.0076120715660246,0.0,0.0,0.03486971813174499,1.99788768175979,-5.524880288508185,0.0,-5.158456902115105,11.757262132041713,0.0,-0.41013865884282713,0.0,23.385536875020453,0.0,0.0,-0.04499525521969398,0.0,-0.24789814629284723,0.3490658503988659,1.0,0.14,0.14,0.75,0.08726646259971647,5.0,0.184,0.175,0.174,0.0,0.0,0.0,-0.028547546409252215,0.0,0.018229557177923558,0.0,6.011785698050592,0.0,-0.524636743526774,0.0,0.13107056642024834,0.0,-3.4975946146545573,0.0,-0.020755341794986438,0.0,-0.012176527439298734,0.3425250391855254,0.10506147506743625,0.11365087236444861,0.0,0.0,0.0,0.3409155132945969,0.11365087236444861,0.0,0.0,0.10599788055010076,0.0,0.0,-0.00026772842076696495,0.0,1.3487999734364338,0.0,4.0459595752268065,0.0,0.17611647820577903,0.0,84.77088933951445,-1.5592280532738725,0.0,-3.969616874535296,0.0,0.17611647820577903,0.0
sim_raptor_glider_3dof,raptor_glider_3dof,0.041,-14.513409010062079,0.0,-0.011357307115339596,11.742692852946288,0.0,-0.6222535601262883,0.0,0.0,0.0,-1.241059347380588,-0.021660571824443323,-0.0009210078297594464,0.0,0.0,0.0,0.0,0.0,-0.017656342186261352,-1.0116338889115644,0.0,0.0,11.759168122436453,0.011357307115339596,0.03455631409220504,-0.05294118775422311,-3.0333066207266612,0.0,0.0,0.035284845567961756,2.0216727318150967,-5.507301594969856,0.0,-4.823377393673271,11.751848680219176,0.0,-0.41483433917222057,0.0,23.283837296020586,0.0,0.0,-0.021660571824443323,0.0,-0.24789814629284723,0.3490658503988659,1.0,0.14,0.14,0.75,0.08726646259971647,5.0,0.184,0.175,0.174,0.0,0.0,0.0,-0.028593938640920972,0.0,0.018221949186409854,0.0,6.011666008058921,0.0,-0.5246843293152541,0.0,0.13054977248080937,0.0,-3.4969971300546505,0.0,-0.020614011606367375,0.0,-0.012138698386469608,0.3406335270409433,0.10518018307668013,0.11360543344044029,0.0,0.0,0.0,0.33985837623607834,0.11360543344044029,0.0,0.0,0.10563108971991986,0.0,0.0,-0.0001289410961663225,0.0,1.3470586674662077,0.0,4.029817567306898,0.0,0.17535057867633105,0.0,84.69531195268978,-1.5584150446752822,0.0,-3.952889984290083,0.0,0.17535057867633105,0.0
sim_raptor_glider_3dof,raptor_glider_3dof,0.042,-14.501659866978292,0.0,-0.01177446023314863,11.737194329960097,0.0,-0.6269127111331023,0.0,0.0,0.0,0.09006172847596157,0.001571873691942664,0.00006686590678610148,0.0,0.0,0.0,0.0,0.0,-0.01766638654268129,-1.012209388142352,0.0,0.0,11.753924888590522,0.01177446023314863,0.03454090595841935,-0.053361777968813,-3.0574046649271636,0.0,0.0,0.035695391426131706,2.0451952767848116,-5.489744302462614,0.0,-4.4949250402744845,11.746437487490846,0.0,-0.41947185733663966,0.0,23.181053483670777,0.0,0.0,0.001571873691942664,0.0,-0.24789814629284723,0.3490658503988659,1.0,0.14,0.14,0.75,0.08726646259971647,5.0,0.184,0.175,0.174,0.0,0.0,0.0,-0.02863741054122219,0.0,0.01821481432466015,0.0,6.011552982707199,0.0,-0.5247287211793673,0.0,0.1300612528176096,0.0,-3.4964361605905925,0.0,-0.020481492958087634,0.0,-0.012103386396694681,0.3388594665131285,0.10529136991755797,0.11356320994125992,0.0,0.0,0.0,0.33891574202492186,0.11356320994125992,0.0,0.0,0.1052586389851423,0.0,0.0,9.36122695005421e-6,0.0,1.3453574572519165,0.0,4.015057527425829,0.0,0.17457651378552463,0.0,84.61980009369714,-1.5575914166911116,0.0,-3.9375858866788325,0.0,0.17457651378552463,0.0
sim_raptor_glider_3dof,raptor_glider_3dof,0.043000000000000003,-14.48991613418578,0.0,-0.012196227238302437,11.731713342348344,0.0,-0.6312462757619907,0.0,0.0,0.0,1.415267387860677,0.02470107571426844,0.0010512273648835694,0.0,0.0,0.0,0.0,0.0,-0.01765324366651657,-1.0114563568074504,0.0,0.0,11.748683747879912,0.012196227238302437,0.03452550397566755,-0.053754990766430914,-3.0799340986812016,0.0,0.0,0.036101747099914344,2.0684777418737514,-5.472239162093104,0.0,-4.173003056095469,11.741028337313981,0.0,-0.4240558808549398,0.0,23.07722426847469,0.0,0.0,0.02470107571426844,0.0,-0.24789814629284723,0.3490658503988659,1.0,0.14,0.14,0.75,0.08726646259971647,5.0,0.184,0.175,0.174,0.0,0.0,0.0,-0.028678020375160557,0.0,0.018208143961103308,0.0,6.01144663826118,0.0,-0.5247700158327543,0.0,0.12960445873970264,0.0,-3.49591117266693,0.0,-0.02035762642539972,0.0,-0.012070518347380274,0.3372008261713311,0.10539519231169335,0.11352407897191323,0.0,0.0,0.0,0.33808554178054595,0.11352407897191323,0.0,0.0,0.104880692663106,0.0,0.0,0.00014717183108369975,0.0,1.3436947576108247,0.0,4.001651228784058,0.0,0.1737945759658829,0.0,84.54435203649398,-1.5567589990049087,0.0,-3.9236755188823924,0.0,0.1737945759658829,0.0
sim_raptor_glider_3dof,raptor_glider_3dof,0.044,-14.478177809651468,0.0,-0.012622554819757322,11.726249822425412,0.0,-0.6352610057380594,0.0,0.0,0.0,2.734496368746294,0.0477259650184518,0.0020320258058873137,0.0,0.0,0.0,0.0,0.0,-0.017617021582032075,-1.0093809842413226,0.0,0.0,11.743444615756628,0.012622554819757322,0.034510107895490985,-0.054121363766131955,-3.1009257252916194,0.0,0.0,0.03650434218409988,2.091544741050297,-5.454815300170627,0.0,-3.8575061114380613,11.73562102123255,0.0,-0.42859151805425744,0.0,22.97239125282563,0.0,0.0,0.0477259650184518,0.0,-0.24789814629284723,0.3490658503988659,1.0,0.14,0.14,0.75,0.08726646259971647,5.0,0.184,0.175,0.174,0.0,0.0,0.0,-0.028715830733033,0.0,0.018201928723104322,0.0,6.011346964367751,0.0,-0.5248083113082482,0.0,0.1291787809141189,0.0,-3.4954215548409304,0.0,-0.02024223720538241,0.0,-0.012040019850410111,0.3356553561955471,0.10549181783307686,0.11348791886918623,0.0,0.0,0.0,0.3373654858979104,0.11348791886918623,0.0,0.0,0.10449742768081205,0.0,0.0,0.00028448361282422396,0.0,1.342069010785188,0.0,3.9895679508755753,0.0,0.17300507852502983,0.0,84.46896652448004,-1.5559194125904048,0.0,-3.911127260252189,0.0,0.17300507852502983,0.0
